SALE TYPE,SOLD DATE,PROPERTY TYPE,ADDRESS,CITY,STATE OR PROVINCE,ZIP OR POSTAL CODE,PRICE,BEDS,BATHS,LOCATION,SQUARE FEET,LOT SIZE,YEAR BUILT,DAYS ON MARKET,$/SQUARE FEET,HOA/MONTH,STATUS,NEXT OPEN HOUSE START TIME,NEXT OPEN HOUSE END TIME,URL (SEE https://www.redfin.com/buy-a-home/comparative-market-analysis FOR INFO ON PRICING),SOURCE,MLS#,FAVORITE,INTERESTED,LATITUDE,LONGITUDE
"In accordance with local MLS rules, some MLS listings are not included in the download"
MLS Listing,,Condo/Co-op,17614 Front Beach Rd Unit A14,Panama City Beach,FL,32413,299000,2,1.0,Endless Summer I,620,,1985,112,482,400,Active,,,https://www.redfin.com/FL/Panama-City-Beach/17614-Front-Beach-Rd-32413/unit-A14/home/117310807,CPARMLS,745187,N,Y,30.2323322,-85.9058747
MLS Listing,,Single Family Residential,5826 Hilltop Ave,Panama City Beach,FL,32408,599000,3,3.0,Biltmore Beach,1456,5663,1994,90,411,,Active,,,https://www.redfin.com/FL/Panama-City/5826-Hilltop-Ave-32408/home/118286634,CPARMLS,746151,N,Y,30.1502186,-85.7581932
MLS Listing,,Condo/Co-op,6505 Thomas Dr Unit 311-C,Panama City Beach,FL,32408,519000,2,2.0,Summerhouse Of P.C. 3,1015,,1987,94,511,920,Active,,,https://www.redfin.com/FL/Panama-City-Beach/6505-Thomas-Dr-32408/unit-311-C/home/178396783,CPARMLS,746061,N,Y,30.152172,-85.768458
MLS Listing,,Vacant Land,12340 Highway 2301,Youngstown,FL,32466,30888,,,Timber Run Estates,,53579,,118,,,Active,,,https://www.redfin.com/FL/Youngstown/12340-Highway-2301-32466/home/117072962,CPARMLS,744884,N,Y,30.373631,-85.533312
MLS Listing,,Single Family Residential,6610 Lake Dr,Panama City,FL,32404,335000,3,2.0,Callaway,1336,16553,2020,108,251,,Active,,,https://www.redfin.com/FL/Panama-City/6610-Lake-Dr-32404/home/117493339,CPARMLS,745380,N,Y,30.1341801,-85.576942
MLS Listing,,Vacant Land,11727 Owenwood Rd,Fountain,FL,32438,129000,,,[No Recorded Subdiv],,435600,,39,,,Active,,,https://www.redfin.com/FL/Fountain/11727-Owenwood-Rd-32438/home/117883247,CPARMLS,748404,N,Y,30.509412,-85.4302429
MLS Listing,,Single Family Residential,8210 Woodleigh Rd,Youngstown,FL,32466,199900,3,2.0,Floribay East,1100,39204,1989,66,182,,Active,,,https://www.redfin.com/FL/Youngstown/8210-Woodleigh-Rd-32466/home/118060631,CPARMLS,747259,N,Y,30.2975956,-85.5343372
MLS Listing,,Condo/Co-op,17462 Front Beach 82 D Rd,Panama City Beach,FL,32413,329900,2,2.0,Horizon South XVI,960,,1993,62,344,517,Active,,,https://www.redfin.com/FL/Inlet-Beach/17462-Front-Beach-82-D-RD-32413/home/188433063,CPARMLS,747388,N,Y,30.230306,-85.900663
MLS Listing,,Single Family Residential,6813 Hwy 2311,Panama City,FL,32404,575000,3,2.0,Deerpoint Estates,2044,77798,1998,29,281,,Active,,,https://www.redfin.com/FL/Panama-City/6813-Highway-2311-32404/home/117877879,CPARMLS,748856,N,Y,30.27323,-85.587203
MLS Listing,,Single Family Residential,4922 Deerwood Ave,Youngstown,FL,32466,339000,3,2.0,Lake Forest Estates,1725,23479,2003,58,197,,Active,,,https://www.redfin.com/FL/Youngstown/4922-Deerwood-Ave-32466/home/117601652,CPARMLS,747633,N,Y,30.3152548,-85.5768274
MLS Listing,,Vacant Land,5103 Sacred Oak Dr,Panama City,FL,32404,75000,,,Bayou Oaks North,,29185,,206,,,Active,,,https://www.redfin.com/FL/Panama-City/5103-Sacred-Oak-Dr-32404/home/117382247,CPARMLS,741367,N,Y,30.2941705,-85.5734329
MLS Listing,,Single Family Residential,3123 Willie Dr,Southport,FL,32409,378000,4,2.0,Hodges Bayou Plantation 1,2306,6970,2023,27,164,58,Active,,,https://www.redfin.com/FL/Southport/3123-Willie-Dr-32409/home/183369352,CPARMLS,748976,N,Y,30.28354,-85.617039
MLS Listing,,Single Family Residential,1630 Mylisa Rd,Southport,FL,32409,114900,2,1.0,[No Recorded Subdiv],1664,130680,1980,82,69,,Active,,,https://www.redfin.com/FL/Southport/1630-Mylisa-Rd-32409/home/117231021,CPARMLS,746542,N,Y,30.3981612,-85.7142183
MLS Listing,,Vacant Land,Lot 36 A Hickory Bluff Dr,Southport,FL,32409,19500,,,No Named Subdivision,,21780,,253,,,Active,,,https://www.redfin.com/FL/Unknown/Lot-36-A-Hickory-Bluff-Dr-32409/home/184825439,CPARMLS,739280,N,Y,30.278883,-85.672577
MLS Listing,,Single Family Residential,4205 Deerpoint Lake Dr,Southport,FL,32409,599900,4,3.5,Deerpoint Lake Heights,2400,37113,1993,1,250,,Active,,,https://www.redfin.com/FL/Southport/4205-Deerpoint-Lake-Dr-32409/home/117508680,CPARMLS,749845,N,Y,30.3131037,-85.5955965
MLS Listing,,Vacant Land,7205 W Lakeland Dr,Panama City,FL,32404,395000,,,[No Recorded Subdiv],,61637,,395,,,Active,,,https://www.redfin.com/FL/Panama-City/7205-W-Lakeland-Dr-32404/home/117600505,CPARMLS,734297,N,Y,30.279969,-85.589042
MLS Listing,,Vacant Land,619 North Bay Dr,Lynn Haven,FL,32444,495000,,,[No Recorded Subdiv],,22085,,443,,,Active,,,https://www.redfin.com/FL/Lynn-Haven/619-N-Bay-Dr-32444/home/170577051,CPARMLS,732350,N,Y,30.254872,-85.617059
MLS Listing,,Single Family Residential,237 Hodges Bayou Plantation Blvd,Southport,FL,32409,369900,4,2.0,Hodges Bayou Plantation 1,2276,10890,2021,41,163,49,Active,,,https://www.redfin.com/FL/Southport/237-Hodges-Bayou-Plantation-Blvd-32409/home/170576938,CPARMLS,748290,N,Y,30.2788941,-85.6121861
MLS Listing,,Vacant Land,0 Hwy 77,Southport,FL,32409,399000,,,No Named Subdivision,,217800,,361,,,Active,,,https://www.redfin.com/FL/Southport/0-Hwy-77-32409/home/183234655,CPARMLS,735256,N,Y,30.357465,-85.667669
MLS Listing,,Vacant Land,20033 Highway 231,Fountain,FL,32438,75000,,,Tung Grove Ests 1st Sec,,61855,,454,,,Active,,,https://www.redfin.com/FL/Fountain/20033-US-231-32438/home/178401518,CPARMLS,731845,N,Y,30.512053,-85.411526
MLS Listing,,Vacant Land,3339 Nautical Dr,Southport,FL,32409,95000,,,Kirkland Manor,,27480,,105,,15,Active,,,https://www.redfin.com/FL/Southport/3339-Nautical-Dr-32409/home/118403034,CPARMLS,745372,N,Y,30.289581,-85.607954
MLS Listing,,Vacant Land,2008 Country Club Dr,Lynn Haven,FL,32444,225000,,,Country Club Harbour Estates,,17600,,70,,48,Active,,,https://www.redfin.com/FL/Lynn-Haven/2008-Country-Club-Dr-32444/home/117126547,CPARMLS,747065,N,Y,30.2542257,-85.6264053
MLS Listing,,Vacant Land,0 Dickerson Rd,Fountain,FL,32438,195500,,,No Named Subdivision,,1742400,,508,,,Active,,,https://www.redfin.com/FL/Fountain/Dickerson-Rd-32438/home/118465510,CPARMLS,729475,N,Y,30.519529,-85.39442
MLS Listing,,Vacant Land,00 Hwy 2311,Panama City,FL,32404,395000,,,Deer Point Lake,,49658,,395,,,Active,,,https://www.redfin.com/FL/Panama-City/Highway-2311-32404/home/117005245,CPARMLS,734298,N,Y,30.262168,-85.587398
MLS Listing,,Vacant Land,105 & 201 Harbour Pointe Dr,Lynn Haven,FL,32444,575000,,,Harbour Point Replat,,31799,,7,,,Active,,,https://www.redfin.com/FL/Lynn-Haven/105-Harbour-Pointe-Dr-32444/home/117130174,CPARMLS,749654,N,Y,30.2543021,-85.6476818
MLS Listing,,Vacant Land,9105 Ruff Rd,Youngstown,FL,32466,21562,,,[No Recorded Subdiv],,44997,,650,,,Active,,,https://www.redfin.com/FL/Youngstown/9105-Ruff-Rd-32466/home/178376990,CPARMLS,673732,N,Y,30.3146263,-85.5455115
MLS Listing,,Vacant Land,0000 Edwards Rd,Southport,FL,32409,1000000,,,No Named Subdivision,,1742400,,291,,,Active,,,https://www.redfin.com/FL/Southport/Edwards-Rd-32409/home/117891439,CPARMLS,737682,N,Y,30.323504,-85.600831
MLS Listing,,Vacant Land,0000 Jaycee Dr,Youngstown,FL,32466,19995,,,Airport Industrial Park,,55757,,251,,,Active,,,https://www.redfin.com/FL/Youngstown/Jaycee-Dr-32466/home/117827583,CPARMLS,739355,N,Y,30.316247,-85.552582
MLS Listing,,Vacant Land,2127 Bayberry Ln,Southport,FL,32409,55000,,,No Named Subdivision,,143748,,75,,,Active,,,https://www.redfin.com/FL/Southport/2127-Bayberry-Ln-32409/home/117694497,CPARMLS,746859,N,Y,30.390139,-85.71966
MLS Listing,,Single Family Residential,8660 Weekend Dr,Panama City Beach,FL,32413,475000,2,2.0,Latitude Margaritaville,1315,,2023,110,361,298,Active,,,https://www.redfin.com/FL/Inlet-Beach/8660-Weekend-DR-32413/home/186644284,CPARMLS,745325,N,Y,30.318062,-85.86944
MLS Listing,,Vacant Land,6312 B Hwy 77,Southport,FL,32409,139000,,,No Named Subdivision,,98010,,210,,,Active,,,https://www.redfin.com/FL/Panama-City/6312-FL-77-32409/home/178376840,CPARMLS,741151,N,Y,30.2645284,-85.6454339
MLS Listing,,Condo/Co-op,1600 Marina Bay Dr #807,Southport,FL,32409,475000,2,2.0,Marina Bay Condo,1525,,2001,29,311,522,Active,,,https://www.redfin.com/FL/Panama-City/1600-Marina-Bay-Dr-32409/unit-807/home/188448446,CPARMLS,748858,N,Y,30.2650996,-85.6470597
MLS Listing,,Vacant Land,TBD Elma Ruth Dr,Southport,FL,32409,75000,,,Carrie Bell Pt.,,19471,,84,,,Active,,,https://www.redfin.com/FL/Unknown/TBD-Elma-Ruth-Dr-32409/home/187435728,CPARMLS,746454,N,Y,30.268069,-85.648515
MLS Listing,,Single Family Residential,3260 Country Club Dr,Lynn Haven,FL,32444,720000,5,4.0,Country Club Harbour Estates,3744,13068,2002,67,192,48,Active,,,https://www.redfin.com/FL/Lynn-Haven/3260-Country-Club-Dr-32444/home/117909850,CPARMLS,747012,N,Y,30.2472414,-85.6348555
MLS Listing,,Vacant Land,8705 Dorothy Farris Rd,Southport,FL,32409,130000,,,Kingswood,,208217,,476,,,Active,,,https://www.redfin.com/FL/Southport/8705-Dorothy-Farris-Rd-32409/home/117135577,CPARMLS,730930,N,Y,30.308381,-85.62096
MLS Listing,,Vacant Land,9723 Sweetfield Ln,Southport,FL,32409,95000,,,[No Recorded Subdiv],,53579,,48,,121,Active,,,https://www.redfin.com/FL/Southport/9723-Sweetfield-Ln-32409/home/117660689,CPARMLS,748027,N,Y,30.328947,-85.59766
MLS Listing,,Single Family Residential,6839 Waverly St,Youngstown,FL,32466,310000,3,3.0,[No Recorded Subdiv],1575,19000,1977,62,197,,Active,,,https://www.redfin.com/FL/Youngstown/6839-Waverly-St-32466/home/118325174,CPARMLS,747407,N,Y,30.297075,-85.5365384
MLS Listing,,Vacant Land,000 Highway 77,Southport,FL,32409,899000,,,No Named Subdivision,,1219680,,650,,,Active,,,https://www.redfin.com/FL/Panama-City/Highway-77-32409/home/117405949,CPARMLS,717136,N,Y,30.295399,-85.647382
MLS Listing,,Vacant Land,641 Malaga Pl,Panama City Beach,FL,32413,300000,,,Sand Dollar Estates,,81022,,68,,,Active,,,https://www.redfin.com/FL/Panama-City-Beach/641-Malaga-Pl-32413/home/117317667,CPARMLS,747148,N,Y,30.247381,-85.920531
MLS Listing,,Vacant Land,9108 Ruff Dr,Youngstown,FL,32466,21562,,,[No Recorded Subdiv],,43996,,650,,,Active,,,https://www.redfin.com/FL/Youngstown/9108-Ruff-Rd-32466/home/118173840,CPARMLS,673735,N,Y,30.315058,-85.5443109
MLS Listing,,Vacant Land,11630 County Line Rd,Fountain,FL,32438,100000,,,No Named Subdivision,,435600,,291,,,Active,,,https://www.redfin.com/FL/Fountain/11630-County-Line-Rd-32438/home/118318596,CPARMLS,737704,N,Y,30.5664658,-85.4310187
MLS Listing,,Single Family Residential,5009 Highpoint Rd,Panama City,FL,32404,1104800,3,3.0,No Named Subdivision,2561,42253,2023,23,431,,Active,,,https://www.redfin.com/FL/Panama-City/5009-High-Point-Rd-32404/home/117907689,CPARMLS,749159,N,Y,30.2985849,-85.5748278
MLS Listing,,Single Family Residential,8526 Lost Shaker Way,Panama City Beach,FL,32413,832990,3,2.5,Latitude Margaritaville Phase III,2393,6926,2022,88,348,292,Active,,,https://www.redfin.com/FL/Panama-City-Beach/8526-Lost-Shaker-Way-32413/home/177654114,CPARMLS,746250,N,Y,30.308193,-85.8577339
MLS Listing,,Vacant Land,,Youngstown,FL,32466,38900,,,,,43560,,13,,,Active,,,https://www.redfin.com/FL/Youngstown/Undisclosed-address-32466/home/117804778,CPARMLS,749496,N,Y,30.316081,-85.5467542
MLS Listing,,Vacant Land,7515 Morning Marsh Trl,Panama City Beach,FL,32413,505000,,,Rivercamps On Crooked Creek Ph 2,,54450,,160,,948,Active,,,https://www.redfin.com/FL/Panama-City-Beach/7515-Morning-Marsh-Trl-32413/home/117384065,CPARMLS,743303,N,Y,30.289362,-85.818714
MLS Listing,,Mobile/Manufactured Home,9035 Keiber Pl,Youngstown,FL,32466,99000,4,2.0,No Named Subdivision,1620,44867,2006,5,61,,Active,,,https://www.redfin.com/FL/Youngstown/9035-Keiber-Pl-32466/home/117930624,CPARMLS,749711,N,Y,30.3132147,-85.5375218
MLS Listing,,Vacant Land,13100 Highway 77,Southport,FL,32409,1200000,,,No Named Subdivision,,87120,,111,,,Active,,,https://www.redfin.com/FL/Southport/13100-FL-77-32409/home/178399948,CPARMLS,745236,N,Y,30.389798,-85.67976
MLS Listing,,Vacant Land,Lot 6 A Hickory Bluff Dr,Southport,FL,32409,29500,,,Hickory Bluff,,21780,,119,,,Active,,,https://www.redfin.com/FL/Unknown/Lot-6-A-Hickory-Bluff-Dr-32409/home/186363334,CPARMLS,744861,N,Y,30.279994,-85.676815
MLS Listing,,Single Family Residential,7219 Hiawatha St,Panama City,FL,32404,335000,4,2.0,Callaway Bayou Estates Unit 3,2180,24800,1971,115,154,,Active,,,https://www.redfin.com/FL/Panama-City/7219-Hiawatha-St-32404/home/117925073,CPARMLS,745041,N,Y,30.1381669,-85.5653595
MLS Listing,,Vacant Land,000 Hwy 77,Southport,FL,32409,255000,,,No Named Subdivision,,54450,,296,,,Active,,,https://www.redfin.com/FL/Southport/00-Highway-77-HWY-32409/home/178411011,CPARMLS,737473,N,Y,30.370095,-85.675611
MLS Listing,,Mobile/Manufactured Home,8218 Greyling Cir,Youngstown,FL,32466,76300,3,2.0,No Named Subdivision,1296,58370,1997,46,59,,Active,,,https://www.redfin.com/FL/Youngstown/8218-Grayling-Cir-32466/home/118209505,CPARMLS,748106,N,Y,30.3094894,-85.5076902
MLS Listing,,Vacant Land,631 Malaga Pl,Panama City Beach,FL,32413,125000,,,Sand Dollar Estates,,12197,,68,,,Active,,,https://www.redfin.com/FL/Panama-City-Beach/631-Malaga-Pl-32413/home/118113952,CPARMLS,747146,N,Y,30.247491,-85.921323
MLS Listing,,Single Family Residential,8613 Conch Shell Ct,Panama City Beach,FL,32413,465000,2,2.0,Latitude Margaritaville,1321,,2022,86,352,298,Active,,,https://www.redfin.com/FL/Panama-City-Beach/8613-Conch-Shell-Ct-32413/home/177653940,CPARMLS,746128,N,Y,30.313837,-85.860206
MLS Listing,,Vacant Land,1117 E East Water Oak Bnd,Panama City Beach,FL,32413,164000,,,Wild Heron Phase II,,9932,,485,,867,Active,,,https://www.redfin.com/FL/Panama-City-Beach/1117-E-Water-Oak-Bnd-32413/home/118413891,CPARMLS,730495,N,Y,30.276508,-85.971462
MLS Listing,,Multi-Family (2-4 Unit),22125 Bataan Ave,Panama City Beach,FL,32413,800000,4,3.5,Kiska Beach,2160,,1983,117,370,,Active,,,https://www.redfin.com/FL/Panama-City-Beach/22125-Bataan-Ave-32413/home/118046666,CPARMLS,744921,N,Y,30.2580671,-85.9621694
MLS Listing,,Single Family Residential,8633 Shell Sink Dr,Panama City Beach,FL,32413,475000,2,2.0,Latitude Margaritaville,1315,,2023,82,361,298,Active,,,https://www.redfin.com/FL/Inlet-Beach/8633-Shell-Sink-DR-32413/home/187461762,CPARMLS,746543,N,Y,30.315687,-85.873012
MLS Listing,,Single Family Residential,118 Butler Cv,Panama City Beach,FL,32413,411743,3,2.0,Bayside at Ward Creek,1736,5227,2023,27,237,42,Active,,,https://www.redfin.com/FL/Inlet-Beach/118-Butler-CV-32413/home/188474765,CPARMLS,748933,N,Y,30.249682,-85.875694
MLS Listing,,Vacant Land,8348 Angie Cir Cir,Panama City,FL,32404,99999,,,[No Recorded Subdiv],,43560,,236,,,Active,,,https://www.redfin.com/FL/Panama-City/8348-Angie-Cir-32404/home/118576277,CPARMLS,740031,N,Y,30.2997046,-85.4924041
MLS Listing,,Vacant Land,0-D Little Blue Ln Unit Parcel D,Southport,FL,32409,300000,,,[No Recorded Subdiv],,483516,,258,,,Active,,,https://www.redfin.com/FL/Unknown/0-D-Little-Blue-Ln-32409/unit-Parcel-D/home/184773521,CPARMLS,739064,N,Y,30.418172,-85.633132
MLS Listing,,Single Family Residential,6909 Ross Dr,Panama City,FL,32404,273000,4,2.0,Callaway Point,1616,10019,1994,100,169,,Active,,,https://www.redfin.com/FL/Panama-City/6909-Ross-Dr-32404/home/117266150,CPARMLS,745776,N,Y,30.1218725,-85.5733908
MLS Listing,,Condo/Co-op,23223 Front Beach Rd Unit A131,Panama City Beach,FL,32413,575000,3,3.0,Pinnacle Port Phase 1-A,1244,,1970,7,462,1350,Active,,,https://www.redfin.com/FL/Panama-City-Beach/23223-Front-Beach-Rd-32413/unit-A131/home/117315079,CPARMLS,749658,N,Y,30.2657608,-85.9865413
MLS Listing,,Vacant Land,925 Tidewater Ln,Panama City,FL,32404,59000,,,Laird Point Ph I,,26136,,516,,21,Active,,,https://www.redfin.com/FL/Panama-City/925-Tidewater-Ln-32404/home/117362564,CPARMLS,729101,N,Y,30.129563,-85.533288
MLS Listing,,Vacant Land,112 Lake Merial Shores Dr,Southport,FL,32409,99999,,,Lake Merial,,14723,,89,,103,Active,,,https://www.redfin.com/FL/Southport/112-Lake-Merial-Shores-Dr-32409/home/118129655,CPARMLS,746166,N,Y,30.384738,-85.677449
MLS Listing,,Single Family Residential,2616 Country Club Dr,Lynn Haven,FL,32444,995000,3,3.0,Grand View,3190,12300,2006,234,312,48,Active,,,https://www.redfin.com/FL/Lynn-Haven/2616-Country-Club-Dr-32444/home/117116550,CPARMLS,740146,N,Y,30.2516117,-85.6228895
MLS Listing,,Vacant Land,Lot 52 Park Way St,Panama City,FL,32404,48000,,,Sandy Creek Air Park Ph II,,28183,,327,,42,Active,,,https://www.redfin.com/FL/Sandy-Creek-Air-Park-Phase-II/Lot-52-Park-Way-32404/home/183755788,CPARMLS,736259,N,Y,30.102438,-85.484596
MLS Listing,,Vacant Land,8929 N Lagoon Dr,Panama City Beach,FL,32408,1250000,,,Lagoon Heights,,42689,,650,,,Active,,,https://www.redfin.com/FL/Panama-City/8929-N-Lagoon-Dr-32408/home/118786583,CPARMLS,701927,N,Y,30.171421,-85.789363
MLS Listing,,Vacant Land,14935 Joshua Dr,Youngstown,FL,32466,40000,,,No Named Subdivision,,32670,,116,,,Active,,,https://www.redfin.com/FL/Youngstown/14935-Joshua-Dr-32466/home/186465970,CPARMLS,744978,N,Y,30.420755,-85.455273
MLS Listing,,Condo/Co-op,23223 Front Beach Rd #503,Panama City Beach,FL,32413,699000,3,3.0,Pinnacle Port Phase 1-A,1244,,1970,188,562,1061,Active,,,https://www.redfin.com/FL/Panama-City-Beach/23223-Front-Beach-Rd-32413/unit-503/home/117594641,CPARMLS,742122,N,Y,30.2657608,-85.9865413
MLS Listing,,Townhouse,2714 Country Club Dr,Lynn Haven,FL,32444,865000,4,2.5,Grand View,2700,4488,1987,312,320,47,Active,,,https://www.redfin.com/FL/Lynn-Haven/2714-Country-Club-Dr-32444/home/117006891,CPARMLS,736814,N,Y,30.2506872,-85.6224967
MLS Listing,,Vacant Land,7-11 N Bay Dr,Lynn Haven,FL,32444,110000,,,College Point 2nd Add,,37462,,217,,,Active,,,https://www.redfin.com/FL/Lynn-Haven/711-N-Bay-Dr-32444/home/178385150,CPARMLS,740817,N,Y,30.2556101,-85.614229
MLS Listing,,Vacant Land,6510 W Sundew Marsh Trl Lot 61,Panama City Beach,FL,32413,162800,,,Rivercamps On Crooked Creek,,73616,,237,,214,Active,,,https://www.redfin.com/FL/Panama-City-Beach/6510-W-Sundew-Marsh-Trl-32413/unit-61/home/178401544,CPARMLS,739635,N,Y,30.301031,-85.821653
MLS Listing,,Vacant Land,7642 Coastal Hammock Trl,Panama City Beach,FL,32413,149500,,,Rivercamps On Crooked Creek,,40511,,167,,228,Active,,,https://www.redfin.com/FL/Panama-City-Beach/7642-Coastal-Hammock-Trl-32413/home/117661075,CPARMLS,743007,N,Y,30.294474,-85.826616
MLS Listing,,Vacant Land,6309 River House Dr,Panama City Beach,FL,32413,249000,,,Rivercamps On Crooked Creek,,23087,,124,,228,Active,,,https://www.redfin.com/FL/Panama-City-Beach/6309-River-House-Dr-32413/home/117781528,CPARMLS,744634,N,Y,30.291807,-85.810749
MLS Listing,,Single Family Residential,14822 & 14810 School Dr,Panama City Beach,FL,32413,399000,2,1.0,[No Recorded Subdiv],1200,39640,1952,80,333,,Active,,,https://www.redfin.com/FL/Panama-City-Beach/14822-School-Dr-32413/home/117771557,CPARMLS,746635,N,Y,30.2894801,-85.8596091
MLS Listing,,Vacant Land,00 Suncrest Dr,Fountain,FL,32438,19000,,,[No Recorded Subdiv],,62378,,208,,,Active,,,https://www.redfin.com/FL/Fountain/Suncrest-Dr-32438/home/117062567,CPARMLS,741279,N,Y,30.512058,-85.416906
MLS Listing,,Vacant Land,6538 Hickory Rd,Panama City Beach,FL,32413,695000,,,[No Recorded Subdiv],,13504,,464,,,Active,,,https://www.redfin.com/FL/Panama-City-Beach/6538-Hickory-Rd-32413/home/117279535,CPARMLS,731433,N,Y,30.2953101,-85.861558
MLS Listing,,Vacant Land,00 1st St,Youngstown,FL,32466,125000,,,Youngstown Plat,,158994,,105,,,Active,,,https://www.redfin.com/FL/Youngstown/1st-St-32466/home/118452413,CPARMLS,745516,N,Y,30.371297,-85.439946
MLS Listing,,Vacant Land,00 Osprey Pt,Southport,FL,32409,150000,,,Osprey Point,,54450,,119,,,Active,,,https://www.redfin.com/FL/Southport/Unknown-32409/home/118175570,CPARMLS,744862,N,Y,30.308047,-85.595553
MLS Listing,,Single Family Residential,1354 Stratford Ave,Panama City,FL,32404,535000,4,2.0,Donalson Point,2602,17990,1977,14,206,,Active,,,https://www.redfin.com/FL/Panama-City/1354-Stratford-Ave-32404/home/117218499,CPARMLS,749471,N,Y,30.1229571,-85.5983668
MLS Listing,,Vacant Land,211 Skunk Valley Rd,Southport,FL,32409,949000,,,No Named Subdivision,,200376,,90,,,Active,,,https://www.redfin.com/FL/Southport/211-Skunk-Valley-Rd-32409/home/162235345,CPARMLS,746118,N,Y,30.374082,-85.675257
MLS Listing,,Vacant Land,15023 Joshua Dr,Youngstown,FL,32466,80000,,,No Named Subdivision,,65340,,116,,,Active,,,https://www.redfin.com/FL/Youngstown/15023-Joshua-Dr-32466/home/117076322,CPARMLS,744987,N,Y,30.4206987,-85.4561012
MLS Listing,,Vacant Land,9011 Elder Ln,Youngstown,FL,32466,32500,,,Panama Pines Unit 11,,51401,,5,,,Active,,,https://www.redfin.com/FL/Youngstown/9011-Elder-Ln-32466/home/117641602,CPARMLS,749732,N,Y,30.313541,-85.529666
MLS Listing,,Vacant Land,1106 W 4th St,Lynn Haven,FL,32444,500000,,,Lynn Haven,,34500,,131,,,Active,,,https://www.redfin.com/FL/Lynn-Haven/1106-W-4th-St-32444/home/117499516,CPARMLS,744376,N,Y,30.2519921,-85.6608061
MLS Listing,,Vacant Land,4837 Highway 2321,Panama City,FL,32404,150000,,,[No Recorded Subdiv],,1725,,457,,,Active,,,https://www.redfin.com/FL/Panama-City/4837-Highway-2321-32404/home/118175988,CPARMLS,731762,N,Y,30.258908,-85.590603
MLS Listing,,Single Family Residential,21812 Kelly Pines Pl,Panama City Beach,FL,32413,618185,4,3.0,Kelly Street Pines,2219,3964,2024,6,279,111,Active,,,https://www.redfin.com/FL/Inlet-Beach/21812-Kelly-Pines-PL-32413/home/187854341,CPARMLS,749695,N,Y,30.259892,-85.957031
MLS Listing,,Vacant Land,7022 E Hwy 388,Youngstown,FL,32466,401500,,,N/A,,98881,,275,,,Active,,,https://www.redfin.com/FL/Youngstown/7022-E-Highway-388-32466/home/117845978,CPARMLS,738288,N,Y,30.392929,-85.531619
MLS Listing,,Condo/Co-op,16819 Front Bch #2507,Panama City Beach,FL,32413,430000,1,2.0,Tidewater Beach Phase I,849,,2007,292,506,470,Active,,,https://www.redfin.com/FL/Panama-City-Beach/16819-Front-Beach-Rd-32413/unit-2507/home/117663790,CPARMLS,737605,N,Y,30.220635,-85.886497
MLS Listing,,Single Family Residential,304 Cardiff Ct,Panama City,FL,32404,110000,3,2.0,Callaway Forest U-1,1325,8236,1987,2,83,,Active,,,https://www.redfin.com/FL/Panama-City/304-Cardiff-Ct-32404/home/117137751,CPARMLS,749846,N,Y,30.1416797,-85.5632805
MLS Listing,,Single Family Residential,8561 Fremont Rd,Youngstown,FL,32466,110000,3,2.0,No Named Subdivision,1780,32974,1978,38,62,,Active,,,https://www.redfin.com/FL/Youngstown/8561-Fremont-Rd-32466/home/117069886,CPARMLS,748480,N,Y,30.3043762,-85.537373
MLS Listing,,Single Family Residential,634 Hancock Way,Panama City Beach,FL,32413,432255,4,2.0,Bayside at Ward Creek,2047,7841,2023,87,211,42,Active,,,https://www.redfin.com/FL/Inlet-Beach/634-Hancock-WAY-32413/home/187401176,CPARMLS,746323,N,Y,30.252242,-85.877132
MLS Listing,,Single Family Residential,2616 Avondale Ct,Panama City,FL,32404,274400,4,2.5,Avondale Estates,1549,3500,2006,69,177,20,Active,,,https://www.redfin.com/FL/Panama-City/2616-Avondale-Ct-32404/home/118137327,CPARMLS,747108,N,Y,30.1952475,-85.6007347
MLS Listing,,Vacant Land,2141 Hwy 2297,Panama City,FL,32404,442500,,,[No Recorded Subdiv],,1241024,,591,,,Active,,,https://www.redfin.com/FL/Panama-City/2141-Highway-2297-32404/home/117119835,CPARMLS,725488,N,Y,30.1072735,-85.4907644
MLS Listing,,Vacant Land,Lot 60 Park Way St,Panama City,FL,32404,48000,,,Sandy Creek Air Park Ph II,,28096,,327,,42,Active,,,https://www.redfin.com/FL/Sandy-Creek-Air-Park-Phase-II/Lot-60-Park-Way-32404/home/183755903,CPARMLS,736265,N,Y,30.102243,-85.480998
MLS Listing,,Vacant Land,701 Tashanna Ln,Southport,FL,32409,82500,,,No Named Subdivision,,148540,,28,,,Active,,,https://www.redfin.com/FL/Southport/701-Tashanna-Ln-32409/home/162357546,CPARMLS,748871,N,Y,30.415331,-85.676052
MLS Listing,,Single Family Residential,561 J H Crews Cir,Panama City,FL,32404,364000,3,2.0,Shadow Bay Unit 1,1665,8102,2023,14,219,,Active,,,https://www.redfin.com/FL/Panama-City/561-J-H-Crews-Cir-32404/home/116992050,CPARMLS,749451,N,Y,30.157582,-85.560402
MLS Listing,,Vacant Land,0000 Alvie Holmes Rd,Panama City,FL,32404,650000,,,[No Recorded Subdiv],,2303453,,498,,,Active,,,https://www.redfin.com/FL/Panama-City/Alvie-Holmes-Rd-32404/home/117476945,CPARMLS,729866,N,Y,30.06566,-85.441353
MLS Listing,,Vacant Land,Lot 85 Parkway St,Panama City,FL,32404,43000,,,Sandy Creek Air Park Ph II,,28183,,327,,42,Active,,,https://www.redfin.com/FL/Sandy-Creek-Air-Park-Phase-II/Lot-85-Park-Way-32404/home/183755518,CPARMLS,736250,N,Y,30.101496,-85.481936
MLS Listing,,Condo/Co-op,1600 Marina Bay Dr #205,Southport,FL,32409,425000,2,2.0,Marina Bay Condo,1525,,2001,110,279,522,Active,,,https://www.redfin.com/FL/Southport/1600-Marina-Bay-Dr-32409/unit-205/home/117326291,CPARMLS,745298,N,Y,30.2650996,-85.6470597
MLS Listing,,Vacant Land,000 Na,Panama City,FL,32404,435000,,,[No Recorded Subdiv],,1894860,,18,,,Active,,,https://www.redfin.com/FL/Callaway/Na-32404/home/188591226,CPARMLS,749345,N,Y,30.068312,-85.428529
MLS Listing,,Vacant Land,106 12th St,Mexico Beach,FL,32456,249000,,,No Named Subdivision,,4356,,111,,,Active,,,https://www.redfin.com/FL/Mexico-Beach/106-12th-St-32456/home/118316692,CPARMLS,745246,N,Y,29.939877,-85.404114
MLS Listing,,Vacant Land,00 Allanton Rd,Panama City,FL,32404,3750000,,,No Named Subdivision,,7274520,,509,,,Active,,,https://www.redfin.com/FL/Panama-City/Allanton-Rd-32404/home/117475934,CPARMLS,729404,N,Y,30.043825,-85.4803
MLS Listing,,Vacant Land,00 Sherrett Branch Rd,Southport,FL,32409,76500,,,Deer Point Lake,,31929,,650,,,Active,,,https://www.redfin.com/FL/Southport/Sherrett-Branch-Rd-32409/home/162340923,CPARMLS,715278,N,Y,30.312512,-85.601132
MLS Listing,,Vacant Land,715 Florida Ave,Mexico Beach,FL,32456,339000,,,No Named Subdivision,,7405,,192,,,Active,,,https://www.redfin.com/FL/Mexico-Beach/715-Florida-AVE-32456/home/185309848,CPARMLS,741997,N,Y,29.937328,-85.400501
MLS Listing,,Single Family Residential,8645 Conch Shell Ct,Panama City Beach,FL,32413,485000,2,2.0,Latitude Margaritaville,1315,3920,2022,25,369,298,Active,,,https://www.redfin.com/FL/Panama-City-Beach/8645-Conch-Shell-Ct-32413/home/177653952,CPARMLS,749069,N,Y,30.313032,-85.859919
MLS Listing,,Vacant Land,30 4S 12W Hwy 2297,Panama City,FL,32404,80000,,,No Named Subdivision,,205603,,325,,,Active,,,https://www.redfin.com/FL/Panama-City/12-Highway-2297-32404/home/183799247,CPARMLS,736350,N,Y,30.0785461,-85.4671098
MLS Listing,,Single Family Residential,126 Butler Cv,Panama City Beach,FL,32413,434755,4,2.0,Bayside at Ward Creek,2047,7841,2023,7,212,42,Active,,,https://www.redfin.com/FL/Inlet-Beach/126-Butler-CV-32413/home/188706793,CPARMLS,749666,N,Y,30.24987,-85.873592
MLS Listing,,Single Family Residential,101 S 42nd St St S Unit E,Mexico Beach,FL,32410,589500,2,2.0,[No Recorded Subdiv],1012,,2020,90,583,,Active,,,https://www.redfin.com/FL/Mexico-Beach/101-42nd-St-32456/unit-E/home/184761505,CPARMLS,746131,N,Y,29.9521987,-85.4266608
MLS Listing,,Single Family Residential,404 Arizona Dr,Mexico Beach,FL,32456,529000,2,2.0,No Named Subdivision,1360,10890,2004,119,389,,Active,,,https://www.redfin.com/FL/Mexico-Beach/404-Arizona-Dr-32456/home/118317146,CPARMLS,744855,N,Y,29.93949,-85.3972649
MLS Listing,,Mobile/Manufactured Home,6011 Jaycee Dr,Youngstown,FL,32466,218000,3,2.0,[No Recorded Subdiv],1736,51836,2014,3,126,,Active,,,https://www.redfin.com/FL/Youngstown/6011-Jaycee-Dr-32466/home/117417692,CPARMLS,749631,N,Y,30.3160213,-85.5542741
MLS Listing,,Condo/Co-op,1600 Marina Bay Dr #809,Panama City,FL,32409,675000,3,3.0,Marina Bay Condo,1877,,2001,16,360,643,Active,,,https://www.redfin.com/FL/Panama-City/1600-Marina-Bay-Dr-32409/unit-809/home/188609710,CPARMLS,749422,N,Y,30.2650996,-85.6470597
MLS Listing,,Vacant Land,0 Helen Ave Ave,Panama City,FL,32401,24999,,,N/A,,21780,,156,,,Active,,,https://www.redfin.com/FL/Panama-City/Helen-Ave-32401/home/118158755,CPARMLS,743472,N,Y,30.151354,-85.613121
MLS Listing,,Single Family Residential,2503 Highway 98 Unit B,Mexico Beach,FL,32456,899000,3,3.5,No Named Subdivision,2396,1481,2003,67,375,,Active,,,https://www.redfin.com/FL/Mexico-Beach/2503-Highway-98-32456/unit-B/home/118289425,CPARMLS,747207,N,Y,29.9461025,-85.4156714
MLS Listing,,Vacant Land,1021 Reel Easy Dr,Panama City,FL,32404,65000,,,Laird Bayou,,25483,,562,,65,Active,,,https://www.redfin.com/FL/Panama-City/1021-Reel-Easy-Dr-32404/home/118235471,CPARMLS,725929,N,Y,30.128394,-85.52487
MLS Listing,,Condo/Co-op,23223 Front Beach Rd Unit B3-506,Panama City Beach,FL,32413,649000,2,2.0,Pinnacle Port Phase 1-D,1026,,1977,49,633,1193,Active,,,https://www.redfin.com/FL/Panama-City-Beach/23223-Front-Beach-Rd-32413/unit-B3-506/home/178383176,CPARMLS,747961,N,Y,30.2657608,-85.9865413
MLS Listing,,Vacant Land,Lot 12 Morganville Rd,Youngstown,FL,32466,58000,,,[No Recorded Subdiv],,26615,,324,,,Active,,,https://www.redfin.com/FL/Unknown/Lot-12-Morganville-Rd-32466/home/183809094,CPARMLS,736384,N,Y,30.317859,-85.525936
MLS Listing,,Vacant Land,2703 Valla St,Panama City,FL,32401,25000,,,Oakdale,,6360,,112,,,Active,,,https://www.redfin.com/FL/Panama-City/2703-Valla-St-32401/home/118053164,CPARMLS,745213,N,Y,30.1455744,-85.6245159
MLS Listing,,Condo/Co-op,114 Carillon Market St #203,Panama City Beach,FL,32413,354900,1,1.0,Carillon Beach Inn,530,,2007,88,670,640,Active,,,https://www.redfin.com/FL/Panama-City-Beach/114-Carillon-Market-St-32413/unit-203/home/117844486,CPARMLS,746260,N,Y,30.2650857,-85.9774485
MLS Listing,,Condo/Co-op,23223 Front Beach Rd Unit A120,Panama City Beach,FL,32413,525000,2,2.5,Pinnacle Port Phase 1-A,983,,1970,22,534,1105,Active,,,https://www.redfin.com/FL/Panama-City-Beach/23223-Front-Beach-Rd-32413/unit-A120/home/117310359,CPARMLS,749176,N,Y,30.2657608,-85.9865413
MLS Listing,,Vacant Land,Lot 57 Park Way St,Panama City,FL,32404,48000,,,Sandy Creek Air Park Ph II,,28096,,327,,42,Active,,,https://www.redfin.com/FL/Sandy-Creek-Air-Park-Phase-II/Lot-57-Park-Way-32404/home/183755873,CPARMLS,736264,N,Y,30.102323,-85.482465
MLS Listing,,Single Family Residential,526 Camellia Ave,Panama City,FL,32404,282000,3,2.0,St And Bay Dev Co,1375,5489,2023,102,205,,Active,,,https://www.redfin.com/FL/Panama-City/526-Camellia-Ave-32404/home/118069053,CPARMLS,745661,N,Y,30.1575398,-85.5930053
MLS Listing,,Single Family Residential,238 N Wells St,Panama City Beach,FL,32413,619040,4,3.0,Laguna Haven,2336,5663,2023,208,265,133,Active,,,https://www.redfin.com/FL/Panama-City-Beach/238-N-Wells-St-32413/home/177655889,CPARMLS,741298,N,Y,30.244571,-85.913738
MLS Listing,,Single Family Residential,709 Carolina Ave,Lynn Haven,FL,32444,479000,3,2.0,Lynn Haven,2506,14810,1970,34,191,,Active,,,https://www.redfin.com/FL/Lynn-Haven/709-Carolina-Ave-32444/home/117735137,CPARMLS,748606,N,Y,30.2472035,-85.6574752
MLS Listing,,Vacant Land,632 Dogwood Way Way,Panama City,FL,32404,55000,,,[No Recorded Subdiv],,95396,,116,,,Active,,,https://www.redfin.com/FL/Panama-City/632-Dogwood-Way-32404/home/117136370,CPARMLS,745019,N,Y,30.1801944,-85.5018543
MLS Listing,,Single Family Residential,2106 N Harbour Dr,Lynn Haven,FL,32444,629990,4,2.0,[No Recorded Subdiv],2424,12371,1988,214,260,,Active,,,https://www.redfin.com/FL/Lynn-Haven/2106-N-Harbour-Dr-32444/home/117855397,CPARMLS,739880,N,Y,30.2370826,-85.6725229
MLS Listing,,Vacant Land,1109 College Ave,Panama City,FL,32401,145000,,,No Named Subdivision,,64512,,282,,,Active,,,https://www.redfin.com/FL/Panama-City/1109-College-Ave-32401/home/117702107,CPARMLS,738007,N,Y,30.1687222,-85.6315832
MLS Listing,,Condo/Co-op,17614 Front Beach Rd Unit D4,Panama City Beach,FL,32413,290000,1,1.0,Endless Summer II,605,,1988,63,479,400,Active,,,https://www.redfin.com/FL/Panama-City-Beach/17614-Front-Beach-Rd-32413/unit-D4/home/117592008,CPARMLS,747339,N,Y,30.2323322,-85.9058747
MLS Listing,,Vacant Land,9600 Hwy 79,Panama City Beach,FL,32413,675000,,,[No Recorded Subdiv],,69260,,39,,,Active,,,https://www.redfin.com/FL/Panama-City-Beach/9600-Highway-79-32413/home/117281458,CPARMLS,748420,N,Y,30.325666,-85.8564804
MLS Listing,,Vacant Land,112 N Charlene Dr,Panama City,FL,32404,49000,,,[No Recorded Subdiv],,6534,,21,,,Active,,,https://www.redfin.com/FL/Panama-City/112-N-Charlene-Dr-32404/home/117372552,CPARMLS,749214,N,Y,30.1461863,-85.5812442
MLS Listing,,Vacant Land,5206 Collins St,Panama City,FL,32404,73900,,,Callaway Heights,,13983,,224,,,Active,,,https://www.redfin.com/FL/Panama-City/5206-Collins-St-32404/home/117212612,CPARMLS,740526,N,Y,30.1577752,-85.5961972
MLS Listing,,Single Family Residential,5434 Hopetown Ln,Panama City Beach,FL,32408,790000,3,3.0,Martinique Phase I,2317,4792,2003,57,341,100,Active,,,https://www.redfin.com/FL/Panama-City/5434-Hopetown-Ln-32408/home/117346139,CPARMLS,747651,N,Y,30.1504102,-85.7446165
MLS Listing,,Vacant Land,6237 Bryan Way,Panama City,FL,32404,33500,,,[No Recorded Subdiv],,9148,,150,,,Active,,,https://www.redfin.com/FL/Panama-City/6237-Bryan-Way-32404/home/117013993,CPARMLS,743686,N,Y,30.15785,-85.5809672
MLS Listing,,Condo/Co-op,4715 Thomas Dr Unit E-13,Panama City Beach,FL,32408,219000,0,1.0,The Commodore,327,,1985,472,670,219,Active,,,https://www.redfin.com/FL/Panama-City/4715-Thomas-Dr-32408/unit-E-13/home/117654427,CPARMLS,731148,N,Y,30.1369974,-85.7491814
MLS Listing,,Condo/Co-op,23223 Front Beach Rd Unit B2-208,Panama City Beach,FL,32413,399900,1,1.0,Pinnacle Port Phase 1-C,735,,1977,41,544,854,Active,,,https://www.redfin.com/FL/Panama-City-Beach/23223-Front-Beach-Rd-32413/unit-B2-208/home/178393817,CPARMLS,748303,N,Y,30.2657608,-85.9865413
MLS Listing,,Single Family Residential,313 S Katherine Ave,Panama City,FL,32404,274999,3,2.0,Callaway,1465,9322,2023,77,188,,Active,,,https://www.redfin.com/FL/Panama-City/313-S-Katherine-Ave-32404/home/168027917,CPARMLS,746753,N,Y,30.141152,-85.5763652
MLS Listing,,Vacant Land,Lot 7 A Hickory Bluff Dr,Southport,FL,32409,29500,,,Hickory Bluff,,21780,,119,,,Active,,,https://www.redfin.com/FL/Unknown/Lot-7-A-Hickory-Bluff-Dr-32409/home/186363197,CPARMLS,744859,N,Y,30.280266,-85.676872
MLS Listing,,Single Family Residential,3718 Tiki Dr,Panama City Beach,FL,32408,435000,4,2.5,Hidden Lagoon,1872,3180,2016,63,232,111,Active,,,https://www.redfin.com/FL/Panama-City/3718-Tiki-Dr-32408/home/118140692,CPARMLS,747381,N,Y,30.1603449,-85.760877
MLS Listing,,Vacant Land,Lot E Osprey Pt,Southport,FL,32409,82500,,,Osprey Point,,29185,,121,,,Active,,,https://www.redfin.com/FL/St-Andrews-Bay/LOT-E-Osprey-Pt-32409/home/178402861,CPARMLS,744796,N,Y,30.308071,-85.595889
MLS Listing,,Single Family Residential,4108 Leslie Ln,Panama City,FL,32404,335000,3,2.0,Cherry Hill Unit 2,1400,11369,2022,70,239,,Active,,,https://www.redfin.com/FL/Panama-City/4108-Leslie-Ln-32404/home/118363952,CPARMLS,746985,N,Y,30.1489735,-85.6022237
MLS Listing,,Vacant Land,709 Gulf View Dr,Panama City Beach,FL,32413,129900,,,Inlet Beach Heights,,6919,,8,,,Active,,,https://www.redfin.com/FL/Panama-City-Beach/709-Gulf-View-Dr-32413/home/118042665,CPARMLS,749634,N,Y,30.2671958,-85.9665977
MLS Listing,,Condo/Co-op,10513 Front Beach 1406 Rd #1406,Panama City Beach,FL,32407,875000,3,3.0,Long Beach Towers II,1769,,1996,84,495,1000,Active,,,https://www.redfin.com/FL/Panama-City-Beach/10513-Front-Beach-Rd-32407/unit-1406/home/117322266,CPARMLS,746403,N,Y,30.1770007,-85.8079402
MLS Listing,,Single Family Residential,1200 W 11th St,Panama City,FL,32401,445000,4,2.0,No Named Subdivision,1681,14462,1956,38,265,,Active,,,https://www.redfin.com/FL/Panama-City/1200-W-11th-St-32401/home/117957597,CPARMLS,748453,N,Y,30.168271,-85.6799649
MLS Listing,,Vacant Land,6714 E Highway 20,Youngstown,FL,32466,325000,,,[No Recorded Subdiv],,1385208,,27,,,Active,,,https://www.redfin.com/FL/Youngstown/6714-Highway-20-32466/home/118466616,CPARMLS,748916,N,Y,30.431973,-85.535406
MLS Listing,,Single Family Residential,8657 Tropics Ave,Panama City Beach,FL,32413,454900,2,2.0,Latitude Margaritaville,1315,3964,2023,60,346,596,Active,,,https://www.redfin.com/FL/Panama-City-Beach/8657-Tropics-Ave-32413/home/183365881,CPARMLS,747528,N,Y,30.316957,-85.868411
MLS Listing,,Vacant Land,7631 Coastal Hammock Trl,Panama City Beach,FL,32413,171500,,,Rivercamps On Crooked Creek,,36590,,181,,228,Active,,,https://www.redfin.com/FL/Panama-City-Beach/7631-Coastal-Hammock-Trl-32413/home/118296553,CPARMLS,742393,N,Y,30.290875,-85.827793
MLS Listing,,Vacant Land,7205 Lake Suzzanne Way,Panama City,FL,32404,31200,,,Sweetwater Village N Ph 2,,7405,,440,,17,Active,,,https://www.redfin.com/FL/Panama-City/7205-Lake-Suzzanne-Way-32404/home/117653336,CPARMLS,732460,N,Y,30.266904,-85.53016
MLS Listing,,Vacant Land,2316 Fortune Ave,Panama City,FL,32405,650000,,,[No Recorded Subdiv],,204732,,222,,,Active,,,https://www.redfin.com/FL/Panama-City/2316-Fortune-Ave-32405/home/117686557,CPARMLS,740654,N,Y,30.191225,-85.686535
MLS Listing,,Single Family Residential,117 Nautical Way,Panama City Beach,FL,32413,599900,3,2.0,Summer Breeze Phase II,1750,10890,1997,164,343,17,Active,,,https://www.redfin.com/FL/Panama-City-Beach/117-Nautical-Way-32413/home/118145591,CPARMLS,743143,N,Y,30.2294369,-85.8981126
MLS Listing,,Vacant Land,4714 Bayhead Rd,Youngstown,FL,32466,99000,,,[No Recorded Subdiv],,44867,,322,,,Active,,,https://www.redfin.com/FL/Youngstown/4714-Bayhead-Rd-32466/home/118323142,CPARMLS,736422,N,Y,30.306144,-85.581333
MLS Listing,,Vacant Land,12801 Airway St,Panama City,FL,32404,45000,,,Sandy Creek Air Park Ph II,,34200,,327,,42,Active,,,https://www.redfin.com/FL/Panama-City/12801-Airway-St-32404/home/118316722,CPARMLS,736246,N,Y,30.104287,-85.4862053
MLS Listing,,Vacant Land,9531 S Hwy 79,Panama City Beach,FL,32413,1950000,,,[No Recorded Subdiv],,209088,,216,,,Active,,,https://www.redfin.com/FL/Panama-City-Beach/9531-Highway-79-32413/home/118357319,CPARMLS,740877,N,Y,30.3248136,-85.8573202
MLS Listing,,Single Family Residential,2202 E 8th Ct,Panama City,FL,32401,279900,4,2.0,Shermans 2nd Add,1406,5532,2023,313,199,,Active,,,https://www.redfin.com/FL/Panama-City/2202-E-8th-St-32401/home/118354316,CPARMLS,736786,N,Y,30.1625671,-85.6305794
MLS Listing,,Single Family Residential,8621 Shell Sink Dr,Panama City Beach,FL,32413,525000,2,2.0,Latitude Margaritaville,1383,,2023,18,380,316,Active,,,https://www.redfin.com/FL/Inlet-Beach/8621-Shell-Sink-DR-32413/home/188590519,CPARMLS,749344,N,Y,30.324674,-85.874847
MLS Listing,,Condo/Co-op,14401 Front Beach Rd #411,Panama City Beach,FL,32413,175000,0,1.0,Fontainebleau Terrace,330,,1965,179,530,560,Active,,,https://www.redfin.com/FL/Panama-City-Beach/14401-Front-Beach-Rd-32413/unit-411/home/117864395,CPARMLS,742513,N,Y,30.2033305,-85.8547413
MLS Listing,,Townhouse,633 Laurel St,Panama City Beach,FL,32407,329900,2,1.5,Holiday Point,972,,1985,87,339,150,Active,,,https://www.redfin.com/FL/Panama-City-Beach/633-Laurel-St-32407/home/117283247,CPARMLS,746349,N,Y,30.1963115,-85.8379984
MLS Listing,,Condo/Co-op,10517 Front Beach Rd #1203,Panama City Beach,FL,32407,619000,2,2.0,Long Beach Towers IV,1326,,1999,70,467,1848,Active,,,https://www.redfin.com/FL/Panama-City-Beach/10517-Front-Beach-Rd-32407/unit-1203/home/117049003,CPARMLS,747088,N,Y,30.176898,-85.808711
MLS Listing,,Vacant Land,0 Osprey Pt,Southport,FL,32409,130000,,,Osprey Point,,25483,,129,,,Active,,,https://www.redfin.com/FL/Southport/Unknown-32409/home/117906031,CPARMLS,744444,N,Y,30.30802,-85.595052
MLS Listing,,Vacant Land,1442 W Park Ln,Panama City,FL,32404,795000,,,No Named Subdivision,,88426,,650,,,Active,,,https://www.redfin.com/FL/Panama-City/1442-W-Park-Ln-32404/home/118204477,CPARMLS,675666,N,Y,30.119754,-85.577659
MLS Listing,,Mobile/Manufactured Home,8827 Stork Ln,Youngstown,FL,32466,130000,3,2.0,Panama Pines Unit Two,1344,40075,2013,9,97,,Active,,,https://www.redfin.com/FL/Youngstown/8827-Stork-Ave-32466/home/188698102,CPARMLS,749619,N,Y,30.3093611,-85.5399542
MLS Listing,,Mobile/Manufactured Home,418 Beulah Ave,Panama City,FL,32404,205000,2,2.0,Callaway,840,14375,2016,50,244,,Active,December-10-2023 11:00 AM,December-10-2023 03:00 PM,https://www.redfin.com/FL/Panama-City/418-Beulah-Ave-32404/home/118183372,CPARMLS,747911,N,Y,30.139286,-85.5714111
MLS Listing,,Single Family Residential,6220 Sunset Dr Unit H,Panama City Beach,FL,32408,340000,2,1.5,Treasure Cove,1080,2875,2003,27,315,,Active,,,https://www.redfin.com/FL/Panama-City/6220-Sunset-Dr-32408/unit-H/home/118127174,CPARMLS,748951,N,Y,30.158288,-85.7539771
MLS Listing,,Condo/Co-op,5717 Thomas Dr Unit A172,Panama City Beach,FL,32408,950000,3,2.5,Largo Mar Condo,1837,,1981,155,517,1281,Active,,,https://www.redfin.com/FL/Panama-City/5717-Thomas-Dr-32408/unit-A172/home/117965012,CPARMLS,743495,N,Y,30.1460314,-85.760318
MLS Listing,,Single Family Residential,2520 Albert Ave,Panama City Beach,FL,32408,364900,3,2.0,Point Royal Homes Unit 1,1800,8232,1978,73,203,,Active,,,https://www.redfin.com/FL/Panama-City/2520-Albert-Ave-32408/home/118380352,CPARMLS,746959,N,Y,30.1583007,-85.7498693
MLS Listing,,Vacant Land,00000 Ross Rd,Fountain,FL,32438,18000,,,[No Recorded Subdiv],,43560,,56,,,Active,,,https://www.redfin.com/FL/Fountain/Ross-Rd-32438/home/117788205,CPARMLS,747678,N,Y,30.504136,-85.433944
MLS Listing,,Single Family Residential,216 S Kimbrel Ave,Panama City,FL,32404,249000,3,2.0,Lannie Rowe Lake Estates U-9,1714,8855,1973,30,145,,Active,,,https://www.redfin.com/FL/Panama-City/216-S-Kimbrel-Ave-32404/home/117138658,CPARMLS,748838,N,Y,30.1417512,-85.5830376
MLS Listing,,Condo/Co-op,9900 S Thomas Dr #804,Panama City Beach,FL,32408,669900,2,3.0,Shores Of Panama Phase I,1148,,2007,14,584,968,Active,,,https://www.redfin.com/FL/Panama-City/9900-S-Thomas-Dr-32408/unit-804/home/118205129,CPARMLS,749488,N,Y,30.176632,-85.8055648
MLS Listing,,Single Family Residential,14917 Racetrack Rd,Youngstown,FL,32466,298500,3,2.0,No Named Subdivision,1430,108900,2020,19,209,,Active,,,https://www.redfin.com/FL/Youngstown/14917-Racetrack-Rd-32466/home/117919000,CPARMLS,749285,N,Y,30.422418,-85.436759
MLS Listing,,Vacant Land,1515 N Mlk Blvd,Panama City,FL,32405,170000,,,[No Recorded Subdiv],,21780,,80,,,Active,,,https://www.redfin.com/FL/Panama-City/1515-Martin-Luther-King-Jr-Blvd-32405/home/178376886,CPARMLS,746617,N,Y,30.176268,-85.650558
MLS Listing,,Single Family Residential,21318 Hilltop Ave,Panama City Beach,FL,32413,720000,3,2.0,Riviera Beach,1690,5489,2017,83,426,,Active,,,https://www.redfin.com/FL/Panama-City-Beach/21318-Hilltop-Ave-32413/home/117303905,CPARMLS,746511,N,Y,30.2552843,-85.9505253
MLS Listing,,Single Family Residential,4026 Kirkpatrick Rd,Southport,FL,32409,342000,2,2.0,No Named Subdivision,1206,10454,1989,13,284,,Active,,,https://www.redfin.com/FL/Southport/4026-Kirkpatrick-Rd-32409/home/117099831,CPARMLS,749525,N,Y,30.3035622,-85.595474
MLS Listing,,Single Family Residential,4123 Nancee Dr,Panama City Beach,FL,32408,1500000,4,3.0,Holiday Beach On The Gulf,3643,3746,1998,166,412,33,Active,,,https://www.redfin.com/FL/Panama-City/4123-Nancee-Dr-32408/home/118284315,CPARMLS,743030,N,Y,30.1558567,-85.7735627
MLS Listing,,Condo/Co-op,8727 Thomas Dr Unit C34,Panama City Beach,FL,32408,425000,2,2.0,Sugar Beach Condo,1086,,1974,45,391,528,Active,,,https://www.redfin.com/FL/Panama-City/8727-Thomas-Dr-32408/unit-C34/home/117226937,CPARMLS,748138,N,Y,30.1676303,-85.7909754
MLS Listing,,Vacant Land,Lot 2 Franklin Dr,Fountain,FL,32438,62000,,,No Named Subdivision,,435600,,234,,,Active,,,https://www.redfin.com/FL/Unknown/Lot-2-Franklin-Dr-32438/home/178376701,CPARMLS,740152,N,Y,30.491908,-85.473562
MLS Listing,,Vacant Land,9034 Crook Hollow Rd,Panama City,FL,32404,29000,,,Creek Forest Estates Unit 2,,49397,,5,,,Active,,,https://www.redfin.com/FL/Panama-City/9034-Crook-Hollow-Rd-32404/home/185223700,CPARMLS,749710,N,Y,30.3128618,-85.4495833
MLS Listing,,Vacant Land,0 Blue Springs Rd,Youngstown,FL,32466,69900,,,Gainers Unrecorded,,191664,,110,,,Active,,,https://www.redfin.com/FL/Youngstown/Blue-Springs-Rd-32466/home/118207959,CPARMLS,745308,N,Y,30.428622,-85.532135
MLS Listing,,Condo/Co-op,5004 Thomas Dr #2210,Panama City Beach,FL,32408,665000,2,2.0,Treasure Island Resort,1370,,2005,257,485,858,Active,,,https://www.redfin.com/FL/Panama-City/5004-Thomas-Dr-32408/unit-2210/home/117660907,CPARMLS,739091,N,Y,30.1401516,-85.7524849
MLS Listing,,Single Family Residential,6621 S Lagoon Dr,Panama City Beach,FL,32408,599900,3,2.0,No Named Subdivision,1770,5097,1994,7,339,,Active,,,https://www.redfin.com/FL/Panama-City/6621-S-Lagoon-Dr-32408/home/118060216,CPARMLS,749649,N,Y,30.1558901,-85.7669446
MLS Listing,,Single Family Residential,1201 Bluestem St,Panama City,FL,32405,510000,3,2.0,Sweetbay,1869,7318,2017,134,273,110,Active,,,https://www.redfin.com/FL/Panama-City/1201-Bluestem-St-32405/home/119126117,CPARMLS,744277,N,Y,30.2044416,-85.6799513
MLS Listing,,Single Family Residential,2413 Rushes Ave Lot 617,Panama City,FL,32405,410695,4,2.0,Sweetbay,1700,4966,2023,112,242,210,Active,,,https://www.redfin.com/FL/Panama-City/2413-Rushes-Ave-32405/unit-617/home/186505132,CPARMLS,745175,N,Y,30.2093299,-85.6824465
MLS Listing,,Vacant Land,563 Palermo Rd,Panama City,FL,32405,50000,,,Venetian Villa,,4965,,54,,,Active,,,https://www.redfin.com/FL/Panama-City/563-Palermo-Rd-32405/home/117503342,CPARMLS,747784,N,Y,30.218952,-85.6698534
MLS Listing,,Condo/Co-op,301 Lullwater Dr #279,Panama City Beach,FL,32413,225000,0,1.0,Lullwater Beach,476,,1984,20,473,516,Active,,,https://www.redfin.com/FL/Panama-City-Beach/301-Lullwater-Dr-32413/unit-279/home/117298682,CPARMLS,749235,N,Y,30.2204838,-85.8843006
MLS Listing,,Vacant Land,,Panama City,FL,32404,456000,,,,,5227200,,650,,,Active,,,https://www.redfin.com/FL/Panama-City/Undisclosed-address-32404/home/185005373,CPARMLS,703348,N,Y,30.0785461,-85.4671097
MLS Listing,,Vacant Land,13033 Airway St,Panama City,FL,32404,43000,,,Sandy Creek Air Park Ph II,,34200,,327,,42,Active,,,https://www.redfin.com/FL/Panama-City/13033-Airway-St-32404/home/117067335,CPARMLS,736247,N,Y,30.1041614,-85.4805207
MLS Listing,,Vacant Land,13330 Airway St,Panama City,FL,32404,51000,,,Sandy Creek Air Park,,30492,,115,,49,Active,,,https://www.redfin.com/FL/Panama-City/13330-Airway-St-32404/home/116999561,CPARMLS,745044,N,Y,30.103049,-85.474274
MLS Listing,,Vacant Land,5530 Highway 2297,Panama City,FL,32404,342977,,,No Named Subdivision,,93654,,77,,,Active,,,https://www.redfin.com/FL/Panama-City/5530-Highway-2297-32404/home/118425046,CPARMLS,746782,N,Y,30.044862,-85.483413
MLS Listing,,Condo/Co-op,4102 Cobalt Cir Unit SF2,Panama City Beach,FL,32408,725000,4,4.5,Waterhaven,3055,,2007,160,237,994,Active,,,https://www.redfin.com/FL/Panama-City/4102-Cobalt-Cir-32408/unit-SF2/home/117631351,CPARMLS,743309,N,Y,30.1580104,-85.723978
MLS Listing,,Single Family Residential,2419 Grand Harbor Dr,Panama City Beach,FL,32408,675000,4,2.5,Grand Harbor,2469,16117,2001,151,273,,Active,,,https://www.redfin.com/FL/Panama-City/2419-Grand-Harbor-Dr-32408/home/117266552,CPARMLS,743644,N,Y,30.1603082,-85.7284027
MLS Listing,,Single Family Residential,3620 Woods Ln,Panama City Beach,FL,32408,645000,3,2.0,Sanctuary Beach,1917,6160,2023,97,336,132,Active,,,https://www.redfin.com/FL/Panama-City/3620-Woods-Ln-32408/home/118143841,CPARMLS,745875,N,Y,30.1434207,-85.7179171
MLS Listing,,Condo/Co-op,4138 Cobalt Cir Unit RO12,Panama City Beach,FL,32408,565000,4,4.5,Waterhaven,2855,,2007,252,198,1071,Active,,,https://www.redfin.com/FL/Panama-City/4138-Cobalt-Cir-32408/unit-RO12/home/117468547,CPARMLS,738993,N,Y,30.1579362,-85.723812
MLS Listing,,Vacant Land,0 Laura Bluff Rd,Panama City,FL,32404,1995000,,,[No Recorded Subdiv],,3772732,,650,,,Active,,,https://www.redfin.com/FL/Unknown/Laura-Bluff-Rd-32404/home/178376943,CPARMLS,695288,N,Y,30.099666,-85.423857
MLS Listing,,Single Family Residential,126 Christmas Tree Ln,Panama City Beach,FL,32413,799000,2,2.0,Laguna Beach 5th Add,904,15240,1950,119,884,,Active,,,https://www.redfin.com/FL/Panama-City-Beach/126-Christmas-Tree-Ln-32413/home/117044523,CPARMLS,744830,N,Y,30.2476582,-85.9390977
MLS Listing,,Single Family Residential,5816 Highway 2297,Panama City,FL,32404,900000,4,2.5,No Named Subdivision,3129,40000,2005,47,288,,Active,,,https://www.redfin.com/FL/Panama-City/5816-Highway-2297-32404/home/118060531,CPARMLS,748057,N,Y,30.0400034,-85.4833564
MLS Listing,,Condo/Co-op,5004 Thomas Dr #1209,Panama City Beach,FL,32408,645000,2,2.0,Treasure Island Resort,1370,,2005,282,471,1009,Active,,,https://www.redfin.com/FL/Panama-City/5004-Thomas-Dr-32408/unit-1209/home/117374569,CPARMLS,738013,N,Y,30.1401516,-85.7524849
MLS Listing,,Condo/Co-op,6205 Thomas Dr Unit E5,Panama City Beach,FL,32408,259830,1,1.0,Nautical Watch II,626,,1984,40,415,573,Active,,,https://www.redfin.com/FL/Panama-City/6205-Thomas-Dr-32408/unit-E5/home/117443844,CPARMLS,748381,N,Y,30.149769,-85.764886
MLS Listing,,Condo/Co-op,4100 Marriott Dr #410,Panama City Beach,FL,32408,544500,2,2.0,Reflections Spa And Resort Residences,1458,,2007,71,373,750,Active,,,https://www.redfin.com/FL/Panama-City/4100-Marriott-Dr-32408/unit-410/home/118073523,CPARMLS,747045,N,Y,30.1398606,-85.724986
MLS Listing,,Vacant Land,4810 W Highway 98,Panama City,FL,32401,2199900,,,No Named Subdivision,,207999,,67,,,Active,,,https://www.redfin.com/FL/Panama-City-Beach/4810-West-Highway-98-32401/home/187409149,CPARMLS,747220,N,Y,30.182285,-85.722227
MLS Listing,,Vacant Land,4923 S Lakewood Dr,Panama City,FL,32404,82000,,,[No Recorded Subdiv],,6752,,101,,,Active,,,https://www.redfin.com/FL/Panama-City/4923-S-Lakewood-Dr-32404/home/117203413,CPARMLS,745727,N,Y,30.1396093,-85.6006578
MLS Listing,,Vacant Land,3630 Preserve Blvd,Panama City Beach,FL,32408,174000,,,Preserve On The Bay Ph III-A,,17424,,162,,123,Active,,,https://www.redfin.com/FL/Panama-City/3630-Preserve-Blvd-32408/home/117334547,CPARMLS,743180,N,Y,30.151219,-85.719409
MLS Listing,,Vacant Land,Lot 79 Parkway St,Panama City,FL,32404,43000,,,Sandy Creek Air Park Ph II,,25221,,327,,42,Active,,,https://www.redfin.com/FL/Sandy-Creek-Air-Park-Phase-II/Lot-79-Park-Way-32404/home/183755517,CPARMLS,736249,N,Y,30.101666,-85.48449
MLS Listing,,Single Family Residential,1417 N Discovery Loop,Panama City,FL,32405,700000,3,2.5,Sweetbay,2426,22216,2021,149,289,110,Active,,,https://www.redfin.com/FL/Panama-City/1417-Discovery-Loop-N-32405/home/174021815,CPARMLS,743696,N,Y,30.2097459,-85.6868443
MLS Listing,,Condo/Co-op,11800 Front Beach Rd #1302,Panama City Beach,FL,32407,415000,1,2.0,Grand Panama Beach Resort,903,,2007,58,460,174,Active,,,https://www.redfin.com/FL/Panama-City-Beach/11800-Front-Beach-Rd-32407/unit-1302/home/117393153,CPARMLS,747618,N,Y,30.1876606,-85.8247082
MLS Listing,,Condo/Co-op,5505 Sun Harbor Rd #215,Panama City Beach,FL,32401,225000,1,1.0,Sun Harbor Condo,540,,1984,171,417,300,Active,,,https://www.redfin.com/FL/Panama-City/5505-Sun-Harbor-Rd-32401/unit-215/home/117226678,CPARMLS,742852,N,Y,30.1842909,-85.7322502
MLS Listing,,Single Family Residential,223 N East Ave,Panama City,FL,32401,275000,3,2.0,Holmes Add- Millville,1100,10890,2023,127,250,,Active,,,https://www.redfin.com/FL/Panama-City/223-N-East-Ave-32401/home/117204970,CPARMLS,744512,N,Y,30.1512748,-85.6253592
MLS Listing,,Condo/Co-op,4305 Bay Point Rd #452,Panama City Beach,FL,32408,285000,2,2.0,Bay Point Golf Villas II,1420,,1980,87,201,654,Active,,,https://www.redfin.com/FL/Panama-City-Beach/4305-Bay-Point-Rd-32408/unit-452/home/184339349,CPARMLS,746348,N,Y,30.1496873,-85.728381
MLS Listing,,Condo/Co-op,1320 E Business Hwy 98 #206,Panama City,FL,32401,295000,2,2.0,Bayou Pointe Villas,1232,,1985,15,239,501,Active,,,https://www.redfin.com/FL/Panama-City/1320-East-Highway-98-32401/unit-206/home/185934815,CPARMLS,749435,N,Y,30.1569262,-85.6416781
MLS Listing,,Vacant Land,645 Malaga Pl,Panama City Beach,FL,32413,125000,,,Sand Dollar Estates,,11326,,68,,,Active,,,https://www.redfin.com/FL/Panama-City-Beach/645-Malaga-Pl-32413/home/118061385,CPARMLS,747153,N,Y,30.247191,-85.919702
MLS Listing,,Single Family Residential,930 Grace Ave,Panama City,FL,32401,749000,3,3.0,[No Recorded Subdiv],2474,18557,1943,180,303,,Active,,,https://www.redfin.com/FL/Panama-City/930-Grace-Ave-32401/home/117536315,CPARMLS,742431,N,Y,30.1654682,-85.6611271
MLS Listing,,Townhouse,603 Evergreen St Unit B,Panama City Beach,FL,32407,850000,4,3.5,Daugette Add-Bahm Bch,2124,,2023,207,400,,Active,,,https://www.redfin.com/FL/Panama-City-Beach/603-Evergreen-St-32407/unit-B/home/183366306,CPARMLS,741317,N,Y,30.198157,-85.840528
MLS Listing,,Condo/Co-op,9900 S Thomas Dr #2330,Panama City Beach,FL,32408,475000,2,2.0,Shores Of Panama Phase II,951,,2007,24,499,952,Active,,,https://www.redfin.com/FL/Panama-City/9900-S-Thomas-Dr-32408/unit-2330/home/117403741,CPARMLS,749095,N,Y,30.176632,-85.8055648
MLS Listing,,Condo/Co-op,6323 Thomas 501a Dr,Panama City Beach,FL,32408,1525000,3,2.0,Summerwinds Condo,2400,,1994,14,635,1067,Active,,,https://www.redfin.com/FL/Panama-City/6323-Thomas-Dr-32408/home/118545815,CPARMLS,749458,N,Y,30.151516,-85.76598
MLS Listing,,Single Family Residential,523 Old Forest Way Rd,Panama City,FL,32404,355000,4,2.0,Xanadu,1907,19994,1974,4,186,,Active,December-6-2023 10:00 AM,December-6-2023 02:00 PM,https://www.redfin.com/FL/Panama-City/523-Old-Forest-Way-Rd-32404/home/117737417,CPARMLS,749767,N,Y,30.1366896,-85.5621548
MLS Listing,,Single Family Residential,6837 Beach Dr,Panama City Beach,FL,32408,748500,4,4.0,No Named Subdivision,2407,3223,2023,81,311,,Active,,,https://www.redfin.com/FL/Panama-City-Beach/6837-Beach-Dr-32408/home/177653577,CPARMLS,746614,N,Y,30.156361,-85.770822
MLS Listing,,Condo/Co-op,6903 N Lagoon #14,Panama City Beach,FL,32408,264900,2,2.5,Grand Lagoon Cove Condominium,1080,,1979,81,245,416,Active,,,https://www.redfin.com/FL/Panama-City/6903-N-Lagoon-Dr-32408/unit-14/home/118128325,CPARMLS,746604,N,Y,30.1593045,-85.7642214
MLS Listing,,Townhouse,100 Gulf Highlands Blvd,Panama City Beach,FL,32407,500000,3,3.5,Gulf Highlands Beach Resort,1500,,1985,15,333,318,Active,,,https://www.redfin.com/FL/Panama-City-Beach/100-Gulf-Highlands-Blvd-32407/home/117586082,CPARMLS,749444,N,Y,30.182169,-85.814395
MLS Listing,,Mobile/Manufactured Home,575 Grouper Ave,Panama City Beach,FL,32408,449000,1,1.0,Venture Out Travel Trail,396,,1985,7,1134,286,Active,,,https://www.redfin.com/FL/Panama-City-Beach/575-Grouper-Ave-32408/home/117705569,CPARMLS,749652,N,Y,30.1386173,-85.7471465
MLS Listing,,Single Family Residential,1924 W 23rd Ct,Panama City,FL,32405,465000,3,3.0,Horton Heights,1912,13504,2017,84,243,,Active,,,https://www.redfin.com/FL/Panama-City/1924-W-23rd-Ct-32405/home/118544356,CPARMLS,745947,N,Y,30.19151,-85.6890832
MLS Listing,,Single Family Residential,168 Laird Cir,Panama City Beach,FL,32408,850000,3,2.0,[No Recorded Subdiv],2563,84071,1978,22,332,,Active,,,https://www.redfin.com/FL/Panama-City/168-Laird-Cir-32408/home/117249141,CPARMLS,749177,N,Y,30.1818043,-85.7730522
MLS Listing,,Single Family Residential,104 Oleander Cir,Panama City Beach,FL,32413,299000,4,2.0,Open Sands,1578,7492,1999,96,189,,Active,,,https://www.redfin.com/FL/Panama-City-Beach/104-Oleander-Cir-32413/home/117329093,CPARMLS,745941,N,Y,30.2127094,-85.8545877
MLS Listing,,Single Family Residential,363 Wahoo Rd,Panama City Beach,FL,32408,650000,3,2.0,Bay Point Unit 1,2333,12937,1979,6,279,158,Active,,,https://www.redfin.com/FL/Panama-City/363-Wahoo-Rd-32408/home/117562881,CPARMLS,749699,N,Y,30.1554249,-85.744432
MLS Listing,,Single Family Residential,227 N Church Ave,Panama City,FL,32401,119000,3,1.0,Holmes Add- Millville,1160,10890,1946,89,103,,Active,,,https://www.redfin.com/FL/Panama-City/227-N-Church-Ave-32401/home/118374067,CPARMLS,746167,N,Y,30.1514507,-85.6276491
MLS Listing,,Single Family Residential,110 2nd St,Panama City Beach,FL,32413,799900,2,1.0,Sunnyside,600,6970,1946,27,1333,,Active,,,https://www.redfin.com/FL/Panama-City-Beach/110-2nd-St-32413/home/118401735,CPARMLS,748946,N,Y,30.2512056,-85.9465121
MLS Listing,,Condo/Co-op,3300 Hwy 98 #301,Mexico Beach,FL,32456,475000,2,2.0,Waterside Village,1019,,2007,294,466,648,Active,,,https://www.redfin.com/FL/Mexico-Beach/3300-Highway-98-32456/unit-301/home/117385754,CPARMLS,737525,N,Y,29.9504256,-85.4207507
MLS Listing,,Mobile/Manufactured Home,1606 Elma Ruth Dr,Panama City,FL,32409,415000,3,2.0,Carrie Bell Pt.,1800,21998,2019,102,231,,Active,,,https://www.redfin.com/FL/Panama-City/1606-Elma-Ruth-Dr-32409/home/117685198,CPARMLS,745639,N,Y,30.268225,-85.6470396
MLS Listing,,Vacant Land,206 Virginia Dr,Mexico Beach,FL,32456,425000,,,No Named Subdivision,,8276,,267,,,Active,,,https://www.redfin.com/FL/Mexico-Beach/206-Virginia-Dr-32456/home/117411702,CPARMLS,738675,N,Y,29.9378132,-85.3990587
MLS Listing,,Vacant Land,9106 Ruff Dr,Youngstown,FL,32466,24092,,,[No Recorded Subdiv],,46174,,650,,,Active,,,https://www.redfin.com/FL/Youngstown/9106-Ruff-Rd-32466/home/117944165,CPARMLS,673733,N,Y,30.314498,-85.5456109
MLS Listing,,Vacant Land,6500 Ogeeche Trl Trl,Panama City Beach,FL,32413,179900,,,Rivercamps On Crooked Creek Ph 3,,61420,,49,,228,Active,,,https://www.redfin.com/FL/Panama-City-Beach/6500-Ogeeche-Trl-32413/home/118151699,CPARMLS,747960,N,Y,30.29637,-85.817562
MLS Listing,,Vacant Land,10995 Resota Beach Rd,Panama City,FL,32409,189900,,,[No Recorded Subdiv],,243065,,137,,,Active,,,https://www.redfin.com/FL/Panama-City/10995-Resota-Beach-Rd-32409/home/185224086,CPARMLS,744153,N,Y,30.3469472,-85.6074528
MLS Listing,,Single Family Residential,8680 Tropics Ave,Panama City Beach,FL,32413,494900,2,2.0,Latitude Margaritaville Phase III,1204,3761,2023,49,411,295,Active,,,https://www.redfin.com/FL/Panama-City-Beach/8680-Tropics-Ave-32413/home/183365896,CPARMLS,747986,N,Y,30.317451,-85.869434
MLS Listing,,Vacant Land,000 Palm Ave,Youngstown,FL,32466,65000,,,Lakeshore Heights,,19994,,74,,,Active,,,https://www.redfin.com/FL/Youngstown/Palm-Ave-32466/home/118261778,CPARMLS,746895,N,Y,30.312137,-85.578233
MLS Listing,,Vacant Land,7833 Buchanan Rd,Panama City Beach,FL,32413,799000,,,No Named Subdivision,,89298,,60,,,Active,,,https://www.redfin.com/FL/Panama-City-Beach/7833-Buchanan-Rd-32413/home/118260986,CPARMLS,747549,N,Y,30.2967683,-85.8546714
MLS Listing,,Single Family Residential,9140 Steel Field Rd,Panama City Beach,FL,32413,999999,3,2.0,Seminole Ridge,1620,482645,2001,329,617,,Active,,,https://www.redfin.com/FL/Panama-City-Beach/9140-Steel-Field-Rd-32413/home/118199299,CPARMLS,736134,N,Y,30.3369313,-85.8737099
MLS Listing,,Vacant Land,LOT 10 Sage Brush Dr,Panama City,FL,32404,30475,,,[No Recorded Subdiv],,46958,,650,,,Active,,,https://www.redfin.com/FL/Panama-City/LOT-10-Sage-Brush-Dr-32404/home/178376989,CPARMLS,673740,N,Y,30.255493,-85.490149
MLS Listing,,Vacant Land,5237 Wymore Rd,Panama City,FL,32404,120000,,,[No Recorded Subdiv],,187744,,84,,,Active,,,https://www.redfin.com/FL/Panama-City/5237-Wymore-Rd-32404/home/117600581,CPARMLS,746410,N,Y,30.244111,-85.543254
MLS Listing,,Vacant Land,6001 N Highway 231,Panama City,FL,32404,650000,,,No Named Subdivision,,410335,,650,,,Active,,,https://www.redfin.com/FL/Panama-City/6001-US-231-32404/home/178377027,CPARMLS,635572,N,Y,30.25126,-85.555553
MLS Listing,,Vacant Land,0 Bay Breeze Dr,Panama City,FL,32409,395000,,,N/A,,21780,,130,,,Active,,,https://www.redfin.com/FL/Panama-City/Bay-Breeze-Dr-32409/home/186225984,CPARMLS,744382,N,Y,30.264547,-85.642416
MLS Listing,,Townhouse,3021 Meadow St,Lynn Haven,FL,32444,345000,3,2.5,Hammocks Phase VII,1938,3049,2005,14,178,140,Active,,,https://www.redfin.com/FL/Lynn-Haven/3021-Meadow-St-32444/home/118404627,CPARMLS,749468,N,Y,30.2127799,-85.6402178
MLS Listing,,Single Family Residential,1119 1/2 N East,Panama City,FL,32401,700000,10,5.0,No Named Subdivision,3730,187308,1956,4,188,,Active,,,https://www.redfin.com/FL/Panama-City-Beach/1119-1-2-N-East-32401/home/188776678,CPARMLS,749770,N,Y,30.16864,-85.625618
MLS Listing,,Single Family Residential,915 Huntington Dr,Panama City,FL,32401,227999,3,1.0,No Named Subdivision,1242,7971,1960,76,184,,Active,,,https://www.redfin.com/FL/Panama-City/915-Huntington-Dr-32401/home/117157781,CPARMLS,746813,N,Y,30.1654682,-85.6176485
MLS Listing,,Vacant Land,2722 E 9th St,Panama City,FL,32401,24900,,,Parker,,5663,,305,,,Active,,,https://www.redfin.com/FL/Panama-City/2722-E-9th-St-32401/home/118350125,CPARMLS,737096,N,Y,30.1639335,-85.6236623
MLS Listing,,Single Family Residential,315 Meadowview Way Ter,Lynn Haven,FL,32444,889900,3,2.5,The Meadows & The Pointe,2629,12197,2019,19,338,44,Active,,,https://www.redfin.com/FL/Lynn-Haven/315-Meadowview-Ter-32444/home/117660833,CPARMLS,749275,N,Y,30.2386398,-85.6028665
MLS Listing,,Condo/Co-op,17462 Front Beach Rd Unit 59-202,Panama City Beach,FL,32413,250000,1,1.5,Horizon South XXI,770,,1999,180,325,530,Active,,,https://www.redfin.com/FL/Panama-City-Beach/17462-Front-Beach-Rd-32413/unit-59202/home/117601740,CPARMLS,742438,N,Y,30.231151,-85.9003614
MLS Listing,,Vacant Land,0 Missouri Ave,Lynn Haven,FL,32444,99000,,,[No Recorded Subdiv],,37462,,325,,,Active,,,https://www.redfin.com/FL/Lynn-Haven/Missouri-Ave-32444/home/117748204,CPARMLS,736362,N,Y,30.24856,-85.659059
MLS Listing,,Vacant Land,1914 Country Club Dr,Lynn Haven,FL,32444,179000,,,[No Recorded Subdiv],,9148,,503,,49,Active,,,https://www.redfin.com/FL/Lynn-Haven/1914-Country-Club-Dr-32444/home/180575283,CPARMLS,729642,N,Y,30.2518402,-85.6356822
MLS Listing,,Vacant Land,9236 Beemer Rd,Panama City,FL,32404,60000,,,Cedar Wood Estates Ph I,,43429,,486,,,Active,,,https://www.redfin.com/FL/Panama-City/9236-Beemer-Rd-32404/home/162311981,CPARMLS,730441,N,Y,30.304781,-85.486058
MLS Listing,,Vacant Land,000 Hwy 231,Panama City,FL,32404,2800000,,,[No Recorded Subdiv],,19384200,,650,,,Active,,,https://www.redfin.com/FL/Panama-City/000-Hwy-231-32404/home/178376952,CPARMLS,692552,N,Y,30.281295,-85.508059
MLS Listing,,Single Family Residential,103 Harbour Pointe Dr,Lynn Haven,FL,32444,1570000,3,3.0,Harbour Point Replat,2699,14767,1993,256,582,,Active,,,https://www.redfin.com/FL/Lynn-Haven/103-Harbour-Pointe-Dr-32444/home/117127883,CPARMLS,739133,N,Y,30.2544232,-85.6479428
MLS Listing,,Vacant Land,Lot 15 D Hickory Bluff Rd,Southport,FL,32409,19500,,,No Named Subdivision,,21780,,139,,,Active,,,https://www.redfin.com/FL/Unknown/Lot-15-D-Hickory-Bluff-Rd-32409/home/183174583,CPARMLS,744080,N,Y,30.283812,-85.674179
MLS Listing,,Single Family Residential,3124 Rachel Pl,Panama City,FL,32409,350900,4,2.0,Hodges Bayou Plantation 1,1787,8276,2023,38,196,58,Active,,,https://www.redfin.com/FL/Southport/3124-Rachel-Pl-32409/home/188193174,CPARMLS,748465,N,Y,30.2852929,-85.6161994
MLS Listing,,Single Family Residential,19909 Alta Vista Dr,Panama City Beach,FL,32413,849999,4,2.0,Laguna Beach Estates 5th Add,1724,6500,1963,50,493,,Active,,,https://www.redfin.com/FL/Panama-City-Beach/19909-Alta-Vista-Dr-32413/home/117742842,CPARMLS,747916,N,Y,30.244819,-85.9266691
MLS Listing,,Vacant Land,501 Brit Pond/hwy 77 Rd,Southport,FL,32409,359900,,,No Named Subdivision,,174240,,292,,,Active,,,https://www.redfin.com/FL/Panama-City/501-Brit-Pond-Rd-32409/home/184306131,CPARMLS,737636,N,Y,30.398916,-85.69194
MLS Listing,,Vacant Land,000 Sunrise Way,Southport,FL,32409,165000,,,No Named Subdivision,,129983,,281,,,Active,,,https://www.redfin.com/FL/Southport/Sunrise-Way-32409/home/117253627,CPARMLS,738028,N,Y,30.408675,-85.712524
MLS Listing,,Vacant Land,407 Montana Ave,Lynn Haven,FL,32444,125000,,,[No Recorded Subdiv],,11326,,179,,,Active,,,https://www.redfin.com/FL/Lynn-Haven/407-Montana-Ave-32444/home/117499559,CPARMLS,742523,N,Y,30.251216,-85.659561
MLS Listing,,Single Family Residential,140 Cottonwood Cir,Lynn Haven,FL,32444,575000,3,2.5,Woodrun,3219,1642,2005,143,179,67,Active,,,https://www.redfin.com/FL/Lynn-Haven/140-Cottonwood-Cir-32444/home/118340946,CPARMLS,743985,N,Y,30.2156122,-85.6518161
MLS Listing,,Single Family Residential,4211 Dairy Farm Rd,Panama City,FL,32404,335000,3,2.0,Bylsma Manor Estates,1417,7841,2023,25,236,,Active,,,https://www.redfin.com/FL/Panama-City/4211-Dairy-Farm-Rd-32404/home/118170551,CPARMLS,749056,N,Y,30.2251405,-85.5848704
MLS Listing,,Vacant Land,22319 Highway 231 Hwy,Fountain,FL,32438,149000,,,No Named Subdivision,,551470,,275,,,Active,,,https://www.redfin.com/FL/Fountain/22319-Highway-231-32438/home/117658275,CPARMLS,738274,N,Y,30.552771,-85.3936839
MLS Listing,,Single Family Residential,401 W 18th St,Lynn Haven,FL,32444,272500,3,2.0,Lynnwood Replat,1112,9714,1974,4,245,,Active,,,https://www.redfin.com/FL/Lynn-Haven/401-W-18th-St-32444/home/117964843,CPARMLS,749774,N,Y,30.2317718,-85.6520168
MLS Listing,,Mobile/Manufactured Home,13843 Lesne Rd,Fountain,FL,32438,219900,4,2.0,No Named Subdivision,1980,170537,2009,26,111,,Active,,,https://www.redfin.com/FL/Fountain/13843-Lesne-Rd-32438/home/118115238,CPARMLS,749010,N,Y,30.5545253,-85.3847063
MLS Listing,,Vacant Land,721 Airport Rd,Panama City,FL,32405,550000,,,No Named Subdivision,,63598,,206,,,Active,,,https://www.redfin.com/FL/Panama-City/721-Airport-Rd-32405/home/118353576,CPARMLS,741352,N,Y,30.1835663,-85.6694334
MLS Listing,,Single Family Residential,343 Highbrook Rd,Panama City,FL,32404,325000,4,2.0,Bridge Harbor,1827,5489,2020,55,178,88,Active,,,https://www.redfin.com/FL/Panama-City/343-Highbrook-Rd-32404/home/168028524,CPARMLS,747710,N,Y,30.1250866,-85.5705569
MLS Listing,,Single Family Residential,5012 Park Street St,Panama City,FL,32404,329900,4,3.0,Kendrick Manor,1949,13068,1970,41,169,,Active,,,https://www.redfin.com/FL/Panama-City/5012-Park-St-32404/home/117537029,CPARMLS,748291,N,Y,30.1430997,-85.5988891
MLS Listing,,Vacant Land,213 S Gay Ave,Panama City,FL,32404,79900,,,Lannie Rowe Lake Ests,,11892,,1,,,Active,,,https://www.redfin.com/FL/Panama-City/213-S-Gay-Ave-32404/home/117112995,CPARMLS,749854,N,Y,30.1423771,-85.5867141
MLS Listing,,Single Family Residential,6315 Pridgen St,Panama City,FL,32404,254500,3,2.0,Callaway,1151,5706,1980,10,221,,Active,,,https://www.redfin.com/FL/Panama-City/6315-Pridgen-St-32404/home/118026340,CPARMLS,749605,N,Y,30.1324586,-85.5799934
MLS Listing,,Townhouse,7482 Shadow Lake Dr,Panama City Beach,FL,32407,380000,3,2.5,Hathaway Townhomes,1498,1742,2020,192,254,266,Active,,,https://www.redfin.com/FL/Panama-City-Beach/7482-Shadow-Lake-Dr-32407/home/168034409,CPARMLS,742013,N,Y,30.188843,-85.765365
MLS Listing,,Condo/Co-op,8815 Thomas Dr #201,Panama City Beach,FL,32408,489500,2,2.0,Moondrifter,1083,,1982,16,452,900,Active,,,https://www.redfin.com/FL/Panama-City/8815-Thomas-Dr-32408/unit-201/home/118094032,CPARMLS,749429,N,Y,30.1697496,-85.7951326
MLS Listing,,Vacant Land,000 Hwy 22,Panama City,FL,32404,249000,,,[No Recorded Subdiv],,175982,,650,,,Active,,,https://www.redfin.com/FL/Panama-City/E-Highway-22-32404/home/118341182,CPARMLS,699096,N,Y,30.151351,-85.567296
MLS Listing,,Single Family Residential,1029 Georgia Ave,Panama City,FL,32404,389000,4,2.0,East Bay Park 2nd Add,2515,44997,1959,180,155,,Active,,,https://www.redfin.com/FL/Panama-City/1029-Georgia-Ave-32404/home/118348324,CPARMLS,742453,N,Y,30.1278551,-85.5846244
MLS Listing,,Vacant Land,000 390 Hwy,Panama City,FL,32404,4000000,,,No Named Subdivision,,1655280,,231,,,Active,,,https://www.redfin.com/FL/Callaway/East-Highway-390-32404/home/178385295,CPARMLS,740247,N,Y,30.231438,-85.588361
MLS Listing,,Vacant Land,4707 Bayou Bluff Trl,Lynn Haven,FL,32444,99000,,,Grant's Mill Phase II,,16117,,549,,54,Active,,,https://www.redfin.com/FL/Lynn-Haven/4707-Bayou-Bluff-Trl-32444/home/117769017,CPARMLS,727533,N,Y,30.234537,-85.599092
MLS Listing,,Single Family Residential,3924 Treasure Cir,Panama City Beach,FL,32408,379900,2,2.0,[No Recorded Subdiv],1009,6273,1991,46,377,,Active,,,https://www.redfin.com/FL/Panama-City/3924-Treasure-Cir-32408/home/117901528,CPARMLS,748093,N,Y,30.1424811,-85.7500622
MLS Listing,,Single Family Residential,5242 Thornton Ln,Panama City,FL,32404,385000,3,2.5,Parker,1671,14985,2023,35,230,,Active,,,https://www.redfin.com/FL/Panama-City/5242-Thornton-Ln-32404/home/117213251,CPARMLS,748565,N,Y,30.126486,-85.593897
MLS Listing,,Multi-Family (2-4 Unit),6333-6339 Omoko St,Panama City,FL,32404,425000,8,6.0,No Named Subdivision,3528,,1985,80,120,,Active,,,https://www.redfin.com/FL/Panama-City/6333-Omoko-St-32404/home/118309684,CPARMLS,746680,N,Y,30.1406409,-85.5802863
MLS Listing,,Mobile/Manufactured Home,6613 Cherry St,Panama City,FL,32404,310000,5,3.0,No Named Subdivision,3356,54014,2003,67,92,,Active,,,https://www.redfin.com/FL/Panama-City/6613-Cherry-St-32404/home/117494346,CPARMLS,747188,N,Y,30.14709,-85.576785
MLS Listing,,Townhouse,8421 Thomas 2 Dr #2,Panama City Beach,FL,32408,475000,2,2.0,Bel Air,1156,,1982,101,411,,Active,,,https://www.redfin.com/FL/Panama-City/8421-Thomas-Dr-32408/unit-2/home/117572945,CPARMLS,745730,N,Y,30.165271,-85.7861697
MLS Listing,,Single Family Residential,2409 Kimberly Dr,Lynn Haven,FL,32444,315000,3,2.5,Belaire Estates U-6,1599,8276,1991,26,197,,Active,,,https://www.redfin.com/FL/Lynn-Haven/2409-Kimberly-Dr-32444/home/116993144,CPARMLS,749040,N,Y,30.2212921,-85.641259
MLS Listing,,Townhouse,1007 Baldwin Rowe Cir,Panama City,FL,32405,245000,2,2.5,Baldwin Rowe,1562,,2007,148,157,193,Active,,,https://www.redfin.com/FL/Panama-City/1007-Baldwin-Rowe-Cir-32405/home/118158670,CPARMLS,743719,N,Y,30.20413,-85.652171
MLS Listing,,Single Family Residential,2610 Paige Cir,Panama City,FL,32405,455000,4,2.5,The Pines Of Lynn Haven,2316,6534,2017,70,196,,Active,,,https://www.redfin.com/FL/Panama-City/2610-Paige-Cir-32405/home/117632493,CPARMLS,747057,N,Y,30.2176767,-85.6285558
MLS Listing,,Vacant Land,4231 Hwy 389,Lynn Haven,FL,32444,765000,,,No Named Subdivision,,205168,,650,,,Active,,,https://www.redfin.com/FL/Lynn-Haven/4231-Highway-32444/home/117929302,CPARMLS,710670,N,Y,30.225388,-85.629598
MLS Listing,,Condo/Co-op,9900 S Thomas Dr #811,Panama City Beach,FL,32408,449000,2,2.0,Shores Of Panama Phase I,907,,2007,21,495,952,Active,,,https://www.redfin.com/FL/Panama-City/9900-S-Thomas-Dr-32408/unit-811/home/118432549,CPARMLS,749200,N,Y,30.176632,-85.8055648
MLS Listing,,Condo/Co-op,16819 Front Bch #1714,Panama City Beach,FL,32413,540000,2,3.0,Tidewater Beach Phase II,1131,,2007,122,477,779,Active,,,https://www.redfin.com/FL/Panama-City-Beach/16819-Front-Beach-Rd-32413/unit-1714/home/117633792,CPARMLS,744762,N,Y,30.220635,-85.886497
MLS Listing,,Single Family Residential,704 Breakfast Point Blvd,Panama City Beach,FL,32407,589900,4,3.0,Breakfast Point,2293,7500,2013,18,257,95,Active,,,https://www.redfin.com/FL/Panama-City-Beach/704-Breakfast-Point-Blvd-32407/home/117470290,CPARMLS,749361,N,Y,30.2039575,-85.8030359
MLS Listing,,Multi-Family (2-4 Unit),17114 Guava Ave Ave Unit A,Panama City Beach,FL,32413,365000,2,2.0,El Centro Beach,1050,,2007,13,348,,Active,,,https://www.redfin.com/FL/Panama-City-Beach/17114-Guava-Ave-32413/unit-A/home/118229364,CPARMLS,749561,N,Y,30.2282034,-85.8902925
MLS Listing,,Vacant Land,1705 Lost Cove Ln,Panama City Beach,FL,32413,175000,,,Wild Heron Phase X,,22651,,42,,217,Active,,,https://www.redfin.com/FL/Panama-City-Beach/1705-Lost-Cove-Ln-32413/home/118119358,CPARMLS,748238,N,Y,30.288491,-85.978655
MLS Listing,,Single Family Residential,16808 Junipero Ave,Panama City Beach,FL,32413,669000,3,2.0,El Centro Beach,1554,9000,1973,494,431,,Active,,,https://www.redfin.com/FL/Panama-City-Beach/16808-Junipero-Ave-32413/home/117040655,CPARMLS,730060,N,Y,30.2237278,-85.8854111
MLS Listing,,Vacant Land,14717 Live Oak Rd,Panama City Beach,FL,32413,2800000,,,No Named Subdivision,,91040,,59,,,Active,,,https://www.redfin.com/FL/Panama-City-Beach/14717-Live-Oak-Rd-32413/home/118227708,CPARMLS,747576,N,Y,30.2919283,-85.8584397
MLS Listing,,Vacant Land,Lot 88 Parkway St,Panama City,FL,32404,43000,,,Sandy Creek Air Park Ph II,,28532,,327,,42,Active,,,https://www.redfin.com/FL/Panama-City/Lot-88-32404/home/183755573,CPARMLS,736253,N,Y,30.101411,-85.480667
MLS Listing,,Vacant Land,6631 Lazy Acre Rd,Panama City Beach,FL,32413,275000,,,[No Recorded Subdiv],,11557,,244,,,Active,,,https://www.redfin.com/FL/Panama-City-Beach/6631-Lazy-Acre-Rd-32413/home/117577457,CPARMLS,739667,N,Y,30.296243,-85.8627489
MLS Listing,,Single Family Residential,13655 Front Beach Rd,Panama City Beach,FL,32413,3999999,6,6.5,Margaritaville Cottages,3784,8240,2023,44,1057,592,Active,,,https://www.redfin.com/FL/Panama-City-Beach/13655-Front-Beach-Rd-32413/home/179425620,CPARMLS,748142,N,Y,30.199456,-85.84761
MLS Listing,,Single Family Residential,105 James Island Ln,Panama City Beach,FL,32407,750000,4,3.5,Tapestry Park,2906,7200,2023,6,258,290,Active,,,https://www.redfin.com/FL/Panama-City-Beach/105-James-Island-Ln-32407/home/177654884,CPARMLS,749688,N,Y,30.199467,-85.830331
MLS Listing,,Condo/Co-op,15928 Front Beach Rd #32111,Panama City Beach,FL,32413,750000,3,2.0,Calypso Towers III,1563,,2020,332,480,1204,Active,,,https://www.redfin.com/FL/Panama-City-Beach/15928-Front-Beach-Rd-32413/unit-32111/home/177654630,CPARMLS,736064,N,Y,30.2148623,-85.8743438
MLS Listing,,Single Family Residential,102 Middleburg Dr,Panama City Beach,FL,32413,604900,3,2.0,Palmetto Trace Phase III,2038,9800,2005,180,297,83,Active,,,https://www.redfin.com/FL/Panama-City-Beach/102-Middleburg-Dr-32413/home/117351044,CPARMLS,742448,N,Y,30.2252454,-85.8646562
MLS Listing,,Mobile/Manufactured Home,10028 Steel Field Rd,Panama City Beach,FL,32413,825000,3,2.0,Seminole Ridge,1568,510088,2004,13,526,,Active,,,https://www.redfin.com/FL/Panama-City-Beach/10028-Steel-Field-Rd-32413/home/117678935,CPARMLS,749505,N,Y,30.3501316,-85.8898346
MLS Listing,,Vacant Land,12501 Emerald Lake Dr,Panama City Beach,FL,32407,175000,,,Emerald Lake Estates,,16727,,11,,,Active,,,https://www.redfin.com/FL/Panama-City-Beach/12501-Emerald-Lake-Dr-32407/home/188695309,CPARMLS,749598,N,Y,30.2030043,-85.8341292
MLS Listing,,Condo/Co-op,15817 Front Beach Rd Unit 1-1204,Panama City Beach,FL,32413,850000,2,2.0,Calypso Towers I,1223,,2006,46,695,766,Active,,,https://www.redfin.com/FL/Panama-City-Beach/15817-Front-Beach-Rd-32407/unit-1-1204/home/178397026,CPARMLS,748094,N,Y,30.1986058,-85.8450836
MLS Listing,,Condo/Co-op,13020 Front Beach Rd #104,Panama City Beach,FL,32407,439900,2,2.0,Somerset Condo,1025,,2000,108,429,250,Active,,,https://www.redfin.com/FL/Panama-City-Beach/13020-Front-Beach-Rd-32407/unit-104/home/117607594,CPARMLS,745423,N,Y,30.19611,-85.8397926
MLS Listing,,Vacant Land,12822 Airway St,Panama City,FL,32404,48000,,,Sandy Creek Air Park Ph II,,34200,,327,,42,Active,,,https://www.redfin.com/FL/Panama-City/12822-Airway-St-32404/home/117081836,CPARMLS,736256,N,Y,30.103622,-85.485217
MLS Listing,,Vacant Land,TBD Daffin Lake Rd,Southport,FL,32409,11500000,,,[No Recorded Subdiv],,10531066,,248,,,Active,,,https://www.redfin.com/FL/Unknown/TBD-Daffin-Lake-Rd-32409/home/184908576,CPARMLS,739549,N,Y,30.270768,-85.635816
MLS Listing,,Single Family Residential,6027 John Pitts Rd,Panama City,FL,32404,485000,3,2.5,No Named Subdivision,1910,87120,1961,171,254,,Active,,,https://www.redfin.com/FL/Panama-City/6027-John-Pitts-Rd-32404/home/117716952,CPARMLS,742861,N,Y,30.2483095,-85.5531684
MLS Listing,,Condo/Co-op,15817 Front Beach Rd Unit 1-301,Panama City Beach,FL,32413,985000,3,3.0,Calypso Towers I,1392,,2006,175,708,884,Active,,,https://www.redfin.com/FL/Panama-City-Beach/15817-Front-Beach-Rd-32407/unit-1-301/home/178395422,CPARMLS,742617,N,Y,30.1986058,-85.8450836
MLS Listing,,Vacant Land,LOT 8 Newberry Rd,Youngstown,FL,32466,18975,,,[No Recorded Subdiv],,44997,,650,,,Active,,,https://www.redfin.com/FL/Unknown/LOT-8-Newberry-Rd-32466/home/178376993,CPARMLS,673729,N,Y,30.313212,-85.547549
MLS Listing,,Condo/Co-op,716 Lighthouse Rd,Panama City Beach,FL,32407,237900,3,2.0,Nautilus Cove Condo,1225,,2006,109,194,350,Active,,,https://www.redfin.com/FL/Panama-City-Beach/716-Lighthouse-Rd-32407/home/117390862,CPARMLS,745361,N,Y,30.21078,-85.8457169
MLS Listing,,Single Family Residential,20421 Spires St,Panama City Beach,FL,32413,435000,3,2.0,Crestview Heights 1st Add,1500,8712,2000,14,290,,Active,,,https://www.redfin.com/FL/Panama-City-Beach/20421-Spires-St-32413/home/117819412,CPARMLS,749470,N,Y,30.2556478,-85.938459
MLS Listing,,Single Family Residential,125 E Lakeshore,Panama City Beach,FL,32413,825000,3,2.5,Laguna Beach,1232,13068,1996,75,670,,Active,,,https://www.redfin.com/FL/Panama-City-Beach/125-E-Lakeshore-Dr-32413/home/118114251,CPARMLS,746874,N,Y,30.2402583,-85.9219026
MLS Listing,,Vacant Land,5411 Bayhead Rd,Youngstown,FL,32466,74900,,,Bayhead Estates Unit 1,,113692,,290,,,Active,,,https://www.redfin.com/FL/Youngstown/5411-Bayhead-Rd-32466/home/117119732,CPARMLS,737725,N,Y,30.30698,-85.5677429
MLS Listing,,Mobile/Manufactured Home,5417 Arrowhead Blvd,Youngstown,FL,32466,119900,4,3.0,No Named Subdivision,1872,10019,1980,109,64,,Active,,,https://www.redfin.com/FL/Youngstown/5417-Arrowhead-Blvd-32466/home/117921319,CPARMLS,745364,N,Y,30.325444,-85.5660455
MLS Listing,,Vacant Land,0 Hobbs Rd,Southport,FL,32409,599000,,,[No Recorded Subdiv],,435600,,650,,,Active,,,https://www.redfin.com/FL/Southport/Hobbs-Rd-32409/home/117854236,CPARMLS,696736,N,Y,30.300325,-85.597032
MLS Listing,,Single Family Residential,11532 Poston Rd,Panama City,FL,32404,316412,3,2.0,Sunrise at East Bay,1720,4792,2023,264,184,94,Active,,,https://www.redfin.com/FL/Panama-City/11532-Poston-Rd-32404/home/117373205,CPARMLS,738817,N,Y,30.129634,-85.512151
MLS Listing,,Vacant Land,00 Hwy 231,Panama City,FL,32404,4416500,,,No Named Subdivision,,34978680,,277,,,Active,,,https://www.redfin.com/FL/Callaway/Hwy-231-32404/home/188433066,CPARMLS,738191,N,Y,30.298713,-85.482712
MLS Listing,,Vacant Land,11808 Raccoon Rd,Panama City,FL,32409,175900,,,[No Recorded Subdiv],,209088,,283,,,Active,,,https://www.redfin.com/FL/Panama-City/11808-Raccoon-Rd-32409/home/117417309,CPARMLS,737982,N,Y,30.3701313,-85.6516358
MLS Listing,,Vacant Land,9153 Sunshine Dr,Youngstown,FL,32466,40000,,,Indian Bluff,,17990,,416,,,Active,,,https://www.redfin.com/FL/Youngstown/9153-Sunshine-Dr-32466/home/117659708,CPARMLS,733434,N,Y,30.319297,-85.569635
MLS Listing,,Vacant Land,9107 Ruff Dr,Youngstown,FL,32466,21562,,,[No Recorded Subdiv],,44867,,650,,,Active,,,https://www.redfin.com/FL/Youngstown/9107-Ruff-Rd-32466/home/117480325,CPARMLS,673734,N,Y,30.31491,-85.545608
MLS Listing,,Vacant Land,4931 Bay Ave,Youngstown,FL,32466,49000,,,Bayhead Park,,30000,,144,,,Active,,,https://www.redfin.com/FL/Youngstown/4931-Bay-Ave-32466/home/117481391,CPARMLS,743896,N,Y,30.306304,-85.576693
MLS Listing,,Vacant Land,0 Blanche Ave,Panama City,FL,32404,45000,,,Highpoint,,14810,,493,,,Active,,,https://www.redfin.com/FL/Panama-City/Blanche-Ave-32404/home/117120054,CPARMLS,730112,N,Y,30.297401,-85.578256
MLS Listing,,Single Family Residential,9215 Christopher Cir,Youngstown,FL,32466,395000,3,3.0,Indian Bluff Estates Unit 2,2204,22651,1994,129,179,,Active,,,https://www.redfin.com/FL/Youngstown/9215-Christopher-Cir-32466/home/117889675,CPARMLS,744461,N,Y,30.316621,-85.5706775
MLS Listing,,Vacant Land,0000 Indian Bluff Dr,Youngstown,FL,32466,65000,,,Indian Bluff,,21911,,650,,,Active,,,https://www.redfin.com/FL/Youngstown/Indian-Bluff-Dr-32466/home/118140171,CPARMLS,644869,N,Y,30.319442,-85.571004
MLS Listing,,Single Family Residential,11436 Poston Rd,Panama City,FL,32404,313894,3,2.0,Sunrise at East Bay,1520,5053,2023,336,207,94,Active,,,https://www.redfin.com/FL/Panama-City/11436-Poston-Rd-32404/home/117381125,CPARMLS,735879,N,Y,30.129099,-85.514276
MLS Listing,,Condo/Co-op,5801 Thomas Dr #422,Panama City Beach,FL,32408,449950,1,2.0,Regency Towers,916,,1975,54,491,999,Active,,,https://www.redfin.com/FL/Panama-City/5801-Thomas-Dr-32408/unit-422/home/118390229,CPARMLS,747755,N,Y,30.1464694,-85.7607764
MLS Listing,,Vacant Land,000 Highway 77,Southport,FL,32409,59900,,,[No Recorded Subdiv],,33106,,103,,,Active,,,https://www.redfin.com/FL/Southport/000-Highway-77-32409/home/178380791,CPARMLS,745595,N,Y,30.373054,-85.675801
MLS Listing,,Vacant Land,12400 Skunk Valley Ln,Southport,FL,32409,98000,,,N/A,,130680,,139,,,Active,,,https://www.redfin.com/FL/Southport/12400-Skunk-Valley-Ln-32409/home/117905504,CPARMLS,744102,N,Y,30.3752994,-85.6612099
MLS Listing,,Condo/Co-op,8700 Front Beach Rd #5302,Panama City Beach,FL,32407,329000,2,2.0,Island Reserve,1325,,2008,52,248,461,Active,,,https://www.redfin.com/FL/Panama-City-Beach/8700-Front-Beach-Rd-32407/unit-5302/home/118153872,CPARMLS,747839,N,Y,30.1848841,-85.7827623
MLS Listing,,Vacant Land,1719 Lost Cove Ln,Panama City Beach,FL,32413,150000,,,Wild Heron Phase X,,16814,,38,,217,Active,,,https://www.redfin.com/FL/Panama-City-Beach/1719-Lost-Cove-Ln-32413/home/117874029,CPARMLS,748455,N,Y,30.287646,-85.980875
MLS Listing,,Vacant Land,16308 Singer Rd,Youngstown,FL,32466,120000,,,N/A,,435600,,129,,,Active,,,https://www.redfin.com/FL/Youngstown/16308-Singer-Rd-32466/home/117052021,CPARMLS,744452,N,Y,30.444316,-85.485245
MLS Listing,,Vacant Land,7209 Lake Suzzanne Way,Panama City,FL,32404,31200,,,Sweetwater Village N Ph 2,,9148,,440,,17,Active,,,https://www.redfin.com/FL/Panama-City/7209-Lake-Suzzanne-Way-32404/home/117077242,CPARMLS,732473,N,Y,30.266889,-85.529946
MLS Listing,,Vacant Land,00 Waverly Rd,Panama City,FL,32404,260000,,,[No Recorded Subdiv],,1742400,,454,,,Active,,,https://www.redfin.com/FL/Panama-City/Waverly-St-32404/home/168026784,CPARMLS,731854,N,Y,30.298205,-85.550252
MLS Listing,,Vacant Land,7200 Lake Suzzanne Way,Panama City,FL,32404,35000,,,Sweetwater Village N Ph 2,,11761,,27,,17,Active,,,https://www.redfin.com/FL/Panama-City/7200-Lake-Suzzanne-Way-32404/home/117037912,CPARMLS,748914,N,Y,30.26684,-85.5306
MLS Listing,,Vacant Land,000 Flowers Dr,Youngstown,FL,32466,99999,,,Camp Flowers,,415257,,109,,,Active,,,https://www.redfin.com/FL/Youngstown/Flowers-Dr-32466/home/118261635,CPARMLS,745358,N,Y,30.326165,-85.548913
MLS Listing,,Single Family Residential,6813 Noel Rd,Panama City,FL,32404,369000,7,4.5,No Named Subdivision,3921,49223,1979,60,94,,Active,,,https://www.redfin.com/FL/Panama-City/6813-Noel-Rd-32404/home/118173993,CPARMLS,747525,N,Y,30.2703147,-85.5374684
MLS Listing,,Vacant Land,10309 Highway 2301,Youngstown,FL,32466,67000,,,[No Recorded Subdiv],,28314,,272,,,Active,,,https://www.redfin.com/FL/Youngstown/10309-Highway-2301-32466/home/117072216,CPARMLS,738444,N,Y,30.336064,-85.556196
MLS Listing,,Vacant Land,6318 Blue Gill Dr,Panama City,FL,32404,74900,,,[No Recorded Subdiv],,19384,,115,,,Active,,,https://www.redfin.com/FL/Panama-City/6318-Blue-Gill-Dr-32404/home/118300901,CPARMLS,745080,N,Y,30.2624851,-85.5477408
MLS Listing,,Mobile/Manufactured Home,7307 Copenhagen Dr,Panama City,FL,32404,155000,3,2.0,Sweetwater Village S Ph I,1404,20473,1996,34,110,33,Active,,,https://www.redfin.com/FL/Panama-City/7307-Copenhagen-Dr-32404/home/118328963,CPARMLS,748619,N,Y,30.25828,-85.5260346
MLS Listing,,Vacant Land,5848 Joseph Rd,Panama City,FL,32404,50000,,,[No Recorded Subdiv],,34282,,101,,,Active,,,https://www.redfin.com/FL/Panama-City/5848-Joseph-Rd-32404/home/117077539,CPARMLS,745706,N,Y,30.2535082,-85.4917406
MLS Listing,,Vacant Land,5925 Charles Dr,Panama City,FL,32404,49900,,,[No Recorded Subdiv],,14985,,21,,,Active,,,https://www.redfin.com/FL/Panama-City/5925-Charles-Dr-32404/home/118258755,CPARMLS,749198,N,Y,30.2568752,-85.5486041
MLS Listing,,Vacant Land,6624 Azalea St,Panama City,FL,32404,42000,,,No Named Subdivision,,38768,,650,,,Active,,,https://www.redfin.com/FL/Panama-City/6624-Azalea-St-32404/home/178375224,CPARMLS,698441,N,Y,30.2509788,-85.5411357
MLS Listing,,Vacant Land,6301 Dune Creek Way,Panama City,FL,32404,65000,,,Dune Creek,,10567,,560,,,Active,,,https://www.redfin.com/FL/Panama-City/6301-Dune-Creek-Way-32404/home/118425097,CPARMLS,726995,N,Y,30.250644,-85.549487
MLS Listing,,Single Family Residential,5631 Arnold Road Rd,Panama City,FL,32404,295000,3,2.0,Dune Creek,1360,126760,2006,321,217,,Active,,,https://www.redfin.com/FL/Panama-City/5631-Arnold-Rd-32404/home/117004722,CPARMLS,736477,N,Y,30.2506216,-85.551218
MLS Listing,,Mobile/Manufactured Home,7105 Big Daddy Dr,Panama City Beach,FL,32407,250000,3,2.0,Bayside Park U-3,1168,6403,2018,472,214,,Active,,,https://www.redfin.com/FL/Panama-City-Beach/7105-Big-Daddy-Dr-32407/home/118199891,CPARMLS,731129,N,Y,30.2014164,-85.7613308
MLS Listing,,Vacant Land,7715 Blueberry Rd,Panama City,FL,32404,135000,,,[No Recorded Subdiv],,87556,,130,,,Active,,,https://www.redfin.com/FL/Panama-City/7715-Blueberry-Rd-32404/home/117007152,CPARMLS,744413,N,Y,30.256098,-85.518394
MLS Listing,,Vacant Land,5835 N Highway 231,Panama City,FL,32404,1500000,,,No Named Subdivision,,141570,,650,,,Active,,,https://www.redfin.com/FL/Panama-City/5835-US-231-32404/home/178377040,CPARMLS,627303,N,Y,30.249401,-85.557792
MLS Listing,,Vacant Land,11802 Highway 77,Southport,FL,32409,925000,,,No Named Subdivision,,522720,,650,,,Active,,,https://www.redfin.com/FL/Panama-City/11802-Highway-77-32409/home/118332768,CPARMLS,700285,N,Y,30.364234,-85.669198
MLS Listing,,Condo/Co-op,6201 Thomas Dr #709,Panama City Beach,FL,32408,749000,2,2.0,Watercrest Condo,1404,,1987,151,533,806,Active,,,https://www.redfin.com/FL/Panama-City/6201-Thomas-Dr-32408/unit-709/home/117228514,CPARMLS,743643,N,Y,30.1491938,-85.7648222
MLS Listing,,Vacant Land,000 Hwy 77,Southport,FL,32409,875000,,,No Named Subdivision,,196891,,524,,,Active,,,https://www.redfin.com/FL/Southport/000-Hwy-77-32409/home/178376900,CPARMLS,728747,N,Y,30.336718,-85.659408
MLS Listing,,Vacant Land,0 Restful Rd,Fountain,FL,32438,12900,,,Florida Hwy Estates N,,13504,,182,,,Active,,,https://www.redfin.com/FL/Fountain/Restful-Rd-32438/home/118558328,CPARMLS,742360,N,Y,30.535142,-85.396231
MLS Listing,,Vacant Land,20455 Morrow Rd,Fountain,FL,32438,150000,,,N/A,,435600,,146,,,Active,,,https://www.redfin.com/FL/Fountain/20455-Morrow-Rd-32438/home/117068699,CPARMLS,743806,N,Y,30.520944,-85.444914
MLS Listing,,Vacant Land,00 Fettinger Rd,Fountain,FL,32438,55000,,,[No Recorded Subdiv],,217800,,112,,,Active,,,https://www.redfin.com/FL/Fountain/Fettinger-Rd-32438/home/117789148,CPARMLS,745183,N,Y,30.511266,-85.419731
MLS Listing,,Mobile/Manufactured Home,20911 Deep Springs Rd,Fountain,FL,32438,114900,3,2.0,[No Recorded Subdiv],1634,219107,1996,40,70,,Active,,,https://www.redfin.com/FL/Fountain/20911-Deep-Springs-Rd-32438/home/117078847,CPARMLS,748351,N,Y,30.5277647,-85.4530092
MLS Listing,,Vacant Land,00 Tanglewood Rd,Fountain,FL,32438,14900,,,Bay County Estates Unit 1,,2919,,10,,,Active,,,https://www.redfin.com/FL/Fountain/Tanglewood-Rd-32438/home/118206010,CPARMLS,749616,N,Y,30.518401,-85.405259
MLS Listing,,Vacant Land,156 Grand Heron Dr,Panama City Beach,FL,32407,170000,,,The Glades,,11326,,60,,,Active,,,https://www.redfin.com/FL/Panama-City-Beach/156-Grand-Heron-Dr-32407/home/117042243,CPARMLS,747550,N,Y,30.19124,-85.804602
MLS Listing,,Single Family Residential,515 Gainous Rd,Panama City Beach,FL,32413,514900,3,2.0,No Named Subdivision,1931,20909,2007,42,267,,Active,,,https://www.redfin.com/FL/Panama-City-Beach/515-Gainous-Rd-32413/home/117301637,CPARMLS,748278,N,Y,30.2652056,-85.9624343
MLS Listing,,Single Family Residential,7001 Sunset Ave,Panama City Beach,FL,32408,404000,2,2.0,Holiday Beach Unit 13,936,5663,1982,47,432,,Active,,,https://www.redfin.com/FL/Panama-City/7001-Sunset-Ave-32408/home/117559463,CPARMLS,748045,N,Y,30.1578872,-85.7716005
MLS Listing,,Vacant Land,7535 Morning Marsh Trl,Panama City Beach,FL,32413,164900,,,Rivercamps On Crooked Creek Ph 2,,42253,,251,,200,Active,,,https://www.redfin.com/FL/Panama-City-Beach/7535-Morning-Marsh-Trl-32413/home/117460702,CPARMLS,739371,N,Y,30.293422,-85.821164
MLS Listing,,Condo/Co-op,23223 Front Beach 702 Rd #702,Panama City Beach,FL,32413,625000,3,3.0,Pinnacle Port Phase 1-A,1244,,1970,217,502,1061,Active,,,https://www.redfin.com/FL/Panama-City-Beach/23223-Front-Beach-Rd-32413/unit-702/home/116996077,CPARMLS,740841,N,Y,30.2657608,-85.9865413
MLS Listing,,Vacant Land,19732 Timbercrest Rd,Fountain,FL,32438,1410650,,,No Named Subdivision,,24393600,,88,,,Active,,,https://www.redfin.com/FL/Fountain/19732-Timbercrest-Rd-32438/home/184680641,CPARMLS,746256,N,Y,30.506102,-85.387302
