SALE TYPE,SOLD DATE,PROPERTY TYPE,ADDRESS,CITY,STATE OR PROVINCE,ZIP OR POSTAL CODE,PRICE,BEDS,BATHS,LOCATION,SQUARE FEET,LOT SIZE,YEAR BUILT,DAYS ON MARKET,$/SQUARE FEET,HOA/MONTH,STATUS,NEXT OPEN HOUSE START TIME,NEXT OPEN HOUSE END TIME,URL (SEE https://www.redfin.com/buy-a-home/comparative-market-analysis FOR INFO ON PRICING),SOURCE,MLS#,FAVORITE,INTERESTED,LATITUDE,LONGITUDE
"In accordance with local MLS rules, some MLS listings are not included in the download"
MLS Listing,,Vacant Land,XXX State Rd 20,Clarksville,FL,32430,380000,,,No Named Subdivision,,210830,,438,,,Active,,,https://www.redfin.com/FL/Clarksville/State-Road-20-W-32430/home/127928116,CPARMLS,732577,N,Y,30.436365,-85.187534
MLS Listing,,Vacant Land,1718 SE Davis Peacock Rd,Kinard,FL,32449,119000,,,Chipola River Estates,,436907,,49,,,Active,,,https://www.redfin.com/FL/Unknown/1718-Davis-Peacock-Rd-32449/home/188087176,CPARMLS,747944,N,Y,30.222895,-85.203797
MLS Listing,,Vacant Land,00 S Sr 71 Rd,Kinard,FL,32449,200000,,,Chipola River Estates,,454331,,161,,,Active,,,https://www.redfin.com/FL/Kinard/00-S-Sr-71-RD-32449/home/185914718,CPARMLS,743257,N,Y,30.22783,-85.204573
MLS Listing,,Single Family Residential,9109 SW J A Daniels Rd,Kinard,FL,32449,210000,2,2.0,No Named Subdivision,1161,43560,1997,17,181,,Active,,,https://www.redfin.com/FL/Kinard/9109-SW-J-a-Daniels-Rd-32449/home/127869540,CPARMLS,749378,N,Y,30.245369,-85.2430663
MLS Listing,,Vacant Land,,Kinard,FL,32449,89000,,,,,196020,,482,,,Active,,,https://www.redfin.com/FL/Kinard/Undisclosed-address-32449/home/127883093,CPARMLS,730622,N,Y,30.242759,-85.198344
MLS Listing,,Single Family Residential,23754 NW County Road 73a,Altha,FL,32421,249800,3,2.0,[No Recorded Subdiv],1404,22216,1994,23,178,,Active,,,https://www.redfin.com/FL/Altha/23754-NW-County-Road-73A-32421/home/127903492,CPARMLS,749151,N,Y,30.543825,-85.2169045
MLS Listing,,Mobile/Manufactured Home,1159 NW County Road 274,Fountain,FL,32438,100000,2,2.0,[No Recorded Subdiv],2666,90605,1989,63,38,,Active,,,https://www.redfin.com/FL/Fountain/1159-NW-County-Road-274-32438/home/127914852,CPARMLS,747383,N,Y,30.530811,-85.374486
MLS Listing,,Single Family Residential,495 State Road 20,Youngstown,FL,32466,2100000,7,7.0,[No Recorded Subdiv],10057,2831400,2008,61,209,,Active,,,https://www.redfin.com/FL/Youngstown/495-Florida-20-32466/home/187830644,CPARMLS,746781,N,Y,30.4320928,-85.3844292
MLS Listing,,Vacant Land,00 SE Chipola Park Rd,Kinard,FL,32449,200000,,,Chipola River Estates,,448668,,161,,,Active,,,https://www.redfin.com/FL/Unknown/Chipola-Park-Rd-32449/home/185914257,CPARMLS,743255,N,Y,30.2271,-85.20423
MLS Listing,,Vacant Land,0000 Hough Rd,Blountstown,FL,32424,12500,,,[No Recorded Subdiv],,20473,,109,,,Active,,,https://www.redfin.com/FL/Blountstown/Hough-Crk-32424/home/127918328,CPARMLS,745333,N,Y,30.348011,-85.066456
MLS Listing,,Ranch,13527 SW Sr 73,Clarksville,FL,32430,975000,3,1.0,[No Recorded Subdiv],1600,4748040,2005,177,609,,Active,,,https://www.redfin.com/FL/Clarksville/13527-FL-73-32430/home/178377175,CPARMLS,742591,N,Y,30.3779987,-85.2140492
MLS Listing,,Single Family Residential,15724 NW Broad St,Altha,FL,32421,43500,2,2.0,No Named Subdivision,1132,9148,1950,48,38,,Active,,,https://www.redfin.com/FL/Altha/15724-NW-Broad-St-32421/home/127931908,CPARMLS,748010,N,Y,30.571317,-85.127893
MLS Listing,,Vacant Land,XX S Sr 71,Kinard,FL,32449,240000,,,No Named Subdivision,,871200,,4,,,Active,,,https://www.redfin.com/FL/Kinard/XX-S-Sr-71-32449/home/188765838,CPARMLS,749741,N,Y,30.220741,-85.203315
MLS Listing,,Vacant Land,TBD SE State Rd 69-a / Hough,Blountstown,FL,32424,18000,,,[No Recorded Subdiv],,110642,,73,,,Active,,,https://www.redfin.com/FL/Blountstown/TBD-Unknown/home/187633765,CPARMLS,746935,N,Y,30.419823,-85.059395
MLS Listing,,Vacant Land,00 Maines Rd,Blountstown,FL,32424,35000,,,Barker,,29185,,319,,,Active,,,https://www.redfin.com/FL/Blountstown/Barker-U-r-S-d-32424/home/127893146,CPARMLS,736558,N,Y,30.305323,-85.151936
MLS Listing,,Mobile/Manufactured Home,23787 Cr 69 A,Altha,FL,32421,89900,3,2.0,No Named Subdivision,2280,18818,1996,137,39,,Active,,,https://www.redfin.com/FL/Altha/23787-NE-County-Road-69A-32421/home/127911386,CPARMLS,744183,N,Y,30.5412831,-85.0594499
MLS Listing,,Vacant Land,20905 NW Henson,Altha,FL,32421,600000,,,[No Recorded Subdiv],,3354120,,63,,,Active,,,https://www.redfin.com/FL/Altha/20905-NW-Henson-32421/home/187797520,CPARMLS,747385,N,Y,30.504806,-85.313658
MLS Listing,,Vacant Land,0000 Bonnell Rd,Altha,FL,32421,16500,,,N/A,,20992,,12,,,Active,,,https://www.redfin.com/FL/Altha/Nw-Bonnel-Rd-32421/home/127881484,CPARMLS,749579,N,Y,30.50318,-85.30582
MLS Listing,,Single Family Residential,11686 Chipola Park Rd,Kinard,FL,32449,365000,2,1.0,No Named Subdivision,1372,212573,1957,197,266,,Active,,,https://www.redfin.com/FL/Kinard/11686-Chipola-Park-Rd-32449/home/127884385,CPARMLS,741737,N,Y,30.221626,-85.202591
MLS Listing,,Vacant Land,005 State Rd 287 Rd,Clarksville,FL,32430,499900,,,[No Recorded Subdiv],,6316200,,567,,,Active,,,https://www.redfin.com/FL/Clarksville/005-State-Rd-287-RD-Unknown/home/179431306,CPARMLS,726642,N,Y,30.451943,-85.224937
MLS Listing,,Vacant Land,TBD L K Lona Dr,Fountain,FL,32438,99900,,,No Named Subdivision,,890802,,33,,,Active,,,https://www.redfin.com/FL/Fountain/TBD-L-K-Lona-Dr-32438/home/188310978,CPARMLS,748684,N,Y,30.562673,-85.364396
MLS Listing,,Vacant Land,xxx SE Oak Grove Rd,Kinard,FL,32449,120000,,,,,462607,,178,,,Active,,,https://www.redfin.com/FL/Kinard/Se-Oak-St-32449/home/127883504,CPARMLS,742572,N,Y,30.242234,-85.19102
MLS Listing,,Vacant Land,00 NW K B Jones Rd,Blountstown,FL,32424,775000,,,No Named Subdivision,,5227200,,228,,,Active,,,https://www.redfin.com/FL/Blountstown/NW-K-B-Jones-Rd-32424/home/178399655,CPARMLS,740415,N,Y,30.439655,-85.161363
MLS Listing,,Single Family Residential,17008 NW Silas Green St,Blountstown,FL,32424,149000,3,1.5,[No Recorded Subdiv],1303,16988,1981,98,114,,Active,,,https://www.redfin.com/FL/Blountstown/17008-NW-Silas-Green-St-32424/home/127913437,CPARMLS,745810,N,Y,30.4463407,-85.066956
MLS Listing,,Vacant Land,0000 W State Rd 20,Blountstown,FL,32424,412065,,,[No Recorded Subdiv],,3988789,,227,,,Active,,,https://www.redfin.com/FL/Blountstown/0000-W-State-Rd-20-32424/home/185188605,CPARMLS,740435,N,Y,30.428546,-85.113633
MLS Listing,,Vacant Land,17312 NE State Rd 71 /parrish Ga,Blountstown,FL,32424,100000,,,[No Recorded Subdiv],,16553,,129,,,Active,,,https://www.redfin.com/FL/Blountstown/17312-Florida-71-32424/home/186239918,CPARMLS,744435,N,Y,30.4348524,-85.054516
MLS Listing,,Vacant Land,24247 NW Pine Tree Trl,Fountain,FL,32438,62000,,,[No Recorded Subdiv],,435600,,45,,,Active,,,https://www.redfin.com/FL/Fountain/24247-NW-Pine-Tree-Trl-32438/home/188132974,CPARMLS,748127,N,Y,30.5489516,-85.3589563
MLS Listing,,Multi-Family (2-4 Unit),10012 Windsong Way,Blountstown,FL,32424,590500,3,3.0,No Named Subdivision,1760,1010592,1969,650,336,,Active,,,https://www.redfin.com/FL/Blountstown/10012-Windsong-WAY-32424/home/178922865,CPARMLS,696647,N,Y,30.344645,-85.145218
MLS Listing,,Vacant Land,14736 SW Lil Cir,Kinard,FL,32449,35000,,,[No Recorded Subdiv],,22390,,185,,,Active,,,https://www.redfin.com/FL/Kinard/14736-SW-Lil-Cir-32449/home/127933627,CPARMLS,742273,N,Y,30.304474,-85.148572
MLS Listing,,Vacant Land,0000 S State Road 71,Kinard,FL,32449,175000,,,Chipola River Estates,,882090,,57,,,Active,,,https://www.redfin.com/FL/Kinard/0000-S-State-Road-71-32449/home/187872670,CPARMLS,747659,N,Y,30.403236,-85.168828
MLS Listing,,Vacant Land,TBD State Rd 69-s,Blountstown,FL,32424,75000,,,[No Recorded Subdiv],,174240,,73,,,Active,,,https://www.redfin.com/FL/Blountstown/TBD-Unknown/home/187633817,CPARMLS,746936,N,Y,30.413431,-85.058715
MLS Listing,,Vacant Land,0 Fairview Rd Lot 2 Blk 90,Alford,FL,32420,13750,,,Compass Lake Hills Unit 4,,47916,,42,,,Active,,,https://www.redfin.com/FL/Alford/0-Fairview-Rd-32420/unit-2-Blk-90/home/188151464,CPARMLS,748243,N,Y,30.5663897,-85.3384063
MLS Listing,,Vacant Land,20 W L K Lona Dr,Fountain,FL,32438,190000,,,No Named Subdivision,,1742400,,104,,,Active,,,https://www.redfin.com/FL/Fountain/20-L-K-Lona-Dr-32438/home/186993638,CPARMLS,745548,N,Y,30.5557787,-85.3674082
MLS Listing,,Vacant Land,22563 NW Lake Mckenzie Blvd,Altha,FL,32421,100000,,,No Named Subdivision,,435600,,515,,,Active,,,https://www.redfin.com/FL/Altha/22563-Nw-Lake-McKenzie-Blvd-32421/home/127927502,CPARMLS,729163,N,Y,30.527612,-85.30771
MLS Listing,,Vacant Land,0000-B NW Purdee Rd,Altha,FL,32421,90000,,,No Named Subdivision,,435600,,98,,,Active,,,https://www.redfin.com/FL/Unknown/0000-B-Purdee-Rd-32421/home/187213057,CPARMLS,745850,N,Y,30.525914,-85.306487
MLS Listing,,Vacant Land,21558 NW Lake Mckenzie Blvd,Altha,FL,32421,65000,,,No Named Subdivision,,68389,,475,,,Active,,,https://www.redfin.com/FL/Altha/21558-Nw-Lake-McKenzie-Blvd-32421/home/127929024,CPARMLS,730973,N,Y,30.512042,-85.307432
MLS Listing,,Vacant Land,0000 Lake Mckenzie Blvd,Altha,FL,32421,200000,,,N/A,,163350,,210,,,Active,,,https://www.redfin.com/FL/Altha/Lake-McKenzie-Blvd-32421/home/127865385,CPARMLS,741129,N,Y,30.514258,-85.307467
MLS Listing,,Vacant Land,20040 N State Rd 71,Blountstown,FL,32424,650000,,,[No Recorded Subdiv],,1742400,,329,,,Active,,,https://www.redfin.com/FL/Blountstown/20040-Florida-71-32424/home/183728930,CPARMLS,736172,N,Y,30.4702196,-85.0890022
MLS Listing,,Vacant Land,00 NW Shuman Ferry Rd,Altha,FL,32421,60000,,,No Named Subdivision,,130680,,341,,,Active,,,https://www.redfin.com/FL/Altha/Nw-Shuman-Ferry-Rd-32421/home/127861499,CPARMLS,735787,N,Y,30.489372,-85.154571
MLS Listing,,Vacant Land,0 NW Camp Head Rd,Altha,FL,32421,99000,,,No Named Subdivision,,1742400,,75,,,Active,,,https://www.redfin.com/FL/Altha/Nw-Camp-Head-Rd-32421/home/127856743,CPARMLS,746827,N,Y,30.54417,-85.273868
MLS Listing,,Vacant Land,24481 NW Tyler Ln,Altha,FL,32421,88000,,,No Named Subdivision,,429937,,104,,,Active,,,https://www.redfin.com/FL/Altha/24481-NW-Tyler-Ln-32421/home/162257979,CPARMLS,745543,N,Y,30.555539,-85.193509
MLS Listing,,Single Family Residential,19130 NE Cressie Ln Lot 1,Altha,FL,32421,320000,4,2.0,Arboles,1695,21780,2023,99,189,,Active,,,https://www.redfin.com/FL/Altha/19130-NE-Cressie-Ln-32421/unit-1/home/187188154,CPARMLS,745790,N,Y,30.5812316,-85.0702823
MLS Listing,,Vacant Land,,Altha,FL,32421,300000,,,,,775368,,264,,,Active,,,https://www.redfin.com/FL/Altha/Undisclosed-address-32421/home/184718400,CPARMLS,738828,N,Y,30.5731893,-85.0890333
MLS Listing,,Vacant Land,0000-A NW Purdee Rd,Altha,FL,32421,85000,,,[No Recorded Subdiv],,435600,,98,,,Active,,,https://www.redfin.com/FL/Unknown/0000-A-Purdee-Rd-32421/home/187212882,CPARMLS,745849,N,Y,30.525932,-85.307001
MLS Listing,,Vacant Land,2097 NW Lake Lillian Rd,Fountain,FL,32438,77400,,,N/A,,217800,,1,,,Active,,,https://www.redfin.com/FL/Fountain/2097-Lake-Lillian-Rd-32438/home/188811561,CPARMLS,749852,N,Y,30.536488,-85.356708
MLS Listing,,Vacant Land,00 NW Whitewater Grade Rd,Clarksville,FL,32430,4000000,,,No Named Subdivision,,21780000,,112,,,Active,,,https://www.redfin.com/FL/Clarksville/00-NW-Whitewater-Grade-RD-32430/home/186501783,CPARMLS,745162,N,Y,30.495186,-85.231838
MLS Listing,,Single Family Residential,21377 Spring Hill Dr,Blountstown,FL,32424,255000,3,2.0,No Named Subdivision,1483,38768,2021,45,172,,Active,,,https://www.redfin.com/FL/Blountstown/21377-NE-Spring-Hill-Dr-32424/home/183487207,CPARMLS,748169,N,Y,30.509558,-85.046983
MLS Listing,,Vacant Land,0000 NW Blackbottom Rd,Altha,FL,32421,30000,,,[No Recorded Subdiv],,20386,,357,,,Active,,,https://www.redfin.com/FL/Unknown/NW-Black-Bottom-Rd-32421/home/183598564,CPARMLS,735375,N,Y,30.511557,-85.157256
MLS Listing,,Single Family Residential,25548 NW Rosewood Cir,Altha,FL,32421,269000,3,2.0,[No Recorded Subdiv],1700,21344,2023,53,158,,Active,,,https://www.redfin.com/FL/Altha/25548-NW-Rosewood-CIR-32421/home/187980602,CPARMLS,747790,N,Y,30.569566,-85.139876
MLS Listing,,Vacant Land,2402 SW State Rd 20 Rd,Fountain,FL,32438,16900,,,No Named Subdivision,,82764,,39,,,Active,,,https://www.redfin.com/FL/Fountain/2402-NW-State-Rd-20-RD-32438/home/188186538,CPARMLS,748428,N,Y,30.43732,-85.350375
MLS Listing,,Vacant Land,0000 NE Luke Holland Rd,Altha,FL,32421,130000,,,No Named Subdivision,,1742400,,1,,,Active,,,https://www.redfin.com/FL/Altha/Ne-Luke-Holland-Rd-32421/home/127857197,CPARMLS,749862,N,Y,30.496966,-85.110957
MLS Listing,,Vacant Land,00002 State Road 71,Kinard,FL,32449,155000,,,Chipola River Estates,,442134,,133,,,Active,,,https://www.redfin.com/FL/Kinard/00002-State-Road-71-32449/home/186199407,CPARMLS,744300,N,Y,30.233465,-85.206048
MLS Listing,,Single Family Residential,18414 N Roy Golden Rd,Blountstown,FL,32424,550000,4,3.0,No Named Subdivision,3039,108900,1994,82,181,,Active,,,https://www.redfin.com/FL/Blountstown/18414-NE-Roy-Golden-Rd-32424/home/127908137,CPARMLS,746521,N,Y,30.4600174,-85.0570559
MLS Listing,,Vacant Land,15760 S Sr 71,Blountstown,FL,32424,200000,,,[No Recorded Subdiv],,154638,,392,,,Active,,,https://www.redfin.com/FL/Blountstown/15760-State-Road-71-S-32424/home/168012842,CPARMLS,734335,N,Y,30.428967,-85.06082
MLS Listing,,Vacant Land,0 Fairview Rd Unit L2 Blk AB,Alford,FL,32420,13750,,,Compass Lake Hills Unit 2,,49223,,42,,,Active,,,https://www.redfin.com/FL/Alford/0-Fairview-Rd-32420/unit-L2-Blk-AB/home/188151185,CPARMLS,748241,N,Y,30.5663897,-85.3384063
MLS Listing,,Vacant Land,0000 Bailey Cemetary Rd,Altha,FL,32421,89000,,,[No Recorded Subdiv],,29185,,218,,,Active,,,https://www.redfin.com/FL/Altha/0000-Bailey-Cemetary-RD-32421/home/185275190,CPARMLS,740802,N,Y,30.478862,-85.162482
MLS Listing,,Vacant Land,9950 NW Porter Grade Rd,Altha,FL,32421,165000,,,[No Recorded Subdiv],,1089000,,84,,,Active,,,https://www.redfin.com/FL/Altha/9950-NW-Porter-Grade-Rd-32421/home/187432966,CPARMLS,746449,N,Y,30.4923325,-85.2772078
MLS Listing,,Single Family Residential,22875 NW Parker Ln,Altha,FL,32421,1199000,4,2.5,No Named Subdivision,2173,4573800,1986,42,552,,Active,,,https://www.redfin.com/FL/Altha/22875-NW-Parker-Ln-32421/home/188159596,CPARMLS,747922,N,Y,30.528787,-85.262612
MLS Listing,,Single Family Residential,18751 Roy Golden Rd,Blountstown,FL,32424,200000,3,2.0,No Named Subdivision,1560,87120,1964,13,128,,Active,,,https://www.redfin.com/FL/Blountstown/18751-NE-Roy-Golden-Rd-32424/home/127895319,CPARMLS,749528,N,Y,30.4610786,-85.0624923
MLS Listing,,Single Family Residential,20754 SE Lockwood Ave,Blountstown,FL,32424,374000,4,3.0,No Named Subdivision,2068,35284,1960,46,181,,Active,,,https://www.redfin.com/FL/Blountstown/20754-SE-Lockwood-Ave-32424/home/127920003,CPARMLS,748121,N,Y,30.4337963,-85.0437174
MLS Listing,,Single Family Residential,26302 NE Canton Rd Lot 23,Altha,FL,32421,335000,3,2.0,Arboles,1832,21780,2023,100,183,,Active,,,https://www.redfin.com/FL/Altha/26302-NE-Canton-Rd-32421/unit-23/home/187182806,CPARMLS,745775,N,Y,30.5808379,-85.0700176
MLS Listing,,Vacant Land,Lot 6 Fairview Rd,Alford,FL,32420,7499,,,Compass Lake Hills Unit 5,,34848,,94,,,Active,,,https://www.redfin.com/FL/Marianna/6-Fairview-Rd-32448/home/142239677,CPARMLS,746031,N,Y,30.5664264,-85.3382335
MLS Listing,,Vacant Land,14838 SE Halley Rd,Blountstown,FL,32424,124900,,,[No Recorded Subdiv],,59677,,278,,,Active,,,https://www.redfin.com/FL/Blountstown/14838-Se-Halley-Rd-32424/home/127925729,CPARMLS,738154,N,Y,30.2704656,-85.1445491
MLS Listing,,Vacant Land,14567 Cj Roberts Rd,Blountstown,FL,32424,900000,,,,,5661493,,79,,,Active,,,https://www.redfin.com/FL/Blountstown/14567-C-J-Roberts-Rd-32424/home/178395375,CPARMLS,746692,N,Y,30.368778,-85.15728
MLS Listing,,Single Family Residential,16668 Hanna Tower Rd,Altha,FL,32421,379000,3,2.0,No Named Subdivision,2822,130680,1971,78,134,,Active,,,https://www.redfin.com/FL/Altha/16668-NE-Hanna-Tower-Rd-32421/home/148747587,CPARMLS,746728,N,Y,30.565688,-85.121367
MLS Listing,,Mobile/Manufactured Home,15008 Red Horsesucker Rd,Kinard,FL,32449,129900,2,2.0,Chipola River Estates,960,6970,1999,84,135,,Active,,,https://www.redfin.com/FL/Kinard/15008-Red-Horsesucker-RD-32449/home/187417737,CPARMLS,746392,N,Y,30.276585,-85.140875
MLS Listing,,Vacant Land,0001 State Road 71,Kinard,FL,32449,165000,,,Chipola River Estates,,441263,,133,,,Active,,,https://www.redfin.com/FL/Kinard/0001-State-Road-71-32449/home/186199253,CPARMLS,744297,N,Y,30.236355,-85.208258
MLS Listing,,Single Family Residential,15021 SE Blue Bream Dr,Blountstown,FL,32424,190000,3,2.5,No Named Subdivision,1582,40946,1967,3,120,,Active,,,https://www.redfin.com/FL/Blountstown/15021-SE-Blue-Bream-Dr-32424/home/127906722,CPARMLS,749817,N,Y,30.2741135,-85.1405317
MLS Listing,,Vacant Land,9908 SW Mark Barbee Rd,Other Florida,FL,32449,688000,,,,,7405200,,5,,,Active,,,https://www.redfin.com/FL/Kinard/9908-SW-Mark-Barbee-Rd-32449/home/162244304,CATRS,366042,N,Y,30.257201,-85.225411
MLS Listing,,Single Family Residential,14308 Abbott Rd,Blountstown,FL,32424,35000,1,1.0,NO NAMED SUBDIVISION,,13939,1980,13,,,Active,,,https://www.redfin.com/FL/Blountstown/14308-Abbott-RD-32424/home/184783867,RAFGC,315878,N,Y,30.304905,-85.15258
MLS Listing,,Vacant Land,NW Baker Rd,Altha,FL,32421,115000,,,ALTHA,,435600,,20,,,Active,,,https://www.redfin.com/FL/Altha/Nw-Baker-Rd-32421/home/127866329,Stellar MLS as Distributed by MLS Grid,OM668030,N,Y,30.512369,-85.320843
MLS Listing,,Single Family Residential,2910 Richard St,Kinard,FL,32449,228900,4,3.0,NO NAMED SUBDIVISION,1358,82503,1958,21,169,,Active,,,https://www.redfin.com/FL/Kinard/2910-SE-Richard-St-32449/home/127882982,RAFGC,315799,N,Y,30.242051,-85.1971116
MLS Listing,,Vacant Land,xxx Raymond Branton Rd,Blounstown,FL,32424,179900,,,,,1742400,,24,,,Active,,,https://www.redfin.com/FL/Blountstown/Raymond-Branton-RD-32424/home/187471227,CATRS,365550,N,Y,30.4297,-85.0672
MLS Listing,,Vacant Land,SE Davis Peacock Rd Kinard,Other City - In The State Of Florida,FL,32449,280000,,,n/a,,963547,,31,,,Active,,,https://www.redfin.com/FL/Kinard/SE-Davis-Peacock-Rd-Kinard-32449/home/188369256,MARMLS,A11479028,N,Y,30.2807522,-85.2638064
MLS Listing,,Vacant Land,SE Davis Peacock Rd,Kinard,FL,32449,280000,,,KINARD,,963547,,31,,,Active,,,https://www.redfin.com/FL/Kinard/Se-Davis-Peacock-Rd-32449/home/127855545,Stellar MLS as Distributed by MLS Grid,O6154094,N,Y,30.209433,-85.201454
MLS Listing,,Vacant Land,2402 W Sr 20 Rd,Youngstown,FL,32446,16900,,,Metes & Bounds,,82764,,42,,,Active,,,https://www.redfin.com/FL/Youngstown/2402-W-SR-20-RD-32446/home/188157869,NEFLMLS,1254124,N,Y,30.437283,-85.350312
MLS Listing,,Mobile/Manufactured Home,25540 NW 2nd St,Altha,FL,32421,169000,3,2.0,Richards Add,1323,21780,2023,42,128,,Active,,,https://www.redfin.com/FL/Altha/25540-NW-Second-St-32421/home/177617041,CATRS,364899,N,Y,30.5695802,-85.1294095
MLS Listing,,Vacant Land,0000 Lamont Rd,Fountain,FL,32438,34199,,,Fountain,,435600,,60,,,Active,,,https://www.redfin.com/FL/Fountain/Lamont-Rd-32438/home/127911763,SCMLS,976949,N,Y,30.542018,-85.364544
MLS Listing,,Vacant Land,Lot 5 SW Sr 73,Kinard,FL,32445,19900,,,SUNSET ACRES,,61420,,63,,,Active,,,https://www.redfin.com/FL/Kinard/Lot-5-SW-Sr-73-32445/home/184907864,RAFGC,315440,N,Y,30.2627329402286,-85.2404520024284
MLS Listing,,Vacant Land,6019 SE Blon Carter Rd,Blounstown,FL,32424,50000,,,-,,191664,,74,,,Active,,,https://www.redfin.com/FL/Blountstown/6019-Se-Blon-Carter-Rd-32424/home/170267616,CATRS,363753,N,Y,30.287727,-85.142077
MLS Listing,,Single Family Residential,16590 SW Gaskin St,Blountstown,FL,32424,161799,3,2.0,City OF Blountstown (2),1323,,1950,76,122,,Active,,,https://www.redfin.com/FL/Blountstown/16590-SW-Gaskin-St-32424/home/127923332,Beaches MLS,RX-10920821,N,Y,30.4401756,-85.0487369
MLS Listing,,Mobile/Manufactured Home,15008 SE Red Horsesucker Dr,Blountstown,FL,32424,129900,2,2.0,Chipola River Estates,960,6969,1999,84,135,,Active,,,https://www.redfin.com/FL/Blountstown/15008-SE-Redhorse-Sucker-Rd-32424/home/127906997,CATRS,363363,N,Y,30.2765854,-85.1408769
MLS Listing,,Single Family Residential,17991 County Road 287 Rd,Clarksville,FL,32430,475000,5,4.5,No Subdivision,4690,217800,2020,88,101,,Active,,,https://www.redfin.com/FL/Clarksville/17991-NW-County-Road-287-32430/home/127856618,CATRS,363255,N,Y,30.459783,-85.224137
MLS Listing,,Vacant Land,TBD SE Sheard Rd,Blounstown,FL,32424,7500,,,N/A,,16117,,88,,,Active,,,https://www.redfin.com/FL/Unknown/TBD-Sheard-Rd-32424/home/187367919,CATRS,363210,N,Y,30.354676,-85.06719
MLS Listing,,Single Family Residential,21369 NE Spring Hill Dr,Blountstown,FL,32424,265000,3,2.0,BLOUNTSTOWN,1400,43560,2023,97,189,,Active,,,https://www.redfin.com/FL/Blountstown/21369-NE-Spring-Hill-DR-32424/home/187221115,CATRS,362972,N,Y,30.52119076,-85.0514
MLS Listing,,Mobile/Manufactured Home,5290 Sr 73,Kinard,FL,32449,165000,3,2.0,NO NAMED SUBDIVISION,1216,50965,2007,111,136,,Active,,,https://www.redfin.com/FL/Kinard/5290-SW-State-Road-73-32449/home/127853041,RAFGC,315034,N,Y,30.2640088,-85.2416627
MLS Listing,,Single Family Residential,23281 Black Bottom Rd,Altha,FL,32421,349000,3,2.0,,1784,87120,2002,113,196,,Active,,,https://www.redfin.com/FL/Altha/23281-NW-Black-Bottom-Rd-32421/home/127925211,CATRS,362419,N,Y,30.5235335,-85.1418189
MLS Listing,,Single Family Residential,23309 Black Bottom Rd,Altha,FL,32421,237400,6,4.0,,2208,43560,1998,133,108,,Active,,,https://www.redfin.com/FL/Altha/23309-NW-Black-Bottom-Rd-32421/home/186196167,CATRS,361565,N,Y,30.5230705,-85.1420924
MLS Listing,,Single Family Residential,20861 SE Morningside Cir,Blountstown,FL,32424,129900,3,1.0,Juanita Subdivision,1383,16117,1968,149,94,,Active,,,https://www.redfin.com/FL/Blountstown/20861-SE-Morningside-Cir-32424/home/127923102,CATRS,360921,N,Y,30.4384758,-85.0429737
MLS Listing,,Vacant Land,00 NW Shuman Ferry Rd,Altha,FL,32421,60000,,,,,130680,,244,,,Active,,,https://www.redfin.com/FL/Unknown/Shumans-Ferry-Rd-32421/home/178405582,CATRS,357269,N,Y,30.5325,-85.1833
MLS Listing,,Vacant Land,3637 NW Miller Rd,Altha,FL,32421,39900,,,-,,217800,,328,,,Active,,,https://www.redfin.com/FL/Altha/3637-NW-Miller-Rd-32421/home/127866444,CATRS,354296,N,Y,30.52166,-85.330689
MLS Listing,,Vacant Land,1 Center Lake Rd NW,Other City - In The State Of Florida,FL,32421,3999,,,Lake Central Park,,6534,,333,,,Active,,,https://www.redfin.com/FL/Altha/1-Center-Lake-RD-NW-32421/home/183666574,MARMLS,A11322701,N,Y,30.506162,-85.1271907
