SALE TYPE,SOLD DATE,PROPERTY TYPE,ADDRESS,CITY,STATE OR PROVINCE,ZIP OR POSTAL CODE,PRICE,BEDS,BATHS,LOCATION,SQUARE FEET,LOT SIZE,YEAR BUILT,DAYS ON MARKET,$/SQUARE FEET,HOA/MONTH,STATUS,NEXT OPEN HOUSE START TIME,NEXT OPEN HOUSE END TIME,URL (SEE https://www.redfin.com/buy-a-home/comparative-market-analysis FOR INFO ON PRICING),SOURCE,MLS#,FAVORITE,INTERESTED,LATITUDE,LONGITUDE
"In accordance with local MLS rules, some MLS listings are not included in the download"
MLS Listing,,Vacant Land,0 Branan Field Rd,Middleburg,FL,32068,1149000,,,Middleburg,,1508918,,1,,,Active,,,https://www.redfin.com/FL/Middleburg/Branan-Field-Rd-32068/home/162339042,NEFLMLS,1154339,N,Y,30.128416,-81.832379
MLS Listing,,Vacant Land,0 Bills Way,Keystone Heights,FL,32656,37500,,,,,90605,,124,,,Active,,,https://www.redfin.com/FL/Keystone-Heights/Bills-Way-32656/home/108746555,CPARMLS,744666,N,Y,29.785685,-81.932519
MLS Listing,,Single Family Residential,6960 Immokalee Rd,Keystone Heights,FL,32656,295000,3,2.0,Metes & Bounds,1008,,1977,1,293,,Active,,,https://www.redfin.com/FL/Keystone-Heights/6960-Immokalee-Rd-32656/home/58727481,NEFLMLS,1259415,N,Y,29.8031487,-82.0354137
MLS Listing,,Single Family Residential,408 Forest Meadow Ln,Orange Park,FL,32065,389000,3,2.5,Forest Hammock,2220,,2014,1,175,40,Active,,,https://www.redfin.com/FL/Orange-Park/408-Forest-Meadow-Ln-32065/home/58719168,NEFLMLS,1259871,N,Y,30.1807801,-81.8521944
MLS Listing,,Condo/Co-op,150 Governor St #113,Green Cove Springs,FL,32043,207500,1,1.5,Governors Landing,854,,1985,1,243,385,Active,,,https://www.redfin.com/FL/Green-Cove-Springs/150-Governor-St-32043/unit-113/home/108736000,NEFLMLS,1259982,N,Y,30.006255,-81.690059
MLS Listing,,Mobile/Manufactured Home,4961 Windmill Ct,Middleburg,FL,32068,100000,3,2.0,Middleburg,992,,1989,1,101,,Active,,,https://www.redfin.com/FL/Middleburg/4961-Windmill-Ct-32068/home/108731685,NEFLMLS,1259969,N,Y,30.0939095,-81.9096021
MLS Listing,,Single Family Residential,2362 Gabriel Dr,Orange Park,FL,32073,365000,3,2.0,Montclair,1566,,1974,1,233,,Active,,,https://www.redfin.com/FL/Orange-Park/2362-Gabriel-Dr-32073/home/108759451,NEFLMLS,1258305,N,Y,30.1600098,-81.7231215
MLS Listing,,Mobile/Manufactured Home,5910 Villanueva Dr,Keystone Heights,FL,32656,79900,3,2.0,Plantation Farms,1680,,1983,2,48,,Active,,,https://www.redfin.com/FL/Keystone-Heights/5910-Villanueva-Dr-32656/home/72718296,NEFLMLS,1259938,N,Y,29.8602401,-81.8969673
MLS Listing,,Single Family Residential,1607 Harring St,Green Cove Springs,FL,32043,240000,3,1.5,Shands Platt,1025,,1976,2,234,,Active,,,https://www.redfin.com/FL/Green-Cove-Springs/1607-Harring-St-32043/home/108759138,NEFLMLS,1259903,N,Y,29.9928459,-81.6993892
MLS Listing,,Single Family Residential,404 Virgo Ln,Orange Park,FL,32073,255000,3,2.0,Meadowbrook,1246,,1973,2,205,,Active,,,https://www.redfin.com/FL/Orange-Park/404-Virgo-Ln-32073/home/72713774,NEFLMLS,1259194,N,Y,30.1763966,-81.7571458
MLS Listing,,Single Family Residential,1384 Fairway Village Dr,Fleming Island,FL,32003,429000,3,2.0,Fleming Island Pl,1650,,2001,2,260,105,Active,,,https://www.redfin.com/FL/Fleming-Island/1384-Fairway-Village-Dr-32003/home/108729078,NEFLMLS,1259885,N,Y,30.0757903,-81.7153855
MLS Listing,,Single Family Residential,1820 Lakedge Dr,Middleburg,FL,32068,434900,4,2.5,South Lake,2196,,1988,2,198,,Active,,,https://www.redfin.com/FL/Middleburg/1820-Lakedge-Dr-32068/home/62437746,NEFLMLS,1259875,N,Y,30.1022496,-81.7654785
MLS Listing,,Single Family Residential,5975 County Road 352,Keystone Heights,FL,32656,699990,4,3.0,**verifying Subd**,3600,,1960,2,194,,Active,,,https://www.redfin.com/FL/Keystone-Heights/5975-County-Road-352-32656/home/108731835,NEFLMLS,1259869,N,Y,29.813155,-81.979121
MLS Listing,,Single Family Residential,4752 Acacia St,Middleburg,FL,32068,315000,3,2.0,Middleburg,1269,,1998,2,248,,Active,,,https://www.redfin.com/FL/Middleburg/4752-Acacia-St-32068/home/62450401,NEFLMLS,1258270,N,Y,30.0540828,-81.9132695
MLS Listing,,Single Family Residential,2823 Southampton Dr,Middleburg,FL,32068,298900,3,2.0,Southampton,1518,,2001,3,197,18,Active,,,https://www.redfin.com/FL/Middleburg/2823-Southampton-Dr-32068/home/58716146,NEFLMLS,1259848,N,Y,30.1054383,-81.7773997
MLS Listing,,Single Family Residential,3330 Byron Rd,Green Cove Springs,FL,32043,300000,3,3.0,Lake Asbury,1980,,1983,3,152,,Active,,,https://www.redfin.com/FL/Green-Cove-Springs/3330-Byron-Rd-32043/home/72715139,NEFLMLS,1259839,N,Y,30.0718006,-81.8181451
MLS Listing,,Single Family Residential,809 Quiet Stone Ln,Orange Park,FL,32065,371000,4,2.5,Oakleaf Plantation,2466,,2010,3,150,10,Active,,,https://www.redfin.com/FL/Orange-Park/809-Quiet-Stone-Ln-32065/home/62425023,NEFLMLS,1259833,N,Y,30.1594338,-81.8437683
MLS Listing,,Vacant Land,1308 East St,Green Cove Springs,FL,32043,115000,,,Shands Platt,,37897,,3,,,Active,,,https://www.redfin.com/FL/Green-Cove-Springs/1308-East-St-32043/home/62480977,NEFLMLS,1259817,N,Y,29.99611,-81.695157
MLS Listing,,Single Family Residential,150 Hercules Dr E,Orange Park,FL,32073,259900,3,1.5,Meadowbrook,960,9234,1971,3,271,,Active,,,https://www.redfin.com/FL/Orange-Park/150-Hercules-Dr-E-32073/home/108751189,NEFLMLS,1259815,N,Y,30.1764575,-81.7495814
MLS Listing,,Single Family Residential,4115 Sandhill Crane Ter,Middleburg,FL,32068,392000,4,2.0,Two Creeks,1997,,2015,3,196,7,Active,,,https://www.redfin.com/FL/Middleburg/4115-Sandhill-Crane-Ter-32068/home/72724770,NEFLMLS,1259795,N,Y,30.1435707,-81.8560518
MLS Listing,,Single Family Residential,2862 Affirmed Ct,Green Cove Springs,FL,32043,294000,3,2.0,Asbury Downs,1275,,1996,3,231,16,Active,,,https://www.redfin.com/FL/Green-Cove-Springs/2862-Affirmed-Ct-32043/home/62404253,NEFLMLS,1259771,N,Y,30.0369798,-81.8067863
MLS Listing,,Single Family Residential,2823 Woodland Dr,Orange Park,FL,32073,425000,4,3.0,Lakeside Estates,2348,,1962,3,181,,Active,,,https://www.redfin.com/FL/Orange-Park/2823-Woodland-Dr-32073/home/108747846,NEFLMLS,1259770,N,Y,30.1478121,-81.7370579
MLS Listing,,Single Family Residential,3607 Double Branch Ln,Orange Park,FL,32073,344999,4,2.0,Spencer Crossing,1652,,1993,3,209,17,Active,,,https://www.redfin.com/FL/Orange-Park/3607-Double-Branch-Ln-32073/home/62401565,NEFLMLS,1259752,N,Y,30.1860202,-81.7998677
MLS Listing,,Single Family Residential,6053 State Road 21,Keystone Heights,FL,32656,1100000,6,3.5,Oak Ridge Farms,3891,,1984,3,283,,Active,,,https://www.redfin.com/FL/Keystone-Heights/6053-State-Road-21-32656/home/108755169,NEFLMLS,1259745,N,Y,29.8564955,-81.950903
MLS Listing,,Single Family Residential,2888 Woodstone Dr,Middleburg,FL,32068,315000,3,2.0,Doctors Inlet Reserve,1433,,2006,3,220,39,Active,,,https://www.redfin.com/FL/Middleburg/2888-Woodstone-Dr-32068/home/58724073,NEFLMLS,1259737,N,Y,30.0913219,-81.7705632
MLS Listing,,Single Family Residential,3662 Winged Foot Cir,Green Cove Springs,FL,32043,450000,3,2.0,Magnolia Point,1983,,1992,3,227,126,Active,,,https://www.redfin.com/FL/Green-Cove-Springs/3662-Winged-Foot-Cir-32043/home/108765503,NEFLMLS,1259710,N,Y,30.0014014,-81.7028105
MLS Listing,,Mobile/Manufactured Home,3349 Russell Rd,Green Cove Springs,FL,32043,267500,3,2.0,Florida Farm Land,1568,86849,2018,3,171,,Active,,,https://www.redfin.com/FL/Green-Cove-Springs/3349-Russell-Rd-32043/home/108742895,NEFLMLS,1259690,N,Y,30.0442885,-81.7369467
MLS Listing,,Single Family Residential,39 Bluebell Ave,Middleburg,FL,32068,380000,4,2.0,Middleburg,1835,,2023,3,207,,Active,,,https://www.redfin.com/FL/Middleburg/39-Bluebell-Ave-32068/home/80149443,NEFLMLS,1259682,N,Y,30.067414,-81.886635
MLS Listing,,Mobile/Manufactured Home,7807 Bundy Lk,Keystone Heights,FL,32656,300000,3,2.0,Metes & Bounds,1728,,1992,3,174,,Active,,,https://www.redfin.com/FL/Keystone-Heights/7807-Bundy-Lake-Rd-32656/home/108758026,NEFLMLS,1259671,N,Y,29.7727792,-81.9413979
MLS Listing,,Single Family Residential,1864 Lake Forest Ln,Fleming Island,FL,32003,415000,3,2.0,Eagle Harbor,1476,,2000,3,281,5,Active,,,https://www.redfin.com/FL/Fleming-Island/1864-Lake-Forest-Ln-32003/home/62437683,NEFLMLS,1259658,N,Y,30.10386,-81.73691
MLS Listing,,Townhouse,1890 Copper Stone Dr #E,Fleming Island,FL,32003,339900,3,2.0,Eagle Harbor,1737,,2005,3,196,255,Active,,,https://www.redfin.com/FL/Fleming-Island/1890-Copper-Stone-Dr-32003/unit-E/home/108750554,NEFLMLS,1259646,N,Y,30.0862548,-81.7055901
MLS Listing,,Single Family Residential,2227 Harbor Lake Dr,Fleming Island,FL,32003,585000,4,3.0,Eagle Harbor,2390,,1999,3,245,5,Active,,,https://www.redfin.com/FL/Fleming-Island/2227-Harbor-Lake-Dr-32003/home/108741957,NEFLMLS,1259645,N,Y,30.11269,-81.736941
MLS Listing,,Vacant Land,5812 Bryce St,Keystone Heights,FL,32656,32900,,,BIG TREE LAKES SEC C,,46609,,3,,,Active,,,https://www.redfin.com/FL/Keystone-Heights/5812-Bryce-St-32656/home/62481988,Stellar MLS as Distributed by MLS Grid,GC517614,N,Y,29.800992,-81.959263
MLS Listing,,Vacant Land,5810 Bryce St,Keystone Heights,FL,32656,32900,,,BIG TREE LAKES SEC C,,45302,,3,,,Active,,,https://www.redfin.com/FL/Keystone-Heights/5810-Bryce-St-32656/home/62481987,Stellar MLS as Distributed by MLS Grid,GC517613,N,Y,29.801189,-81.958848
MLS Listing,,Single Family Residential,107 Jack St,Green Cove Springs,FL,32043,269000,3,2.0,Palmer & Ferris,1552,,1986,3,173,,Active,,,https://www.redfin.com/FL/Green-Cove-Springs/107-Jack-St-32043/home/108745303,NEFLMLS,1259636,N,Y,29.9873069,-81.694043
MLS Listing,,Single Family Residential,2005 Teal Ln,Middleburg,FL,32068,360000,3,1.5,Duck Pond,1584,,1971,3,227,,Active,,,https://www.redfin.com/FL/Middleburg/2005-Teal-Ln-32068/home/108732457,NEFLMLS,1258938,N,Y,30.0855929,-81.9477465
MLS Listing,,Single Family Residential,1278 Wetland Ridge Cir,Middleburg,FL,32068,335000,3,2.0,Pine Ridge,1492,,2015,3,225,4,Active,,,https://www.redfin.com/FL/Middleburg/1278-Wetland-Ridge-Cir-32068/home/77285972,NEFLMLS,1259491,N,Y,30.1255158,-81.8445282
MLS Listing,,Mobile/Manufactured Home,5930 Indian Trl,Keystone Heights,FL,32656,390000,3,2.0,Oak Forest,1661,,2002,3,235,,Active,,,https://www.redfin.com/FL/Keystone-Heights/5930-Indian-Trl-32656/home/62479959,NEFLMLS,1258645,N,Y,29.837695,-81.907319
MLS Listing,,Mobile/Manufactured Home,5743 Middleton Ct,Jacksonville,FL,32234,230000,3,2.0,Clay Hill,1248,,1985,4,184,,Active,,,https://www.redfin.com/FL/Jacksonville/5743-Middleton-Ct-32234/home/72721781,NEFLMLS,1259616,N,Y,30.184159,-81.984651
MLS Listing,,Single Family Residential,2367 Moody Ave,Orange Park,FL,32073,435000,3,2.0,Montclair,1580,,1973,4,275,,Active,,,https://www.redfin.com/FL/Orange-Park/2367-Moody-Ave-32073/home/108737071,NEFLMLS,1259615,N,Y,30.1590623,-81.7222633
MLS Listing,,Single Family Residential,2204 Marla Creek Dr,Green Cove Springs,FL,32043,420000,5,3.0,Magnolia West,2556,,2017,4,164,7,Active,,,https://www.redfin.com/FL/Green-Cove-Springs/2204-Marla-Creek-Dr-32043/home/160993149,NEFLMLS,1259609,N,Y,30.0027785,-81.7243409
MLS Listing,,Single Family Residential,1691 Seton Family Walk,Fleming Island,FL,32003,799900,4,3.0,Fleming Estates,2607,,2022,4,307,111,Active,,,https://www.redfin.com/FL/Fleming-Island/1691-Seton-Family-Walk-32003/home/170392247,NEFLMLS,1259558,N,Y,30.0687748,-81.6968444
MLS Listing,,Single Family Residential,7849 State Road 21,Keystone Heights,FL,32656,409900,4,3.0,Lakeview Highlands,2215,,1970,4,185,,Active,,,https://www.redfin.com/FL/Keystone-Heights/7849-State-Road-21-32656/home/72718727,NEFLMLS,1259556,N,Y,29.7729811,-82.0428147
MLS Listing,,Single Family Residential,6962 Gatorbone Rd,Keystone Heights,FL,32656,395000,5,2.0,White Sands,2447,,1970,4,161,,Active,,,https://www.redfin.com/FL/Keystone-Heights/6962-Gatorbone-Rd-32656/home/72715393,NEFLMLS,1259524,N,Y,29.8165137,-81.9668842
MLS Listing,,Single Family Residential,3014 Oatland Ct,Orange Park,FL,32065,525000,6,3.0,Oakleaf Plantation,3226,,2004,4,163,7,Active,,,https://www.redfin.com/FL/Orange-Park/3014-Oatland-Ct-32065/home/108759745,NEFLMLS,1259523,N,Y,30.1809906,-81.8084591
MLS Listing,,Single Family Residential,601 William Penn St,Orange Park,FL,32073,275000,3,2.0,Heritage Hills,1584,,1980,4,174,,Active,,,https://www.redfin.com/FL/Orange-Park/601-William-Penn-St-32073/home/108734725,NEFLMLS,1259515,N,Y,30.1556135,-81.7506926
MLS Listing,,Mobile/Manufactured Home,4134 Saunders Dr,Middleburg,FL,32068,299900,3,2.0,Black Creek Shores,1782,,2006,4,168,,Active,,,https://www.redfin.com/FL/Middleburg/4134-Saunders-Dr-32068/home/58744298,NEFLMLS,1259263,N,Y,30.0386961,-81.8690244
MLS Listing,,Vacant Land,112 S Lee Dr,Middleburg,FL,32068,84999,,,MIDDLEBURG,,40815,,4,,,Active,,,https://www.redfin.com/FL/Middleburg/112-S-Lee-Dr-32068/home/58768990,Stellar MLS as Distributed by MLS Grid,A4590986,N,Y,30.0760287,-81.8622811
MLS Listing,,Condo/Co-op,625 Oakleaf Plantation Pkwy #1213,Orange Park,FL,32065,225000,3,2.5,Coventry,1419,,2009,4,159,270,Active,,,https://www.redfin.com/FL/Orange-Park/625-Oakleaf-Plantation-Pkwy-32065/unit-1213/home/62412143,NEFLMLS,1259470,N,Y,30.1784076,-81.8468433
MLS Listing,,Vacant Land,1st Ave,Keystone Heights,FL,32656,17000,,,POSTMASTERS RETIREMENT VILLAGE,,10105,,4,,2,Active,,,https://www.redfin.com/FL/Keystone-Heights/1st-Ave-32656/home/108736208,Stellar MLS as Distributed by MLS Grid,GC517823,N,Y,29.748753,-82.010117
MLS Listing,,Single Family Residential,3535 Heron Cove Dr,Green Cove Springs,FL,32043,315000,4,2.0,Magnolia West,1861,,2020,4,169,7,Active,,,https://www.redfin.com/FL/Green-Cove-Springs/3535-Heron-Cove-Dr-32043/home/170388526,NEFLMLS,1259439,N,Y,30.0087244,-81.7311374
MLS Listing,,Single Family Residential,1722 Rustling Dr,Fleming Island,FL,32003,400000,3,2.0,Brookstone,1779,,2001,4,225,4,Active,,,https://www.redfin.com/FL/Fleming-Island/1722-Rustling-Dr-32003/home/104208157,NEFLMLS,1259424,N,Y,30.103825,-81.735447
MLS Listing,,Townhouse,2657 San Francisco Blvd #B,Orange Park,FL,32065,199000,2,2.0,Bay Hill,1049,,1984,4,190,,Active,,,https://www.redfin.com/FL/Orange-Park/2657-San-Francisco-Blvd-32065/unit-B/home/101829682,NEFLMLS,1259423,N,Y,30.1310344,-81.7801157
MLS Listing,,Vacant Land,225 Elmore St,Green Cove Springs,FL,32043,115000,,,Bordens Place,,8712,,4,,,Active,,,https://www.redfin.com/FL/Green-Cove-Springs/225-Elmore-St-32043/home/168014111,NEFLMLS,1259422,N,Y,29.9989635,-81.6803872
MLS Listing,,Single Family Residential,3117 Free Bird Loop,Green Cove Springs,FL,32043,565000,4,3.5,Edgewater Landing,2498,,2020,4,226,82,Active,,,https://www.redfin.com/FL/Green-Cove-Springs/3117-Free-Bird-Loop-32043/home/168011176,NEFLMLS,1257100,N,Y,30.0349565,-81.7202141
MLS Listing,,Townhouse,6350 Island Forest Dr #F,Fleming Island,FL,32003,299500,2,2.0,Stone Creek,1385,,2004,5,216,255,Active,,,https://www.redfin.com/FL/Fleming-Island/6350-Island-Forest-Dr-32003/unit-F/home/58737316,NEFLMLS,1259364,N,Y,30.0816106,-81.7047882
MLS Listing,,Single Family Residential,2120 Fresco Dr,Middleburg,FL,32068,315000,3,2.5,Rideout Hideaway,1819,,2003,5,173,26,Active,,,https://www.redfin.com/FL/Middleburg/2120-Fresco-Dr-32068/home/108747572,NEFLMLS,1259353,N,Y,30.0954998,-81.8129783
MLS Listing,,Single Family Residential,42 Harmony Hall Rd,Middleburg,FL,32068,849000,3,2.0,Magnolia Point,2053,,1996,5,414,,Active,,,https://www.redfin.com/FL/Middleburg/42-Harmony-Hall-Rd-32068/home/72720612,NEFLMLS,1259340,N,Y,30.102531,-81.7492823
MLS Listing,,Single Family Residential,1588 Twin Oak Dr E,Middleburg,FL,32068,370000,3,2.0,Oak Hill Estates,1780,12870,1985,5,208,,Active,,,https://www.redfin.com/FL/Middleburg/1588-Twin-Oak-Dr-E-32068/home/108769030,NEFLMLS,1259323,N,Y,30.1144409,-81.8027292
MLS Listing,,Single Family Residential,3913 Deertree Hills Dr,Orange Park,FL,32065,400000,5,3.5,Creekview @ Oakleaf Plantation,2988,,2006,5,134,47,Active,,,https://www.redfin.com/FL/Orange-Park/3913-Deertree-Hills-Dr-32065/home/62448373,NEFLMLS,1259337,N,Y,30.1707917,-81.8432264
MLS Listing,,Mobile/Manufactured Home,2439 Quarterhorse Trl,Middleburg,FL,32068,322500,3,2.0,Spencer Trails,1400,,1989,5,230,,Active,,,https://www.redfin.com/FL/Middleburg/2439-Quarterhorse-Trl-32068/home/108768225,NEFLMLS,1259327,N,Y,30.0637382,-81.9522201
MLS Listing,,Single Family Residential,1908 Salt Creek Dr,Fleming Island,FL,32003,749999,4,3.0,Eagle Harbor,3216,,2014,5,233,10,Active,,,https://www.redfin.com/FL/Fleming-Island/1908-Salt-Creek-Dr-32003/home/58719060,NEFLMLS,1259303,N,Y,30.0904565,-81.7293462
MLS Listing,,Single Family Residential,4886 Hwy 17,Green Cove Springs,FL,32043,239500,3,3.0,Sunny Acres,2340,,1985,5,102,,Active,,,https://www.redfin.com/FL/Green-Cove-Springs/4886-Highway-17-S-32043/home/72719060,NEFLMLS,1259279,N,Y,29.9308376,-81.6882687
MLS Listing,,Townhouse,1500 Calming Water Dr #3603,Fleming Island,FL,32003,289000,2,2.5,Lake Ridge North,1667,,2011,5,173,205,Active,,,https://www.redfin.com/FL/Fleming-Island/1500-Calming-Water-Dr-32003/unit-3603/home/62446918,NEFLMLS,1259278,N,Y,30.0803964,-81.7182197
MLS Listing,,Single Family Residential,1109 Persimmon Dr,Middleburg,FL,32068,415000,3,2.5,Pine Ridge,2384,,2020,5,174,7,Active,,,https://www.redfin.com/FL/Middleburg/1109-Persimmon-Dr-32068/home/72723377,NEFLMLS,1259277,N,Y,30.1256086,-81.8592551
MLS Listing,,Single Family Residential,4964 Heskett Ln,Keystone Heights,FL,32656,285000,3,2.0,Metes & Bounds,1320,,1978,5,216,,Active,,,https://www.redfin.com/FL/Keystone-Heights/4964-Heskett-Ln-32656/home/72716730,NEFLMLS,1259276,N,Y,29.7934522,-81.9158174
MLS Listing,,Single Family Residential,653 Ivory Palm Rd,Orange Park,FL,32073,475000,5,3.5,Wilford Preserve,2955,,2022,6,161,66,Active,,,https://www.redfin.com/FL/Orange-Park/653-Ivory-Palm-Rd-32073/home/177910190,NEFLMLS,1258633,N,Y,30.1692342,-81.7897881
MLS Listing,,Vacant Land,7210 Davidson St,Keystone Heights,FL,32656,11500,,,Highridge Estates,,16552,,6,,,Active,,,https://www.redfin.com/FL/Keystone-Heights/7210-Davidson-St-32656/home/72717250,NEFLMLS,1259234,N,Y,29.785299,-82.003143
MLS Listing,,Single Family Residential,2311 Bradley Park Dr,Green Cove Springs,FL,32043,473390,3,2.0,Bradley Creek Crossing,1590,8040,2023,6,298,47,Active,,,https://www.redfin.com/FL/Green-Cove-Springs/2311-Bradley-Park-Dr-32043/home/183751395,NEFLMLS,1259159,N,Y,30.0757391,-81.7959964
MLS Listing,,Vacant Land,7035 State Road 21,Keystone Heights,FL,32656,375000,,,KEYSTONE HEIGHTS,,84942,,7,,,Active,,,https://www.redfin.com/FL/Keystone-Heights/7035-State-Rd-21-32656/home/62485457,Stellar MLS as Distributed by MLS Grid,GC517767,N,Y,29.8098505,-82.0070684
MLS Listing,,Single Family Residential,5746 Bryce St,Keystone Heights,FL,32656,259900,5,3.0,BIG TREE LAKES SEC A,2128,46652,2023,7,122,,Active,,,https://www.redfin.com/FL/Keystone-Heights/5746-Bryce-St-32656/home/108733575,Stellar MLS as Distributed by MLS Grid,O6160090,N,Y,29.804888,-81.96199
MLS Listing,,Vacant Land,4026 Appaloosa Rd,Middleburg,FL,32068,65000,,,Long Bay,,43560,,7,,,Active,,,https://www.redfin.com/FL/Middleburg/4026-Appaloosa-Rd-32068/home/108757961,NEFLMLS,1259041,N,Y,30.1017384,-81.8700484
MLS Listing,,Single Family Residential,2612 Oak Stream Dr,Green Cove Springs,FL,32043,310000,3,2.0,Cross Creek,1222,,2023,7,254,2,Active,,,https://www.redfin.com/FL/Green-Cove-Springs/2612-Oak-Stream-Dr-32043/home/183754271,NEFLMLS,1259035,N,Y,30.0301182,-81.7356919
MLS Listing,,Single Family Residential,1574 Beecher Ln,Orange Park,FL,32073,315000,3,2.0,Wells Lake,1418,,1996,7,222,16,Active,,,https://www.redfin.com/FL/Orange-Park/1574-Beecher-Ln-32073/home/108731740,NEFLMLS,1258992,N,Y,30.1832515,-81.7188887
MLS Listing,,Single Family Residential,2276 Setting Sun Way,Green Cove Springs,FL,32043,386990,5,3.0,Cross Creek,2499,,2023,7,155,2,Active,,,https://www.redfin.com/FL/Unknown/2276-Setting-Sun-Way-32043/home/188702718,NEFLMLS,1258961,N,Y,30.038966,-81.737326
MLS Listing,,Single Family Residential,2235 Setting Sun Way,Green Cove Springs,FL,32043,332990,4,2.0,Cross Creek,1698,,2023,7,196,2,Active,,,https://www.redfin.com/FL/Unknown/2235-Setting-Sun-Way-32043/home/188702529,NEFLMLS,1258960,N,Y,30.038524,-81.736918
MLS Listing,,Single Family Residential,3189 Rustic Deer Way,Green Cove Springs,FL,32043,385990,4,2.5,Cross Creek,2492,,2023,7,155,2,Active,,,https://www.redfin.com/FL/Unknown/3189-Deer-Path-Rd-32043/home/185794403,NEFLMLS,1258957,N,Y,30.046,-81.75478
MLS Listing,,Single Family Residential,3173 Rustic Deer Way,Green Cove Springs,FL,32043,380990,4,2.5,Cross Creek,2492,,2023,7,153,2,Active,,,https://www.redfin.com/FL/Unknown/3173-Deer-Path-Rd-32043/home/185794521,NEFLMLS,1258955,N,Y,30.046,-81.75478
MLS Listing,,Single Family Residential,2277 Setting Sun Way,Green Cove Springs,FL,32043,361990,4,2.5,Cross Creek,2206,,2023,7,164,2,Active,,,https://www.redfin.com/FL/Unknown/2277-Setting-Sun-Way-32043/home/188702195,NEFLMLS,1258954,N,Y,30.038524,-81.736918
MLS Listing,,Single Family Residential,2244 Setting Sun Way,Green Cove Springs,FL,32043,308990,3,2.0,Cross Creek,1655,,2023,7,187,2,Active,,,https://www.redfin.com/FL/Unknown/2244-Setting-Sun-Way-32043/home/188702154,NEFLMLS,1258953,N,Y,30.038524,-81.736918
MLS Listing,,Single Family Residential,2284 Setting Sun Way,Green Cove Springs,FL,32043,354990,4,2.5,Cross Creek,2206,,2023,7,161,2,Active,,,https://www.redfin.com/FL/Unknown/2284-Setting-Sun-Way-32043/home/188702133,NEFLMLS,1258951,N,Y,30.038524,-81.736918
MLS Listing,,Single Family Residential,2360 Oak Stream Dr,Green Cove Springs,FL,32043,375000,4,2.5,Cross Creek,2492,,2021,7,150,2,Active,,,https://www.redfin.com/FL/Green-Cove-Springs/2360-Oak-Stream-Dr-32043/home/176057064,NEFLMLS,1258925,N,Y,30.0325273,-81.7400074
MLS Listing,,Mobile/Manufactured Home,5126 Ravenwood Dr,Green Cove Springs,FL,32043,57000,3,2.0,Walkhill Ranchettes,1248,,1983,8,46,,Active,,,https://www.redfin.com/FL/Green-Cove-Springs/5126-Ravenwood-Dr-32043/home/108731824,NEFLMLS,1258903,N,Y,29.9200919,-81.6526912
MLS Listing,,Vacant Land,4022 Buena Vista Ave,Starke,FL,32091,220000,,,Kingsley Lake Village,,14810,,8,,105,Active,,,https://www.redfin.com/FL/Starke/4022-Buena-Vista-Ave-32091/home/72723633,NEFLMLS,1258892,N,Y,29.98109,-81.996275
MLS Listing,,Single Family Residential,1231 Grove Park Dr,Orange Park,FL,32073,299900,3,2.0,Grove Park,1388,9600,1969,9,216,,Active,,,https://www.redfin.com/FL/Orange-Park/1231-Grove-Park-Dr-32073/home/58744151,NEFLMLS,1258865,N,Y,30.1739069,-81.7176915
MLS Listing,,Single Family Residential,2276 Hidden Waters Dr W,Green Cove Springs,FL,32043,370000,3,,Hidden Waters,2016,,1978,9,184,,Active,,,https://www.redfin.com/FL/Green-Cove-Springs/2276-Hidden-Waters-Dr-W-32043/home/58715322,NEFLMLS,1258860,N,Y,30.0782709,-81.7965149
MLS Listing,,Condo/Co-op,3165 Ravines Rd #3604,Middleburg,FL,32068,239000,2,2.5,The Ravines,1688,,1984,9,142,396,Active,,,https://www.redfin.com/FL/Middleburg/3165-Ravines-Rd-32068/unit-3604/home/62472070,NEFLMLS,1258854,N,Y,30.0623997,-81.8514806
MLS Listing,,Single Family Residential,3023 Central Ct,Middleburg,FL,32068,320000,4,2.0,Metes & Bounds,1384,,2019,9,231,,Active,,,https://www.redfin.com/FL/Middleburg/3023-Central-Ct-32068/home/72723583,NEFLMLS,1257379,N,Y,30.1111261,-81.7884207
MLS Listing,,Single Family Residential,2724 Tyler Ct,Orange Park,FL,32065,535000,5,3.0,Cades Cove,3580,,2006,9,149,,Active,,,https://www.redfin.com/FL/Orange-Park/2724-Tyler-Ct-32065/home/108740908,NEFLMLS,1258278,N,Y,30.1287673,-81.7703922
MLS Listing,,Single Family Residential,1483 Rivers Rd,Green Cove Springs,FL,32043,675000,4,3.0,Travers Grant,3040,,2005,10,222,,Active,,,https://www.redfin.com/FL/Green-Cove-Springs/1483-Rivers-Rd-32043/home/96385172,NEFLMLS,1258840,N,Y,30.0182404,-81.7085623
MLS Listing,,Single Family Residential,1223 Cimmaron Dr,Orange Park,FL,32065,295000,3,2.0,Tanglewood Village,1870,9000,1983,10,158,,Active,,,https://www.redfin.com/FL/Orange-Park/1223-Cimmaron-Dr-32065/home/108734306,NEFLMLS,1258839,N,Y,30.1212797,-81.7874382
MLS Listing,,Single Family Residential,1923 Leap Frog Ln,Middleburg,FL,32068,412990,5,2.0,Pine Ridge,2485,,2010,10,166,85,Active,,,https://www.redfin.com/FL/Middleburg/1923-Leap-Frog-Ln-32068/home/87575204,NEFLMLS,1258834,N,Y,30.1233058,-81.8536619
MLS Listing,,Condo/Co-op,575 Oakleaf Plantation Pkwy #1010,Orange Park,FL,32065,150000,1,1.0,Oakleaf,883,,2007,10,170,240,Active,,,https://www.redfin.com/FL/Orange-Park/575-Oakleaf-Plantation-Pkwy-32065/unit-1010/home/69443531,NEFLMLS,1258818,N,Y,30.1822918,-81.844447
MLS Listing,,Single Family Residential,2054 Farm Way,Middleburg,FL,32068,329900,3,2.0,Orange Park South,1781,,1994,10,185,,Active,,,https://www.redfin.com/FL/Middleburg/2054-Farm-Way-32068/home/62445303,NEFLMLS,1258811,N,Y,30.0916899,-81.7600089
MLS Listing,,Single Family Residential,2696 Cold Stream Ln,Green Cove Springs,FL,32043,465000,4,3.0,Cross Creek,2064,,2021,10,225,8,Active,,,https://www.redfin.com/FL/Green-Cove-Springs/2696-Cold-Stream-Ln-32043/home/174529592,NEFLMLS,1258810,N,Y,30.0379591,-81.7465469
MLS Listing,,Single Family Residential,4158 Old Jennings Rd,Middleburg,FL,32068,525000,3,2.0,Middleburg,1771,,1970,10,296,,Active,,,https://www.redfin.com/FL/Middleburg/4158-Old-Jennings-Rd-32068/home/72718352,NEFLMLS,1258804,N,Y,30.1142719,-81.8806721
MLS Listing,,Single Family Residential,2999 Bent Bow Ln,Middleburg,FL,32068,400000,4,2.5,Woodbridge,2550,,2007,10,157,40,Active,,,https://www.redfin.com/FL/Middleburg/2999-Bent-Bow-Ln-32068/home/105510417,NEFLMLS,1258190,N,Y,30.0931738,-81.7825897
MLS Listing,,Multi-Family (2-4 Unit),1344 Bay Hill Blvd #B,Orange Park,FL,32065,219999,3,2.0,Bayhill,1124,,1987,11,196,,Active,,,https://www.redfin.com/FL/Orange-Park/1344-Bay-Hill-Blvd-32065/unit-B/home/58751758,NEFLMLS,1258761,N,Y,30.1286553,-81.7788681
MLS Listing,,Vacant Land,0 Wharf St,Middleburg,FL,32068,125000,,,Middleburg,,108028,,11,,,Active,,,https://www.redfin.com/FL/Middleburg/Wharf-St-32068/home/108740393,NEFLMLS,1258757,N,Y,30.06675,-81.860056
MLS Listing,,Vacant Land,4449 Bondarenko Rd,Keystone Heights,FL,32656,59900,,,Plantation Farms,,235659,,11,,8,Active,,,https://www.redfin.com/FL/Keystone-Heights/4449-Bondarenko-Rd-32656/home/72718333,NEFLMLS,1256029,N,Y,29.855936,-81.897933
MLS Listing,,Condo/Co-op,164 Governor St #117,Green Cove Springs,FL,32043,249900,1,1.5,Governors Landing,854,,1985,12,293,385,Active,,,https://www.redfin.com/FL/Green-Cove-Springs/164-Governor-St-32043/unit-117/home/58759644,NEFLMLS,1258742,N,Y,30.006141,-81.689745
MLS Listing,,Single Family Residential,3097 Anderson Rd,Green Cove Springs,FL,32043,1500000,3,3.0,Forresters,2904,,1957,12,517,,Active,,,https://www.redfin.com/FL/Green-Cove-Springs/3097-Anderson-Rd-32043/home/72718248,NEFLMLS,1258741,N,Y,30.0326038,-81.6989483
MLS Listing,,Single Family Residential,1957 Quiet Acres Ln,Middleburg,FL,32068,380000,4,2.0,Middleburg,1835,,2023,12,207,,Active,,,https://www.redfin.com/FL/Middleburg/1957-Quiet-Acres-Ln-32068/home/108753938,NEFLMLS,1258733,N,Y,30.092506,-81.909805
MLS Listing,,Single Family Residential,770 Bellshire Dr,Orange Park,FL,32065,313000,3,2.0,Oakleaf Plantation,1452,,2003,12,216,7,Active,,,https://www.redfin.com/FL/Orange-Park/770-Bellshire-Dr-32065/home/62397583,NEFLMLS,1258722,N,Y,30.1788577,-81.8156284
MLS Listing,,Single Family Residential,2580 Ridgecrest Ave,Orange Park,FL,32065,429999,4,2.5,Ridgecrest,2122,,1980,12,203,,Active,,,https://www.redfin.com/FL/Orange-Park/2580-Ridgecrest-Ave-32065/home/108767406,NEFLMLS,1258717,N,Y,30.1475421,-81.7779758
MLS Listing,,Townhouse,547 Ryker Way,Orange Park,FL,32065,269900,3,2.5,Willow Brook,1617,,2016,12,167,132,Active,,,https://www.redfin.com/FL/Orange-Park/547-Ryker-Way-32065/home/72724044,NEFLMLS,1258703,N,Y,30.1734566,-81.8332676
MLS Listing,,Mobile/Manufactured Home,5120 Hattie Nolan Rd,Middleburg,FL,32068,239900,3,2.0,Clay Hill,1512,,1990,12,159,,Active,,,https://www.redfin.com/FL/Middleburg/5120-Hattie-Nolan-Rd-32068/home/108771223,NEFLMLS,1258692,N,Y,30.1212099,-81.9356469
MLS Listing,,Single Family Residential,3111 Lowgap Pl,Green Cove Springs,FL,32043,341900,3,2.0,Rolling Hills,1693,,2023,12,202,10,Active,,,https://www.redfin.com/FL/Green-Cove-Springs/3111-Lowgap-Pl-32043/home/183752597,NEFLMLS,1243855,N,Y,30.032922,-81.788687
MLS Listing,,Single Family Residential,3166 Vine St,Orange Park,FL,32065,299900,3,2.0,Bear Run,1553,,1984,12,193,,Active,,,https://www.redfin.com/FL/Orange-Park/3166-Vine-St-32065/home/58750030,NEFLMLS,1258669,N,Y,30.1297061,-81.8036047
MLS Listing,,Mobile/Manufactured Home,7640 El Dorado Ave,Keystone Heights,FL,32656,299900,3,2.0,Florida Frontier,1944,,1996,12,154,,Active,,,https://www.redfin.com/FL/Keystone-Heights/7640-El-Dorado-Ave-32656/home/108744543,NEFLMLS,1258656,N,Y,29.7841573,-81.9673955
MLS Listing,,Single Family Residential,1526 Quail Wood Ct,Fleming Island,FL,32003,495000,4,2.0,Eagle Harbor,2096,,1994,12,236,5,Active,,,https://www.redfin.com/FL/Fleming-Island/1526-Quail-Wood-Ct-32003/home/108735507,NEFLMLS,1258625,N,Y,30.113887,-81.714041
MLS Listing,,Single Family Residential,409 Parkwood Dr,Orange Park,FL,32073,249900,4,1.5,Meadowbrook,1500,,1960,12,167,,Active,,,https://www.redfin.com/FL/Orange-Park/409-Parkwood-Dr-32073/home/62399913,NEFLMLS,1258623,N,Y,30.1784414,-81.7352412
MLS Listing,,Mobile/Manufactured Home,3077 Thunder Rd,Middleburg,FL,32068,265000,3,2.0,Thunder Road,1344,,1998,13,197,,Active,,,https://www.redfin.com/FL/Middleburg/3077-Thunder-Rd-32068/home/58721671,NEFLMLS,1258591,N,Y,30.0252331,-81.8471319
MLS Listing,,Single Family Residential,3010 Lucille Ln,Middleburg,FL,32068,390000,3,2.5,Pinewood Place,1876,,2022,13,208,42,Active,,,https://www.redfin.com/FL/Middleburg/3010-Lucille-Ln-32068/home/183753096,NEFLMLS,1258574,N,Y,30.113296,-81.7999165
MLS Listing,,Single Family Residential,2350 Halperns Way,Middleburg,FL,32068,362500,3,2.5,Black Creek Park,2091,,1978,13,173,,Active,,,https://www.redfin.com/FL/Middleburg/2350-Halperns-Way-32068/home/72718909,NEFLMLS,1258563,N,Y,30.057421,-81.878923
MLS Listing,,Single Family Residential,113 Suzanne Ave,Orange Park,FL,32073,229000,4,2.0,Saunderlee,1630,11700,1958,13,140,,Active,,,https://www.redfin.com/FL/Orange-Park/113-Suzanne-Ave-32073/home/108747647,NEFLMLS,1258522,N,Y,30.1497209,-81.7474445
MLS Listing,,Single Family Residential,2011 Salt Myrtle Ln,Fleming Island,FL,32003,1700000,6,4.0,Pace Island,4206,,1994,13,404,140,Active,,,https://www.redfin.com/FL/Fleming-Island/2011-Salt-Myrtle-Ln-32003/home/108758361,NEFLMLS,1258520,N,Y,30.129775,-81.721994
MLS Listing,,Townhouse,3750 Silver Bluff Blvd #802,Orange Park,FL,32065,256000,3,2.5,The Cottages At Oakleaf,1681,,2004,13,152,260,Active,,,https://www.redfin.com/FL/Orange-Park/3750-Silver-Bluff-Blvd-32065/unit-802/home/108770596,NEFLMLS,1258506,N,Y,30.1771675,-81.8275413
MLS Listing,,Single Family Residential,3462 Belen Ct,Middleburg,FL,32068,335000,4,2.0,Cameron Oaks,1861,,2021,13,180,46,Active,,,https://www.redfin.com/FL/Middleburg/3462-Belen-Ct-32068/home/177910013,NEFLMLS,1258465,N,Y,30.1561,-81.821941
MLS Listing,,Single Family Residential,409 Libra Ln,Orange Park,FL,32073,230000,3,2.0,Orange Park,1041,,1973,13,221,,Active,,,https://www.redfin.com/FL/Orange-Park/409-Libra-Ln-32073/home/72713764,NEFLMLS,1258462,N,Y,30.1761836,-81.7594534
MLS Listing,,Single Family Residential,2250 Setting Sun Way,Green Cove Springs,FL,32043,322990,4,2.0,Cross Creek,1698,,2023,13,190,2,Active,,,https://www.redfin.com/FL/Unknown/2250-Setting-Sun-Way-32043/home/188647500,NEFLMLS,1258459,N,Y,30.038524,-81.736918
MLS Listing,,Single Family Residential,6836 Womans Club Drive Dr,Keystone Heights,FL,32656,399000,3,2.0,Metes & Bounds,1809,,1996,13,221,,Active,,,https://www.redfin.com/FL/Keystone-Heights/6836-Womans-Club-Dr-32656/home/62463080,NEFLMLS,1258454,N,Y,29.7779575,-82.0453321
MLS Listing,,Townhouse,749 Grover Ln,Orange Park,FL,32065,265000,3,2.5,Willowbrook,1633,,2017,13,162,125,Active,,,https://www.redfin.com/FL/Orange-Park/749-Grover-Ln-32065/home/72724018,NEFLMLS,1258449,N,Y,30.1730079,-81.8331989
MLS Listing,,Single Family Residential,1499 Lantern Light Trl,Middleburg,FL,32068,315000,3,2.0,Pine Ridge,1653,,2015,14,191,7,Active,,,https://www.redfin.com/FL/Middleburg/1499-Lantern-Light-Trl-32068/home/101829784,NEFLMLS,1258366,N,Y,30.12312,-81.8503116
MLS Listing,,Single Family Residential,924 Rooster Hollow Way,Middleburg,FL,32068,519840,4,3.5,Double Branch,2782,6000,2023,14,187,38,Active,,,https://www.redfin.com/FL/Middleburg/924-Rooster-Hollow-WAY-32068/home/188050712,NEFLMLS,1258356,N,Y,30.15517,-81.818686
MLS Listing,,Mobile/Manufactured Home,2077 Candlewood Ct,Middleburg,FL,32068,245000,3,2.0,Metes & Bounds,,,1997,14,,,Active,,,https://www.redfin.com/FL/Middleburg/2077-Candlewood-Ct-32068/home/76889796,NEFLMLS,1258342,N,Y,30.087182,-81.919769
MLS Listing,,Single Family Residential,3001 Nautilus Rd,Middleburg,FL,32068,510000,4,2.0,Doctors Landing,2913,12768,1989,14,175,17,Active,,,https://www.redfin.com/FL/Middleburg/3001-Nautilus-Rd-32068/home/58716458,NEFLMLS,1257516,N,Y,30.1023865,-81.7583851
MLS Listing,,Single Family Residential,1055 Southern Hills Dr,Orange Park,FL,32065,515000,4,2.0,Southern Landing,2398,,2011,14,215,4,Active,,,https://www.redfin.com/FL/Orange-Park/1055-Southern-Hills-Dr-32065/home/62448436,NEFLMLS,1258312,N,Y,30.1506008,-81.8614076
MLS Listing,,Single Family Residential,4502 Junction Dr,Middleburg,FL,32068,360000,3,2.0,Old Jennings Junctio,1576,,1991,14,228,,Active,,,https://www.redfin.com/FL/Middleburg/4502-Junction-Dr-32068/home/108757728,NEFLMLS,1258309,N,Y,30.1149548,-81.8822933
MLS Listing,,Single Family Residential,1989 Sussex Dr E,Orange Park,FL,32073,349900,4,2.0,Seven Oaks,2081,10800,1981,15,168,,Active,,,https://www.redfin.com/FL/Orange-Park/1989-Sussex-Dr-E-32073/home/58729279,NEFLMLS,1258297,N,Y,30.1546763,-81.7386259
MLS Listing,,Single Family Residential,813 Cypress Ave,Green Cove Springs,FL,32043,255000,3,2.0,Green Cove,1316,,1955,15,194,,Active,,,https://www.redfin.com/FL/Green-Cove-Springs/813-N-Cypress-Ave-32043/home/108730241,NEFLMLS,1258292,N,Y,30.002875,-81.689774
MLS Listing,,Mobile/Manufactured Home,2260 Reed Ct,Middleburg,FL,32068,249000,4,2.0,Jacksonville South,1560,,2003,15,160,,Active,,,https://www.redfin.com/FL/Middleburg/2260-Reed-Ct-32068/home/62446090,NEFLMLS,1258289,N,Y,30.0596491,-81.9288646
MLS Listing,,Single Family Residential,2254 Marcel Dr,Orange Park,FL,32073,369000,3,2.0,Chateau Village,1629,,1969,15,227,,Active,,,https://www.redfin.com/FL/Orange-Park/2254-Marcel-Dr-32073/home/72720475,NEFLMLS,1258286,N,Y,30.1614672,-81.7185466
MLS Listing,,Multi-Family (2-4 Unit),2624 Sunnyside Dr,Orange Park,FL,32073,325000,4,2.0,Lakeside Estates,1740,,1980,16,187,,Active,,,https://www.redfin.com/FL/Orange-Park/2624-Sunnyside-Dr-32073/home/146626777,NEFLMLS,1258266,N,Y,30.1517222,-81.7337237
MLS Listing,,Multi-Family (2-4 Unit),2636 Sunnyside Dr,Orange Park,FL,32073,325000,4,2.0,Lakeside Estates,1740,,1980,16,187,,Active,,,https://www.redfin.com/FL/Orange-Park/2636-Sunnyside-Dr-32073/home/188612162,NEFLMLS,1258267,N,Y,30.1513546,-81.7333017
MLS Listing,,Single Family Residential,1224 River Rd,Orange Park,FL,32073,1289000,5,5.0,ORANGE PARK,4794,32670,1956,16,269,,Active,,,https://www.redfin.com/FL/Orange-Park/1224-River-Rd-32073/home/72720680,Stellar MLS as Distributed by MLS Grid,U8221340,N,Y,30.174571,-81.6981275
MLS Listing,,Single Family Residential,2059 Tanager Dr,Orange Park,FL,32073,285000,3,2.0,Woodside,1538,,1988,16,185,27,Active,,,https://www.redfin.com/FL/Orange-Park/2059-Tanager-Dr-32073/home/108729358,NEFLMLS,1258257,N,Y,30.1897348,-81.7229932
MLS Listing,,Single Family Residential,3017 Tower Oaks Dr,Orange Park,FL,32065,584999,5,3.0,Oakleaf Plantation,3820,,2005,17,153,7,Active,,,https://www.redfin.com/FL/Orange-Park/3017-Tower-Oaks-Dr-32065/home/62396349,NEFLMLS,1258215,N,Y,30.1668871,-81.8390938
MLS Listing,,Townhouse,575 Oakleaf Plantation Pkwy #208,Orange Park,FL,32065,240000,2,2.5,Jennings Point,1110,,2021,17,216,161,Active,,,https://www.redfin.com/FL/Orange-Park/575-Oakleaf-Plantation-Pkwy-32065/unit-208/home/177909913,NEFLMLS,1258173,N,Y,30.1822918,-81.844447
MLS Listing,,Vacant Land,5779 Hogarth Rd,Green Cove Springs,FL,32043,120000,,,Metes & Bounds,,108900,,17,,,Active,,,https://www.redfin.com/FL/Green-Cove-Springs/5779-Hogarth-Rd-32043/home/108772008,NEFLMLS,1258157,N,Y,29.870413,-81.794731
MLS Listing,,Townhouse,4326 Leeward Breeze Lp,Middleburg,FL,32068,299894,3,2.5,Long Bay,1782,,2023,17,168,200,Active,,,https://www.redfin.com/FL/Middleburg/4326-Leeward-Breeze-LOOP-32068/home/184620309,NEFLMLS,1258150,N,Y,30.0842,-81.8642
MLS Listing,,Single Family Residential,555 Heath Point Ct,Orange Park,FL,32065,399900,4,3.0,Oakleaf Plantation,2380,,2007,17,168,10,Active,,,https://www.redfin.com/FL/Orange-Park/555-Heath-Point-Ct-32065/home/58750596,NEFLMLS,1258134,N,Y,30.159367,-81.8385022
MLS Listing,,Vacant Land,689 Ash St,Orange Park,FL,32073,75000,,,Orange Park,,16988,,17,,,Active,,,https://www.redfin.com/FL/Orange-Park/689-Ash-St-32073/home/181494177,NEFLMLS,1258117,N,Y,30.1831236,-81.7067652
MLS Listing,,Single Family Residential,6500 Immokalee Rd,Keystone Heights,FL,32656,444000,3,2.0,METES & BOUNDS,1953,19994,2004,17,227,,Active,,,https://www.redfin.com/FL/Keystone-Heights/6500-Immokalee-Rd-32656/home/58715154,Stellar MLS as Distributed by MLS Grid,GC517637,N,Y,29.7998317,-82.0199162
MLS Listing,,Mobile/Manufactured Home,5350 Widgeon Ct,Middleburg,FL,32068,100000,4,2.0,Duck Pond,1350,,1984,17,74,,Active,,,https://www.redfin.com/FL/Middleburg/5350-Widgeon-Ct-32068/home/108731890,NEFLMLS,1254362,N,Y,30.0898598,-81.9492408
MLS Listing,,Vacant Land,1194 Lake Asbury Dr,Green Cove Springs,FL,32043,339000,,,Lake Asbury,,124146,,17,,,Active,,,https://www.redfin.com/FL/Green-Cove-Springs/1194-Lake-Asbury-Dr-32043/home/108769177,NEFLMLS,1258099,N,Y,30.057504,-81.8256509
MLS Listing,,Single Family Residential,2200 Pebble Point Dr,Green Cove Springs,FL,32043,369000,4,2.5,Magnolia West,2298,,2019,17,161,7,Active,,,https://www.redfin.com/FL/Green-Cove-Springs/2200-Pebble-Point-Dr-32043/home/168003330,NEFLMLS,1258075,N,Y,30.0078629,-81.7256439
MLS Listing,,Single Family Residential,4698 Pinegate Rd,Fleming Island,FL,32003,380000,3,2.0,Pinegate,1714,,1977,17,222,,Active,,,https://www.redfin.com/FL/Fleming-Island/4698-Pinegate-Rd-32003/home/108736267,NEFLMLS,1258045,N,Y,30.113294,-81.698384
MLS Listing,,Single Family Residential,2447 Cold Stream Ln,Green Cove Springs,FL,32043,329900,3,2.0,Cross Creek,1714,,2019,17,192,8,Active,,,https://www.redfin.com/FL/Green-Cove-Springs/2447-Cold-Stream-Ln-32043/home/170392937,NEFLMLS,1257250,N,Y,30.042827,-81.752118
MLS Listing,,Single Family Residential,2452 Longwood St,Orange Park,FL,32065,444900,3,2.0,Ridgecrest,1827,,1986,17,244,4,Active,,,https://www.redfin.com/FL/Orange-Park/2452-Longwood-St-32065/home/108768108,NEFLMLS,1257138,N,Y,30.1445032,-81.7677432
MLS Listing,,Vacant Land,1359 Us-301,Lawtey,FL,32058,98000,,,Metes & Bounds,,120661,,18,,,Active,,,https://www.redfin.com/FL/Lawtey/1359-US-Highway-301-N-32058/home/72721325,NEFLMLS,1258028,N,Y,30.1145854,-82.0466942
MLS Listing,,Single Family Residential,3016 Havengate Dr,Green Cove Springs,FL,32043,415000,4,2.0,Glen Haven,2096,,2004,18,198,21,Active,,,https://www.redfin.com/FL/Green-Cove-Springs/3016-Havengate-Dr-32043/home/108769109,NEFLMLS,1257986,N,Y,30.0478277,-81.8017469
MLS Listing,,Single Family Residential,1900 Salt Creek Dr,Fleming Island,FL,32003,650000,4,4.0,Salt Creek,3638,,2012,18,179,10,Active,,,https://www.redfin.com/FL/Fleming-Island/1900-Salt-Creek-Dr-32003/home/62477860,NEFLMLS,1257444,N,Y,30.0909078,-81.7294274
MLS Listing,,Single Family Residential,3139 Raven Trce,Green Cove Springs,FL,32043,424394,4,2.5,Granary Park Phase 1,2358,6000,2023,18,180,8,Active,,,https://www.redfin.com/FL/Green-Cove-Springs/3139-RAVEN-TRCE-32043/home/188590725,NEFLMLS,1257933,N,Y,30.044875,-81.760896
MLS Listing,,Single Family Residential,3108 Raven Trce,Green Cove Springs,FL,32043,369894,4,3.0,Granary Park Phase 1,2028,6000,2023,18,182,8,Active,,,https://www.redfin.com/FL/Green-Cove-Springs/3108-Raven-Trc-32043/home/187661864,NEFLMLS,1257923,N,Y,30.0461,-81.7714
MLS Listing,,Single Family Residential,2620 Halperns Way,Middleburg,FL,32068,479000,3,2.5,Black Creek Park,2860,42750,1983,18,167,,Active,,,https://www.redfin.com/FL/Middleburg/2620-Halperns-Way-32068/home/72719428,NEFLMLS,1257922,N,Y,30.0400866,-81.8802668
MLS Listing,,Single Family Residential,3159 Raven Trce,Green Cove Springs,FL,32043,367994,3,2.5,Granary Park Phase 1,1950,4800,2023,18,189,8,Active,,,https://www.redfin.com/FL/Green-Cove-Springs/3159-Raven-Trc-32043/home/187762825,NEFLMLS,1257919,N,Y,30.0461,-81.7714
MLS Listing,,Single Family Residential,646 Briar View Dr,Orange Park,FL,32065,375000,4,2.5,Oakleaf Plantation,2299,,2009,18,163,9,Active,,,https://www.redfin.com/FL/Orange-Park/646-Briar-View-Dr-32065/home/62417068,NEFLMLS,1257908,N,Y,30.1609235,-81.8426016
MLS Listing,,Single Family Residential,3422 Oglebay Dr,Green Cove Springs,FL,32043,474900,3,2.0,Magnolia Point Golf,2048,,2016,18,232,115,Active,,,https://www.redfin.com/FL/Green-Cove-Springs/3422-Oglebay-Dr-32043/home/108238529,NEFLMLS,1257891,N,Y,30.0086796,-81.7229504
MLS Listing,,Single Family Residential,1610 Chelsea Pl,Orange Park,FL,32073,397000,3,2.0,Village Green,1792,,1978,18,222,,Active,,,https://www.redfin.com/FL/Orange-Park/1610-Chelsea-Pl-32073/home/108745695,NEFLMLS,1257867,N,Y,30.1626476,-81.728722
MLS Listing,,Single Family Residential,2974 Florence Dr,Middleburg,FL,32068,530000,4,3.5,Middleburg,2413,,2006,18,220,,Active,,,https://www.redfin.com/FL/Middleburg/2974-Florence-Dr-32068/home/58745179,NEFLMLS,1257459,N,Y,30.0412856,-81.8329067
MLS Listing,,Single Family Residential,1242 Foxmeadow Trl,Middleburg,FL,32068,358444,3,2.0,Foxmeadow,1465,,1976,18,245,,Active,,,https://www.redfin.com/FL/Middleburg/1242-Foxmeadow-Trl-32068/home/108755164,NEFLMLS,1256185,N,Y,30.1185705,-81.8770031
MLS Listing,,Single Family Residential,3242 Hidden Meadows Ct,Green Cove Springs,FL,32043,315000,3,2.0,Rolling Hills,1614,,2017,19,195,10,Active,,,https://www.redfin.com/FL/Green-Cove-Springs/3242-Hidden-Meadows-Ct-32043/home/72724149,NEFLMLS,1257832,N,Y,30.0330217,-81.7821839
MLS Listing,,Single Family Residential,936 Oakland Hills Ave,Middleburg,FL,32068,635000,5,3.0,Eagle Landing,3073,,2021,19,207,6,Active,,,https://www.redfin.com/FL/Middleburg/936-Oakland-Hills-Ave-32068/home/170390255,NEFLMLS,1257825,N,Y,30.15126,-81.846714
MLS Listing,,Single Family Residential,1866 Sentry Oak Ct,Fleming Island,FL,32003,590000,4,2.5,Margarets Walk,2627,,2002,19,225,53,Active,,,https://www.redfin.com/FL/Fleming-Island/1866-Sentry-Oak-Ct-32003/home/62446980,NEFLMLS,1257810,N,Y,30.0549858,-81.7055688
MLS Listing,,Single Family Residential,3729 Mill View Ct,Orange Park,FL,32065,395000,4,2.0,Oakleaf Plantation,2234,,2005,19,177,4,Active,,,https://www.redfin.com/FL/Orange-Park/3729-Mill-View-Ct-32065/home/108252664,NEFLMLS,1257767,N,Y,30.1653159,-81.8411923
MLS Listing,,Vacant Land,7186 Purdue St,Keystone Heights,FL,32656,19950,,,Highridge Estates,,14810,,19,,,Active,,,https://www.redfin.com/FL/Keystone-Heights/7186-Purdue-St-32656/home/108733910,NEFLMLS,1257757,N,Y,29.786878,-82.0166969
MLS Listing,,Single Family Residential,1550 Bay Harbor Dr,Fleming Island,FL,32003,369000,4,2.0,Bay Harbor,1768,,2002,19,209,33,Active,,,https://www.redfin.com/FL/Fleming-Island/1550-Bay-Harbor-Dr-32003/home/108749801,NEFLMLS,1257725,N,Y,30.106624,-81.739151
MLS Listing,,Single Family Residential,3080 Hickory Glen Dr,Orange Park,FL,32065,400000,4,2.0,Hickory Glen,1982,,2001,19,202,13,Active,,,https://www.redfin.com/FL/Orange-Park/3080-Hickory-Glen-Dr-32065/home/101618228,NEFLMLS,1257703,N,Y,30.1485415,-81.7849432
MLS Listing,,Single Family Residential,933 Raindrop Ln,Middleburg,FL,32068,319999,3,2.0,Two Creeks,1472,,2008,19,217,7,Active,,,https://www.redfin.com/FL/Middleburg/933-Raindrop-Ln-32068/home/108749601,NEFLMLS,1257696,N,Y,30.1300174,-81.8506317
MLS Listing,,Single Family Residential,620 Morning Mist Way,Orange Park,FL,32073,309990,3,2.0,Savannah Glen,1257,,2000,19,247,15,Active,,,https://www.redfin.com/FL/Orange-Park/620-Morning-Mist-Way-32073/home/62448718,NEFLMLS,1257689,N,Y,30.1770363,-81.8050753
MLS Listing,,Single Family Residential,5338 County Road 214,Keystone Heights,FL,32656,314900,3,2.0,METES AND BOUNDS,1584,31842,1987,19,199,,Active,,,https://www.redfin.com/FL/Keystone-Heights/5338-County-Road-214-32656/home/107573330,Stellar MLS as Distributed by MLS Grid,GC517426,N,Y,29.7834859,-81.9482605
MLS Listing,,Single Family Residential,451 Clermont Dr W,Orange Park,FL,32073,240000,3,2.0,Bellair,1147,,1961,20,209,,Active,,,https://www.redfin.com/FL/Orange-Park/451-Clermont-Dr-W-32073/home/72714211,NEFLMLS,1257637,N,Y,30.1725998,-81.7430324
MLS Listing,,Single Family Residential,2285 Club Lake Dr,Orange Park,FL,32065,539000,5,3.0,Oakleaf Plantation,2670,,2015,20,202,4,Active,,,https://www.redfin.com/FL/Orange-Park/2285-Club-Lake-Dr-32065/home/72722355,NEFLMLS,1257609,N,Y,30.1470164,-81.8599566
MLS Listing,,Vacant Land,7157 Wesleyan Rd,Keystone Heights,FL,32656,13000,,,Highridge Estates,,14810,,21,,,Active,,,https://www.redfin.com/FL/Keystone-Heights/7157-Wesleyan-Rd-32656/home/108758971,NEFLMLS,1257506,N,Y,29.788731,-82.010107
MLS Listing,,Single Family Residential,4181 Eagle Landing Pkwy,Orange Park,FL,32065,595000,5,4.0,Eagle Landing,4049,,2010,21,147,4,Active,,,https://www.redfin.com/FL/Orange-Park/4181-Eagle-Landing-Pkwy-32065/home/62432748,NEFLMLS,1257408,N,Y,30.15993,-81.86448
MLS Listing,,Single Family Residential,2653 Royal Pointe Dr,Green Cove Springs,FL,32043,410000,4,3.0,Royal Pointe,2118,,2011,21,194,17,Active,,,https://www.redfin.com/FL/Green-Cove-Springs/2653-Royal-Pointe-Dr-32043/home/62420412,NEFLMLS,1257385,N,Y,30.0305727,-81.8046937
MLS Listing,,Single Family Residential,1657 Hollow Glen Dr,Middleburg,FL,32068,355000,3,2.0,Doctors Inlet Reserve,1310,,2006,22,271,39,Active,,,https://www.redfin.com/FL/Middleburg/1657-Hollow-Glen-Dr-32068/home/108762406,NEFLMLS,1256675,N,Y,30.0896459,-81.7659913
MLS Listing,,Single Family Residential,506 Chinkapin Ct,Green Cove Springs,FL,32043,439900,4,2.0,Five Oaks,2532,,2005,22,174,40,Active,,,https://www.redfin.com/FL/Green-Cove-Springs/506-Chinkapin-Ct-32043/home/108758359,NEFLMLS,1257332,N,Y,30.0248803,-81.7015489
MLS Listing,,Single Family Residential,1994 Apopka Dr,Out Of Area,FL,32068,335000,3,2.0,Orange Park South,1458,19166,1992,22,230,,Active,,,https://www.redfin.com/FL/Middleburg/1994-Apopka-Dr-32068/home/58718860,Stellar MLS as Distributed by MLS Grid,NS1077837,N,Y,30.0964343,-81.7599235
MLS Listing,,Single Family Residential,2448 Country Side Dr,Fleming Island,FL,32003,625000,5,3.5,Eagle Harbor,2902,,2005,23,215,10,Active,,,https://www.redfin.com/FL/Fleming-Island/2448-Country-Side-Dr-32003/home/58712569,NEFLMLS,1257267,N,Y,30.0871249,-81.7309023
MLS Listing,,Single Family Residential,3522 Saddle Ct,Orange Park,FL,32065,530000,5,4.0,Silver Leaf,2904,14811,2005,23,183,165,Active,,,https://www.redfin.com/FL/Orange-Park/3522-Saddle-Ct-32065/home/108731415,NEFLMLS,1257253,N,Y,30.183991,-81.8250421
MLS Listing,,Mobile/Manufactured Home,7556 Osceola Ave,Keystone Heights,FL,32656,235000,4,2.0,Big Tree Lakes,2052,,1999,23,115,,Active,,,https://www.redfin.com/FL/Keystone-Heights/7556-Osceola-Ave-32656/home/62414086,NEFLMLS,1257240,N,Y,29.7967859,-81.9652649
MLS Listing,,Single Family Residential,2070 Cornell Rd,Middleburg,FL,32068,650000,4,2.5,Black Creek Hills,4252,,1997,24,153,,Active,,,https://www.redfin.com/FL/Middleburg/2070-Cornell-Rd-32068/home/58711105,NEFLMLS,1257215,N,Y,30.0741988,-81.8588684
MLS Listing,,Single Family Residential,2356 Open Breeze,Green Cove Springs,FL,32043,409900,4,2.0,Asbury Plantation,2062,,2014,24,199,71,Active,,,https://www.redfin.com/FL/Green-Cove-Springs/2356-Open-Breeze-Ct-32043/home/58753952,NEFLMLS,1257192,N,Y,30.0549239,-81.8062738
MLS Listing,,Single Family Residential,221 SW Grove St,Keystone Heights,FL,32656,208000,3,2.0,Lakeview Highlands,1826,,1972,24,114,,Active,,,https://www.redfin.com/FL/Keystone-Heights/221-SW-Grove-St-32656/home/108769047,NEFLMLS,1256791,N,Y,29.7751592,-82.03767
MLS Listing,,Single Family Residential,4545 Saddlehorn Trl,Middleburg,FL,32068,625000,3,2.0,Foxmeadow,1778,,1994,24,352,,Active,,,https://www.redfin.com/FL/Middleburg/4545-Saddlehorn-Trl-32068/home/80152331,NEFLMLS,1254478,N,Y,30.1385225,-81.8779417
MLS Listing,,Single Family Residential,564 Cody Dr,Orange Park,FL,32073,324900,4,2.0,Bellair West,2045,,1972,24,159,,Active,,,https://www.redfin.com/FL/Orange-Park/564-Cody-Dr-32073/home/62437595,NEFLMLS,1257115,N,Y,30.1708976,-81.7501798
MLS Listing,,Single Family Residential,5414 Harden Ave,Orange Park,FL,32065,375000,5,3.0,Lakeside Estates,2443,,1973,24,153,,Active,,,https://www.redfin.com/FL/Orange-Park/5414-Harden-Ave-32065/home/80148460,NEFLMLS,1257103,N,Y,30.1304278,-81.7682986
MLS Listing,,Single Family Residential,3184 Lowgap Pl,Green Cove Springs,FL,32043,362900,4,2.0,Rolling Hills,1844,,2023,24,197,10,Active,,,https://www.redfin.com/FL/Green-Cove-Springs/3184-Lowgap-Pl-32043/home/188533553,NEFLMLS,1257092,N,Y,30.0340982,-81.7883506
MLS Listing,,Single Family Residential,3180 Lowgap Pl,Green Cove Springs,FL,32043,332900,3,2.5,Rolling Hills,1536,,2023,24,217,10,Active,,,https://www.redfin.com/FL/Green-Cove-Springs/3180-Lowgap-Pl-32043/home/188533359,NEFLMLS,1257088,N,Y,30.0340982,-81.7883506
MLS Listing,,Single Family Residential,6018 Elmhurst Ln,Keystone Heights,FL,32656,189900,3,1.0,Metes & Bounds,960,,1987,24,198,,Active,,,https://www.redfin.com/FL/Keystone-Heights/6018-Elmhurst-Ln-32656/home/80148589,NEFLMLS,1257084,N,Y,29.7951761,-81.9929258
MLS Listing,,Mobile/Manufactured Home,5226 Chicory Cir,Middleburg,FL,32068,185900,2,2.0,Black Creek Park,1216,,1995,24,153,,Active,,,https://www.redfin.com/FL/Middleburg/5226-Chicory-Cir-32068/home/108745217,NEFLMLS,1257078,N,Y,30.0270512,-81.9235671
MLS Listing,,Single Family Residential,1839 Hickory Trace Dr,Fleming Island,FL,32003,575000,5,4.0,Fleming Island Plant,3524,,2002,24,163,56,Active,,,https://www.redfin.com/FL/Fleming-Island/1839-Hickory-Trace-Dr-32003/home/62438503,NEFLMLS,1257072,N,Y,30.066812,-81.7196797
MLS Listing,,Vacant Land,5495 Laredo St,Keystone Heights,FL,32656,120000,,,Florida Frontier,,45302,,24,,,Active,,,https://www.redfin.com/FL/Keystone-Heights/5495-Laredo-St-32656/home/80150589,NEFLMLS,1257062,N,Y,29.785473,-81.95441
MLS Listing,,Townhouse,3740 Creswick Cir #A,Orange Park,FL,32065,305000,3,2.5,Briar Oaks Townhomes,1439,,2005,24,212,138,Active,,,https://www.redfin.com/FL/Orange-Park/3740-Creswick-Cir-32065/unit-A/home/173870267,NEFLMLS,1256654,N,Y,30.175515,-81.846106
MLS Listing,,Single Family Residential,1930 Cogdill Trce,Middleburg,FL,32068,399000,4,3.0,Laurel Oaks,2046,,2021,24,195,51,Active,,,https://www.redfin.com/FL/Middleburg/1930-Cogdill-Trce-32068/home/175592451,NEFLMLS,1256807,N,Y,30.104002,-81.780749
MLS Listing,,Single Family Residential,432 Branscomb Rd,Green Cove Springs,FL,32043,1049000,5,4.0,Lake Asbury,3880,,1987,24,270,,Active,,,https://www.redfin.com/FL/Green-Cove-Springs/432-Branscomb-Rd-32043/home/58716282,NEFLMLS,1256851,N,Y,30.0489088,-81.8233969
MLS Listing,,Single Family Residential,584 William Paca St,Orange Park,FL,32073,299900,3,2.0,Heritage Hills,1322,,1978,24,227,,Active,,,https://www.redfin.com/FL/Orange-Park/584-William-Paca-St-32073/home/102074572,NEFLMLS,1256612,N,Y,30.1563822,-81.7537794
MLS Listing,,Single Family Residential,3269 Little Fawn Ln,Green Cove Springs,FL,32043,315000,3,2.0,Cross Creek,1402,,2021,25,225,4,Active,,,https://www.redfin.com/FL/Green-Cove-Springs/3269-Little-Fawn-Ln-32043/home/176647332,NEFLMLS,1256990,N,Y,30.0327352,-81.738012
MLS Listing,,Single Family Residential,182 Cargo Way,Keystone Heights,FL,32656,399900,3,2.0,Pinecrest,1346,,1955,25,297,,Active,,,https://www.redfin.com/FL/Keystone-Heights/182-Cargo-Way-32656/home/62459279,NEFLMLS,1256973,N,Y,29.7884395,-82.0306456
MLS Listing,,Vacant Land,4124 Scenic Dr,Middleburg,FL,32068,67000,,,Gnann & Canova,,54014,,25,,,Active,,,https://www.redfin.com/FL/Middleburg/4124-Scenic-Dr-32068/home/80148785,NEFLMLS,1256865,N,Y,30.0775793,-81.8747205
MLS Listing,,Vacant Land,2044 Cornell Rd,Middleburg,FL,32068,124997,,,Black Creek Hills,,9583,,25,,,Active,,,https://www.redfin.com/FL/Middleburg/2044-Cornell-Rd-32068/home/108732964,NEFLMLS,1256829,N,Y,30.074546,-81.85723
MLS Listing,,Townhouse,1540 Vineland Cir #B,Fleming Island,FL,32003,260000,3,2.5,Fleming Island Plant,1664,,2004,25,156,280,Active,,,https://www.redfin.com/FL/Fleming-Island/1540-Vineland-Cir-32003/unit-B/home/108758637,NEFLMLS,1255786,N,Y,30.0668535,-81.7143199
MLS Listing,,Vacant Land,6219 Emory Ave,Keystone Heights,FL,32656,6900,,,Highridge Estates,,15507,,26,,,Active,,,https://www.redfin.com/FL/Keystone-Heights/6219-Emory-Ave-32656/home/108730542,Beaches MLS,RX-10934366,N,Y,29.785158,-82.0041509
MLS Listing,,Townhouse,452 Running Woods St,Orange Park,FL,32065,225000,2,2.5,Towering Oaks,1109,,2023,26,203,130,Active,,,https://www.redfin.com/FL/Orange-Park/452-Running-Woods-St-32065/home/180254654,NEFLMLS,1256666,N,Y,30.175946,-81.84661
MLS Listing,,Condo/Co-op,2099 Winterbourne #308,Orange Park,FL,32073,549000,3,2.0,Club Continental,1832,,1986,26,300,575,Active,,,https://www.redfin.com/FL/Orange-Park/2099-Winterbourne-E-32073/unit-308/home/108748841,NEFLMLS,1256660,N,Y,30.1648678,-81.6955186
MLS Listing,,Single Family Residential,3684 Main St,Middleburg,FL,32068,869000,3,2.5,Hunters,2012,,2012,26,432,,Active,,,https://www.redfin.com/FL/Middleburg/3684-Main-St-32068/home/58733765,NEFLMLS,1256635,N,Y,30.0736301,-81.8446563
MLS Listing,,Vacant Land,5532 Coronado St,Keystone Heights,FL,32656,35000,,,Big Tree Lakes,,44431,,27,,,Active,,,https://www.redfin.com/FL/Keystone-Heights/5532-Coronado-St-32656/home/108763811,NEFLMLS,1256597,N,Y,29.795069,-81.9624149
MLS Listing,,Single Family Residential,1827 Hollow Glen Dr,Middleburg,FL,32068,368000,4,2.0,Barrington Estates,2274,,2006,27,162,39,Active,,,https://www.redfin.com/FL/Middleburg/1827-Hollow-Glen-Dr-32068/home/108763632,NEFLMLS,1256593,N,Y,30.0887232,-81.7659272
MLS Listing,,Single Family Residential,1830 Cogdill Trce,Middleburg,FL,32068,395000,4,3.0,Laurel Oaks,1879,5760,2022,27,210,60,Active,,,https://www.redfin.com/FL/Middleburg/1830-Cogdill-Trce-32068/home/177907240,NEFLMLS,1256563,N,Y,30.10128,-81.7817717
MLS Listing,,Single Family Residential,994 Lakeridge Dr Dr,Orange Park,FL,32065,355000,3,2.0,Fox Ridge,1984,,1988,27,179,,Active,,,https://www.redfin.com/FL/Orange-Park/994-Lakeridge-Dr-32065/home/108748110,NEFLMLS,1256561,N,Y,30.148956,-81.7794497
MLS Listing,,Single Family Residential,3541 Cunningham Rd,Orange Park,FL,32065,399990,4,2.0,Waterford,1800,,2023,27,222,72,Active,,,https://www.redfin.com/FL/Orange-Park/3541-Cunningham-Rd-32065/home/183750885,NEFLMLS,1256557,N,Y,30.16789,-81.816939
MLS Listing,,Single Family Residential,3535 Cunningham Rd,Orange Park,FL,32065,431990,4,3.0,Waterford,2070,,2023,27,209,72,Active,,,https://www.redfin.com/FL/Orange-Park/3535-Cunningham-Rd-32065/home/183750884,NEFLMLS,1256555,N,Y,30.167893,-81.817097
MLS Listing,,Single Family Residential,2427 Creekfront Dr,Green Cove Springs,FL,32043,318900,4,2.0,Silver Creek,1828,,2006,27,174,50,Active,,,https://www.redfin.com/FL/Green-Cove-Springs/2427-Creekfront-Dr-32043/home/108740901,NEFLMLS,1256503,N,Y,30.045493,-81.7866266
MLS Listing,,Single Family Residential,2236 Fresco Dr,Middleburg,FL,32068,290000,3,2.5,Rideout Hideaway,1596,,2005,27,182,,Active,,,https://www.redfin.com/FL/Middleburg/2236-Fresco-Dr-32068/home/62436424,NEFLMLS,1256477,N,Y,30.0929503,-81.8136738
MLS Listing,,Vacant Land,5636 Caribbean Cir,Keystone Heights,FL,32656,31500,,,Big Tree Lakes,,48351,,28,,,Active,,,https://www.redfin.com/FL/Keystone-Heights/5636-Caribbean-Cir-32656/home/108732740,NEFLMLS,1256386,N,Y,29.808536,-81.948601
MLS Listing,,Single Family Residential,2935 Bent Bow Ln,Middleburg,FL,32068,330000,3,2.0,Woodbridge,1611,,2007,28,205,38,Active,,,https://www.redfin.com/FL/Middleburg/2935-Bent-Bow-Ln-32068/home/108761480,NEFLMLS,1256392,N,Y,30.0950728,-81.7826579
MLS Listing,,Single Family Residential,1811 Hickory Trace Dr,Fleming Island,FL,32003,795000,5,3.5,Fleming Island Plant,3686,,2003,28,216,56,Active,,,https://www.redfin.com/FL/Fleming-Island/1811-Hickory-Trace-Dr-32003/home/62398266,NEFLMLS,1256373,N,Y,30.0663941,-81.718739
MLS Listing,,Townhouse,3750 Silver Bluff Blvd #1701,Orange Park,FL,32065,265000,3,2.0,The Cottages At Oakleaf,1760,,2005,28,151,260,Active,,,https://www.redfin.com/FL/Orange-Park/3750-Silver-Bluff-Blvd-32065/unit-1701/home/108252473,NEFLMLS,1256371,N,Y,30.1771675,-81.8275413
MLS Listing,,Vacant Land,7456 Caribbean Cir,Keystone Heights,FL,32656,18000,,,Big Tree Lakes,,47916,,28,,,Active,,,https://www.redfin.com/FL/Keystone-Heights/7456-Caribbean-Cir-32656/home/108757284,NEFLMLS,1256361,N,Y,29.805878,-81.950857
MLS Listing,,Single Family Residential,6898 County Road 214,Melrose,FL,32666,180000,3,2.0,MELROSE,1829,19994,1973,28,98,,Active,,,https://www.redfin.com/FL/Melrose/6898-County-Road-214-32666/home/58710365,Stellar MLS as Distributed by MLS Grid,U8220065,N,Y,29.7538386,-82.026899
MLS Listing,,Vacant Land,0 Bay Rd,Orange Park,FL,32065,59000,,,Peoria,,21344,,28,,,Active,,,https://www.redfin.com/FL/Orange-Park/Bay-St-32065/home/108765143,NEFLMLS,1254443,N,Y,30.12203,-81.761837
MLS Listing,,Single Family Residential,2695 Primrose Cir,Middleburg,FL,32068,400000,3,2.0,Middleburg,2000,,2023,28,200,,Active,,,https://www.redfin.com/FL/Middleburg/2695-Primrose-Cir-32068/home/104374219,NEFLMLS,1256309,N,Y,30.035659,-81.902916
MLS Listing,,Mobile/Manufactured Home,8009 Floral Ridge Cir,Keystone Heights,FL,32656,89000,5,4.0,Lake Geneva,1488,,1972,28,60,,Active,,,https://www.redfin.com/FL/Keystone-Heights/8009-Floral-Ridge-Cir-32656/home/108762878,NEFLMLS,1256300,N,Y,29.7663793,-82.0055758
MLS Listing,,Single Family Residential,550 Drysdale Dr,Orange Park,FL,32065,307500,3,2.0,Forest Hammock,1264,,2013,28,243,42,Active,,,https://www.redfin.com/FL/Orange-Park/550-Drysdale-Dr-32065/home/108766053,NEFLMLS,1256222,N,Y,30.1832128,-81.8517414
MLS Listing,,Single Family Residential,788 Riley Rd,Middleburg,FL,32068,318000,3,2.0,Cameron Oaks,1556,,2021,28,204,46,Active,,,https://www.redfin.com/FL/Middleburg/788-Riley-Rd-32068/home/174526569,NEFLMLS,1255381,N,Y,30.1559224,-81.8193403
MLS Listing,,Single Family Residential,355 Hepburn Rd,Orange Park,FL,32065,363900,3,2.0,Forest Hammock,2121,,2017,28,172,48,Active,,,https://www.redfin.com/FL/Orange-Park/355-Hepburn-Rd-32065/home/160993088,NEFLMLS,1255299,N,Y,30.1834159,-81.8470892
MLS Listing,,Vacant Land,5589 Acadia St,Keystone Heights,FL,32656,30000,,,Big Tree Lakes,,47916,,30,,,Active,,,https://www.redfin.com/FL/Keystone-Heights/5589-Acadia-St-32656/home/108753527,NEFLMLS,1256238,N,Y,29.801793,-81.968832
MLS Listing,,Condo/Co-op,575 Oakleaf Plantation Pkwy #1101,Orange Park,FL,32065,205000,2,2.0,Jennings Point,1049,,2007,30,195,236,Active,,,https://www.redfin.com/FL/Orange-Park/575-Oakleaf-Plantation-Pkwy-32065/unit-1101/home/108740407,NEFLMLS,1256206,N,Y,30.1822918,-81.844447
MLS Listing,,Single Family Residential,1776 Margarets Walk Rd,Fleming Island,FL,32003,485000,4,2.0,Margarets Walk,2151,,2003,30,225,53,Active,,,https://www.redfin.com/FL/Fleming-Island/1776-Margarets-Walk-Rd-32003/home/108758610,NEFLMLS,1256205,N,Y,30.0554508,-81.7061889
MLS Listing,,Single Family Residential,3687 La Costa Ct,Green Cove Springs,FL,32043,625000,4,3.0,Magnolia Point Golf,2697,,2002,30,232,115,Active,,,https://www.redfin.com/FL/Green-Cove-Springs/3687-La-Costa-Ct-32043/home/108741738,NEFLMLS,1256179,N,Y,30.000116,-81.7044972
MLS Listing,,Single Family Residential,1368 Longmeadow Trl,Middleburg,FL,32068,675000,3,2.0,Fox Meadow,2087,,1998,30,323,,Active,,,https://www.redfin.com/FL/Middleburg/1368-Longmeadow-Trl-32068/home/108763101,NEFLMLS,1255173,N,Y,30.1361298,-81.8678937
MLS Listing,,Mobile/Manufactured Home,2318 N North Fork Rd,Green Cove Springs,FL,32043,289000,3,2.0,Florida Farm Land,1620,,2000,31,178,,Active,,,https://www.redfin.com/FL/Green-Cove-Springs/2318-N-Fork-Rd-32043/home/108730883,NEFLMLS,1256154,N,Y,30.0740808,-81.7693241
MLS Listing,,Single Family Residential,3255 State Road 16,Green Cove Springs,FL,32043,495000,4,3.0,Florida Farm Land,2179,,1960,31,227,,Active,,,https://www.redfin.com/FL/Green-Cove-Springs/3255-State-Road-16-W-32043/home/62405858,NEFLMLS,1256149,N,Y,29.98246,-81.7903429
MLS Listing,,Single Family Residential,1042 Wetland Ridge Cir,Middleburg,FL,32068,319900,3,2.0,Pine Ridge,1935,,2015,31,165,7,Active,,,https://www.redfin.com/FL/Middleburg/1042-Wetland-Ridge-Cir-32068/home/108761195,NEFLMLS,1256129,N,Y,30.123243,-81.8425647
MLS Listing,,Vacant Land,0 Darwood St,Melrose,FL,32666,60000,,,Keystone,,152024,,31,,,Active,,,https://www.redfin.com/FL/Melrose/Darwood-St-32666/home/108736149,NEFLMLS,1256109,N,Y,29.761413,-81.941976
MLS Listing,,Single Family Residential,3531 Waterford Oaks Dr,Orange Park,FL,32065,365000,4,2.0,Oakleaf Plantation,2368,,2006,31,154,7,Active,,,https://www.redfin.com/FL/Orange-Park/3531-Waterford-Oaks-Dr-32065/home/108267864,NEFLMLS,1256093,N,Y,30.1688967,-81.8182305
MLS Listing,,Single Family Residential,2951 Crossfield Dr,Green Cove Springs,FL,32043,410000,4,3.0,Granary Park Phase 1,2028,,2023,31,202,8,Active,,,https://www.redfin.com/FL/Green-Cove-Springs/2951-Crossfield-Dr-32043/home/183639444,NEFLMLS,1254458,N,Y,30.046931,-81.7639219
MLS Listing,,Vacant Land,5522 Capulin St,Keystone Heights,FL,32656,40000,,,Florida Frontier,,24829,,31,,,Active,,,https://www.redfin.com/FL/Keystone-Heights/5522-Capulin-St-32656/home/108737130,NEFLMLS,1256063,N,Y,29.785005,-81.961453
MLS Listing,,Single Family Residential,3172 Lowgap Pl,Green Cove Springs,FL,32043,347900,3,2.0,Rolling Hills,1693,,2023,31,205,10,Active,,,https://www.redfin.com/FL/Green-Cove-Springs/3172-Lowgap-Pl-32043/home/188373631,NEFLMLS,1256059,N,Y,30.0340982,-81.7883506
MLS Listing,,Single Family Residential,3176 Lowgap Pl,Green Cove Springs,FL,32043,322900,3,2.0,Rolling Hills,1399,,2023,31,231,10,Active,,,https://www.redfin.com/FL/Green-Cove-Springs/3176-Lowgap-Pl-32043/home/188373390,NEFLMLS,1256044,N,Y,30.0340982,-81.7883506
MLS Listing,,Vacant Land,2620 Foxwood Rd S,Orange Park,FL,32073,129000,,,Foxwood,,20037,,31,,10,Active,,,https://www.redfin.com/FL/Orange-Park/2620-Foxwood-Rd-S-32073/home/62399293,NEFLMLS,1256024,N,Y,30.155964,-81.7320993
MLS Listing,,Mobile/Manufactured Home,2035 Catherine Ln,Middleburg,FL,32068,256000,3,2.0,Duck Pond,1649,,1989,31,155,,Active,,,https://www.redfin.com/FL/Middleburg/2035-Catherine-Ln-32068/home/80150553,NEFLMLS,1256022,N,Y,30.0890309,-81.9605774
MLS Listing,,Single Family Residential,2381 Birch Pine Way,Green Cove Springs,FL,32043,391990,5,3.0,Cross Creek,2499,,2023,31,157,2,Active,,,https://www.redfin.com/FL/Unknown/2381-Birch-Pine-Way-32043/home/188371775,NEFLMLS,1256004,N,Y,30.037359,-81.736662
MLS Listing,,Single Family Residential,2295 Setting Sun Way,Green Cove Springs,FL,32043,318990,4,2.0,Cross Creek,1490,,2023,31,214,2,Active,,,https://www.redfin.com/FL/Unknown/2295-Setting-Sun-Way-32043/home/188371747,NEFLMLS,1256002,N,Y,30.038799,-81.737133
MLS Listing,,Single Family Residential,2371 Birch Pine Way,Green Cove Springs,FL,32043,337990,4,2.0,Cross Creek,1862,,2023,31,182,2,Active,,,https://www.redfin.com/FL/Unknown/2371-Birch-Pine-Way-32043/home/188371708,NEFLMLS,1256000,N,Y,30.037359,-81.736662
MLS Listing,,Single Family Residential,275 Gilmore Ln,Orange Park,FL,32065,375000,4,2.0,Forest Hammock,1850,,2015,31,203,42,Active,,,https://www.redfin.com/FL/Orange-Park/275-Gilmore-Ln-32065/home/92480102,NEFLMLS,1255997,N,Y,30.1854878,-81.8544964
MLS Listing,,Single Family Residential,2258 Setting Sun Way,Green Cove Springs,FL,32043,309990,3,2.0,Cross Creek,1655,,2023,31,187,2,Active,,,https://www.redfin.com/FL/Unknown/2258-Setting-Sun-Way-32043/home/188371654,NEFLMLS,1255994,N,Y,30.038524,-81.736918
MLS Listing,,Single Family Residential,2299 Setting Sun Way,Green Cove Springs,FL,32043,361990,4,2.5,Cross Creek,2206,,2023,31,164,2,Active,,,https://www.redfin.com/FL/Unknown/2299-Setting-Sun-Way-32043/home/188371639,NEFLMLS,1255992,N,Y,30.038688,-81.737025
MLS Listing,,Single Family Residential,2231 Setting Sun Way Way,Green Cove Springs,FL,32043,285990,3,2.0,Cross Creek,1222,,2023,31,234,2,Active,,,https://www.redfin.com/FL/Unknown/2231-Setting-Sun-Way-32043/home/188371624,NEFLMLS,1255991,N,Y,30.038524,-81.736918
MLS Listing,,Single Family Residential,2243 Setting Sun Way,Green Cove Springs,FL,32043,319990,3,2.0,Cross Creek,1655,,2023,31,193,2,Active,,,https://www.redfin.com/FL/Unknown/2243-Setting-Sun-Way-32043/home/188371565,NEFLMLS,1255990,N,Y,30.038524,-81.736918
MLS Listing,,Single Family Residential,2806 Canyon Ct,Orange Park,FL,32065,279900,4,2.0,Tanglewood Village,1694,14308,1979,31,165,,Active,,,https://www.redfin.com/FL/Orange-Park/2806-Canyon-Ct-32065/home/102150794,NEFLMLS,1255989,N,Y,30.1218327,-81.7898303
MLS Listing,,Single Family Residential,2283 Setting Sun Way,Green Cove Springs,FL,32043,379990,4,2.5,Cross Creek,2492,,2023,31,152,2,Active,,,https://www.redfin.com/FL/Unknown/2283-Setting-Sun-Way-32043/home/188371452,NEFLMLS,1255988,N,Y,30.038524,-81.736918
MLS Listing,,Single Family Residential,2313 Setting Sun Way,Green Cove Springs,FL,32043,388990,4,2.5,Cross Creek,2492,,2023,31,156,2,Active,,,https://www.redfin.com/FL/Unknown/2313-Setting-Sun-Way-32043/home/188371419,NEFLMLS,1255985,N,Y,30.038524,-81.736918
MLS Listing,,Single Family Residential,8130 Meadowlark Ct,Melrose,FL,32666,490000,3,2.0,Geneva Meadows,1922,,1993,31,255,,Active,,,https://www.redfin.com/FL/Melrose/8130-Meadowlark-Ct-32666/home/108252815,NEFLMLS,1255962,N,Y,29.7513708,-82.0321783
MLS Listing,,Single Family Residential,2224 Harbor Lake Dr,Fleming Island,FL,32003,510000,4,3.0,Eagle Harbor,2560,,1999,31,199,4,Active,,,https://www.redfin.com/FL/Fleming-Island/2224-Harbor-Lake-Dr-32003/home/104469326,NEFLMLS,1255952,N,Y,30.11326,-81.736681
MLS Listing,,Single Family Residential,311 Eventide Dr,Fleming Island,FL,32003,699000,5,4.0,Harvey Grant,4366,24288,2001,31,160,17,Active,December-9-2023 10:00 AM,December-9-2023 01:00 PM,https://www.redfin.com/FL/Fleming-Island/311-Eventide-Dr-32003/home/108738434,NEFLMLS,1255936,N,Y,30.100164,-81.697172
MLS Listing,,Single Family Residential,3668 Oglebay Dr,Green Cove Springs,FL,32043,1150000,6,4.0,Magnolia Point Golf,4703,,2008,31,245,126,Active,,,https://www.redfin.com/FL/Green-Cove-Springs/3668-Oglebay-Dr-32043/home/108764317,NEFLMLS,1255921,N,Y,29.9997638,-81.7198507
MLS Listing,,Single Family Residential,6202 W Shores Rd,Fleming Island,FL,32003,389900,3,2.0,Fleming Island,1707,,1985,31,228,,Active,,,https://www.redfin.com/FL/Fleming-Island/6202-W-Shores-Rd-32003/home/108769525,NEFLMLS,1253074,N,Y,30.081966,-81.693946
MLS Listing,,Townhouse,4220 Plantation Oaks Blvd #1612,Orange Park,FL,32065,239000,3,2.5,Coventry,1596,,2010,31,150,270,Active,,,https://www.redfin.com/FL/Orange-Park/4220-Plantation-Oaks-Blvd-32065/unit-1612/home/67617973,NEFLMLS,1255715,N,Y,30.1771532,-81.8461288
MLS Listing,,Single Family Residential,3452 Rustic Oak Trl,Middleburg,FL,32068,679900,4,3.5,Seminole Village,2550,,2024,32,267,,Active,,,https://www.redfin.com/FL/Middleburg/3452-Rustic-Oak-Trl-32068/home/108763107,NEFLMLS,1255906,N,Y,30.0532365,-81.8422499
MLS Listing,,Townhouse,625 Oakleaf Plantation Pkwy #612,Orange Park,FL,32065,229900,3,2.5,Coventry,1596,,2010,32,144,270,Active,,,https://www.redfin.com/FL/Orange-Park/625-Oakleaf-Plantation-Pkwy-32065/unit-612/home/62452874,NEFLMLS,1255903,N,Y,30.1784076,-81.8468433
MLS Listing,,Vacant Land,0 State Road 21,Middleburg,FL,32068,53000,,,Metes & Bounds,,8712,,32,,,Active,,,https://www.redfin.com/FL/Middleburg/State-Road-21-32068/home/160536571,NEFLMLS,1255887,N,Y,30.049922,-81.889138
MLS Listing,,Single Family Residential,2837 Thomas Ct,Orange Park,FL,32073,450000,3,2.0,Orange Park,1723,,1978,32,261,,Active,,,https://www.redfin.com/FL/Orange-Park/2837-Thomas-Ct-32073/home/102154313,AINCAR,106158,N,Y,30.1315275,-81.7622737
MLS Listing,,Single Family Residential,1619 Highland View Ct,Fleming Island,FL,32003,349000,3,2.0,Eagle Harbor,1522,,1998,32,229,5,Active,,,https://www.redfin.com/FL/Fleming-Island/1619-Highland-View-Ct-32003/home/108749153,NEFLMLS,1255825,N,Y,30.11783,-81.727966
MLS Listing,,Vacant Land,2007 Henley Rd,Middleburg,FL,32068,419999,,,MIDDLEBURG,,382456,,32,,,Active,,,https://www.redfin.com/FL/Middleburg/2007-Henley-Rd-32068/home/188324523,Stellar MLS as Distributed by MLS Grid,A4588047,N,Y,30.0900091,-81.8097292
MLS Listing,,Single Family Residential,1924 Moorings Cir,Middleburg,FL,32068,815000,5,6.0,Paradise Moorings,4406,9600,2004,32,185,136,Active,,,https://www.redfin.com/FL/Middleburg/1924-Moorings-Cir-32068/home/72724698,NEFLMLS,1255807,N,Y,30.1033155,-81.7528509
MLS Listing,,Single Family Residential,3098 Laurel Springs Dr,Green Cove Springs,FL,32043,358300,4,2.0,Shadow Crest At Rolling Hills,1820,6000,2023,32,197,10,Active,,,https://www.redfin.com/FL/Green-Cove-Springs/3098-Laurel-Springs-Dr-32043/home/188321811,NEFLMLS,1255772,N,Y,30.0305944,-81.784405
MLS Listing,,Single Family Residential,3102 Laurel Springs Dr,Green Cove Springs,FL,32043,366900,4,2.0,Shadow Crest At Rolling Hills,2020,6000,2023,32,182,10,Active,,,https://www.redfin.com/FL/Green-Cove-Springs/3102-Laurel-Springs-Dr-32043/home/188321732,NEFLMLS,1255767,N,Y,30.0305944,-81.784405
MLS Listing,,Single Family Residential,3112 Laurel Springs Dr,Green Cove Springs,FL,32043,342100,3,2.0,Shadow Crest At Rolling Hills,1512,6000,2023,32,226,10,Active,,,https://www.redfin.com/FL/Green-Cove-Springs/3112-Laurel-Springs-Dr-32043/home/188321552,NEFLMLS,1255765,N,Y,30.0305944,-81.784405
MLS Listing,,Single Family Residential,3116 Laurel Springs Dr,Green Cove Springs,FL,32043,356300,4,2.0,Shadow Crest At Rolling Hills,1820,6000,2023,32,196,10,Active,,,https://www.redfin.com/FL/Green-Cove-Springs/3116-Laurel-Springs-Dr-32043/home/188321489,NEFLMLS,1255764,N,Y,30.0305944,-81.784405
MLS Listing,,Single Family Residential,3120 Laurel Springs Dr,Green Cove Springs,FL,32043,370300,4,2.0,Shadow Crest At Rolling Hills,2020,6000,2023,32,183,10,Active,,,https://www.redfin.com/FL/Green-Cove-Springs/3120-Laurel-Springs-Dr-32043/home/188321229,NEFLMLS,1255762,N,Y,30.0305944,-81.784405
MLS Listing,,Single Family Residential,3144 Laurel Springs Dr,Green Cove Springs,FL,32043,375500,4,2.0,Shadow Crest At Rolling Hills,2020,6000,2023,32,186,10,Active,,,https://www.redfin.com/FL/Green-Cove-Springs/3144-Laurel-Springs-Dr-32043/home/188320828,NEFLMLS,1255759,N,Y,30.0305944,-81.784405
MLS Listing,,Mobile/Manufactured Home,4058 Pinto Rd,Middleburg,FL,32068,249900,3,2.0,Longbay,1680,,1999,32,149,,Active,,,https://www.redfin.com/FL/Middleburg/4058-Pinto-Rd-32068/home/58710367,NEFLMLS,1255756,N,Y,30.1104864,-81.8721607
MLS Listing,,Single Family Residential,3148 Laurel Springs Dr,Green Cove Springs,FL,32043,351900,4,2.0,Shadow Crest At Rolling Hills,1820,6000,2023,32,193,10,Active,,,https://www.redfin.com/FL/Green-Cove-Springs/3148-Laurel-Springs-Dr-32043/home/188320419,NEFLMLS,1255754,N,Y,30.0305944,-81.784405
MLS Listing,,Single Family Residential,3152 Laurel Springs Dr,Green Cove Springs,FL,32043,359100,4,2.0,Shadow Crest At Rolling Hills,1635,6000,2023,32,220,10,Active,,,https://www.redfin.com/FL/Green-Cove-Springs/3152-Laurel-Springs-Dr-32043/home/188320238,NEFLMLS,1255751,N,Y,30.0305944,-81.784405
MLS Listing,,Single Family Residential,3097 Laurel Springs Dr,Green Cove Springs,FL,32043,353100,4,2.0,Shadow Crest At Rolling Hills,1635,6000,2023,32,216,10,Active,,,https://www.redfin.com/FL/Green-Cove-Springs/3097-Laurel-Springs-Dr-32043/home/188320126,NEFLMLS,1255748,N,Y,30.0301392,-81.7840205
MLS Listing,,Vacant Land,6283 Bowdoin Ave,Keystone Heights,FL,32656,4950,,,Highridge Estates,,14810,,32,,,Active,,,https://www.redfin.com/FL/Keystone-Heights/6283-Bowdoin-Ave-32656/home/108753696,NEFLMLS,1255749,N,Y,29.781653,-82.009203
MLS Listing,,Single Family Residential,3093 Laurel Springs Dr,Green Cove Springs,FL,32043,364500,4,2.0,Shadow Crest At Rolling Hills,2020,6000,2023,32,180,10,Active,,,https://www.redfin.com/FL/Green-Cove-Springs/3093-Laurel-Springs-Dr-32043/home/188320031,NEFLMLS,1255743,N,Y,30.0301392,-81.7840205
MLS Listing,,Single Family Residential,3085 Laurel Springs Dr,Green Cove Springs,FL,32043,345700,4,2.0,Shadow Crest At Rolling Hills,1635,6000,2023,32,211,10,Active,,,https://www.redfin.com/FL/Green-Cove-Springs/3085-Laurel-Springs-Dr-32043/home/188319904,NEFLMLS,1255739,N,Y,30.0301392,-81.7840205
MLS Listing,,Single Family Residential,3081 Laurel Springs Dr,Green Cove Springs,FL,32043,328900,3,2.0,Shadow Crest At Rolling Hills,1512,6000,2023,32,218,10,Active,,,https://www.redfin.com/FL/Green-Cove-Springs/3081-Laurel-Springs-Dr-32043/home/188319725,NEFLMLS,1255736,N,Y,30.0301392,-81.7840205
MLS Listing,,Townhouse,1602 Calming Water Dr,Fleming Island,FL,32003,410000,3,2.0,Fleming Island Plan,1714,,2005,32,239,242,Active,,,https://www.redfin.com/FL/Fleming-Island/1602-Calming-Water-Dr-32003/home/58723686,NEFLMLS,1255718,N,Y,30.0787564,-81.7137274
MLS Listing,,Single Family Residential,3138 Valiant Ct,Green Cove Springs,FL,32043,459000,4,3.0,Royal Pointe,2322,8820,2021,32,198,17,Active,,,https://www.redfin.com/FL/Green-Cove-Springs/3138-Valiant-Ct-32043/home/170391214,NEFLMLS,1255714,N,Y,30.028992,-81.805589
MLS Listing,,Single Family Residential,1805 Farm Way,Middleburg,FL,32068,275000,3,2.0,Orange Park South,1217,,1988,32,226,,Active,,,https://www.redfin.com/FL/Middleburg/1805-Farm-Way-32068/home/108763235,NEFLMLS,1250114,N,Y,30.0900907,-81.7516756
MLS Listing,,Single Family Residential,6190 Emory Ave,Keystone Heights,FL,32656,285000,5,3.0,HIGHRIDGE ESTATES,2001,15681,2024,32,142,,Active,,,https://www.redfin.com/FL/Keystone-Heights/6190-Emory-Ave-32656/home/184726361,Stellar MLS as Distributed by MLS Grid,G5075075,N,Y,29.785175,-82.0052285
MLS Listing,,Single Family Residential,5803 County Rd 209 S,Green Cove Springs,FL,32043,3400000,5,4.5,Green Cove,5762,,2000,32,590,,Active,,,https://www.redfin.com/FL/Green-Cove-Springs/5803-County-Road-209-S-32043/home/62426740,NEFLMLS,1255697,N,Y,29.8778124,-81.6230202
MLS Listing,,Townhouse,508 Sunstone Ct,Orange Park,FL,32065,230000,2,2.5,Cambridge,1440,,2005,32,160,170,Active,,,https://www.redfin.com/FL/Orange-Park/508-Sunstone-Ct-32065/home/108752110,NEFLMLS,1255660,N,Y,30.173069,-81.8495822
MLS Listing,,Mobile/Manufactured Home,182 Aster Ave,Middleburg,FL,32068,205000,3,2.0,Metes & Bounds,1152,,1987,32,178,,Active,,,https://www.redfin.com/FL/Middleburg/182-Aster-Ave-32068/home/108764639,NEFLMLS,1255658,N,Y,30.071244,-81.8884256
MLS Listing,,Single Family Residential,1090 Doctors Lake Inlet Cv,Orange Park,FL,32073,1800000,4,3.5,Lakeside Estates,3665,82500,2011,32,491,,Active,,,https://www.redfin.com/FL/Orange-Park/1090-Doctors-Lake-Inlet-Cv-32073/home/72721043,NEFLMLS,1255648,N,Y,30.1436644,-81.7344687
MLS Listing,,Single Family Residential,2746 Poinsettia Ave,Middleburg,FL,32068,339000,4,2.5,Black Creek Park,1688,,2007,32,201,,Active,,,https://www.redfin.com/FL/Middleburg/2746-Poinsettia-Ave-32068/home/108769551,NEFLMLS,1255646,N,Y,30.0355332,-81.8969247
MLS Listing,,Single Family Residential,3731 Iceni Ct,Middleburg,FL,32068,335000,4,2.0,Coppergate,1859,,2006,32,180,20,Active,,,https://www.redfin.com/FL/Middleburg/3731-Iceni-Ct-32068/home/108740782,NEFLMLS,1254929,N,Y,30.1021898,-81.8167787
MLS Listing,,Vacant Land,7202 Salem Dr,Keystone Heights,FL,32656,7500,,,Highridge Estates,,14810,,33,,,Active,,,https://www.redfin.com/FL/Keystone-Heights/7202-Salem-Dr-32656/home/108752426,NEFLMLS,1255618,N,Y,29.786079,-81.992927
MLS Listing,,Vacant Land,7161 Wheaton St,Keystone Heights,FL,32656,7500,,,Highridge Estates,,14810,,33,,,Active,,,https://www.redfin.com/FL/Keystone-Heights/7161-Wheaton-St-32656/home/72717430,NEFLMLS,1255617,N,Y,29.788521,-82.007824
MLS Listing,,Vacant Land,7159 Quail St,Florahome,FL,32140,8000,,,Lakeside Terrace,,13068,,33,,,Active,,,https://www.redfin.com/FL/Florahome/7159-Quail-St-32140/home/72716506,NEFLMLS,1255616,N,Y,29.804248,-81.878532
MLS Listing,,Vacant Land,6207 Kent Ave,Keystone Heights,FL,32656,8500,,,Highridge Estates,,16552,,33,,,Active,,,https://www.redfin.com/FL/Keystone-Heights/6207-Kent-Ave-32656/home/108734202,NEFLMLS,1255615,N,Y,29.789173,-82.003342
MLS Listing,,Single Family Residential,3540 Cunningham Rd,Orange Park,FL,32065,457990,5,3.0,Silverleaf,2600,,2023,33,176,72,Active,,,https://www.redfin.com/FL/Orange-Park/3540-Cunningham-Rd-32065/home/183750985,NEFLMLS,1255611,N,Y,30.167395,-81.816916
MLS Listing,,Single Family Residential,508 Garden View Ter,Fleming Island,FL,32003,407000,4,2.5,Harvest Bend,2208,,1991,33,184,,Active,,,https://www.redfin.com/FL/Fleming-Island/508-Garden-View-Ter-32003/home/58717129,NEFLMLS,1254312,N,Y,30.089544,-81.703376
MLS Listing,,Vacant Land,00 Landward Ln,Middleburg,FL,32068,79000,,,Metes & Bounds,,52272,,33,,,Active,,,https://www.redfin.com/FL/Middleburg/Landward-Ln-32068/home/108742644,NEFLMLS,1255580,N,Y,30.105857,-81.770116
MLS Listing,,Vacant Land,646 Nelson Dr,Orange Park,FL,32073,135000,,,Doctors Lake,,26136,,33,,,Active,,,https://www.redfin.com/FL/Orange-Park/646-Nelson-Dr-32073/home/188253406,NEFLMLS,1255575,N,Y,30.1592463,-81.7074971
MLS Listing,,Single Family Residential,2887 Sunrise Creek Rd,Green Cove Springs,FL,32043,317000,4,2.0,Cross Creek,1700,,2020,33,186,2,Active,,,https://www.redfin.com/FL/Green-Cove-Springs/2887-Sunrise-Creek-Rd-32043/home/172729480,NEFLMLS,1255547,N,Y,30.0421257,-81.7515047
MLS Listing,,Single Family Residential,4074 Scenic Dr,Middleburg,FL,32068,549000,3,2.0,Gnann & Canova,1648,,2019,33,333,,Active,,,https://www.redfin.com/FL/Middleburg/4074-Scenic-Dr-32068/home/108528362,NEFLMLS,1255541,N,Y,30.0763161,-81.8727792
MLS Listing,,Single Family Residential,3077 Laurel Springs Dr,Green Cove Springs,FL,32043,371500,4,2.0,Shadow Crest At Rolling Hills,2020,6000,2023,33,184,10,Active,,,https://www.redfin.com/FL/Green-Cove-Springs/3077-Laurel-Springs-Dr-32043/home/188241523,NEFLMLS,1255531,N,Y,30.0301392,-81.7840205
MLS Listing,,Single Family Residential,2484 Royal Pointe Dr,Green Cove Springs,FL,32043,462500,5,3.0,Royal Pointe,2482,,2008,33,186,17,Active,,,https://www.redfin.com/FL/Green-Cove-Springs/2484-Royal-Pointe-Dr-32043/home/62424695,NEFLMLS,1255520,N,Y,30.0324463,-81.8023875
MLS Listing,,Single Family Residential,1522 Bay Harbor Dr,Fleming Island,FL,32003,455000,4,3.0,Bay Harbor,2197,,2001,33,207,33,Active,,,https://www.redfin.com/FL/Fleming-Island/1522-Bay-Harbor-Dr-32003/home/108761198,NEFLMLS,1255493,N,Y,30.10783,-81.739257
MLS Listing,,Single Family Residential,235 Riverwood Dr,Fleming Island,FL,32003,789000,5,3.5,Riverwood Terrace,3847,,1984,33,205,,Active,,,https://www.redfin.com/FL/Fleming-Island/235-Riverwood-Dr-32003/home/62448045,NEFLMLS,1255490,N,Y,30.098572,-81.695618
MLS Listing,,Single Family Residential,1950 Elks Path Ln,Green Cove Springs,FL,32043,725000,5,4.0,Magnolia Point Golf Side Villa,3327,,2015,33,218,127,Active,,,https://www.redfin.com/FL/Green-Cove-Springs/1950-Elks-Path-Ln-32043/home/60475470,NEFLMLS,1255461,N,Y,30.0079253,-81.7170288
MLS Listing,,Single Family Residential,4220 Great Falls Loop,Middleburg,FL,32068,425000,4,2.0,Azalea Ridge,1770,,2014,33,240,7,Active,,,https://www.redfin.com/FL/Middleburg/4220-Great-Falls-Loop-32068/home/58745758,NEFLMLS,1255449,N,Y,30.0968765,-81.8588681
MLS Listing,,Single Family Residential,2339 Bonnie Lakes Dr,Green Cove Springs,FL,32043,305000,3,2.0,Magnolia West,1711,,2016,33,178,6,Active,,,https://www.redfin.com/FL/Green-Cove-Springs/2339-Bonnie-Lakes-Dr-32043/home/108252383,NEFLMLS,1255445,N,Y,30.003784,-81.7306458
MLS Listing,,Single Family Residential,1099 Lake Asbury Dr,Green Cove Springs,FL,32043,775000,3,3.0,Lake Asbury,2718,,1968,33,285,4,Active,,,https://www.redfin.com/FL/Green-Cove-Springs/1099-Lake-Asbury-Dr-32043/home/108769981,NEFLMLS,1255443,N,Y,30.0603738,-81.8232261
MLS Listing,,Single Family Residential,3839 Trail Ridge Rd,Middleburg,FL,32068,554990,5,3.0,Two Creeks,3007,,2013,33,185,7,Active,,,https://www.redfin.com/FL/Middleburg/3839-Trail-Ridge-Rd-32068/home/108766582,NEFLMLS,1255435,N,Y,30.1323535,-81.8604687
MLS Listing,,Single Family Residential,3940 Hideaway Ln,Middleburg,FL,32068,290000,3,2.0,Baxley Hideaway,1336,,2003,33,217,26,Active,,,https://www.redfin.com/FL/Middleburg/3940-Hideaway-Ln-32068/home/103354669,NEFLMLS,1255434,N,Y,30.0966881,-81.8341981
MLS Listing,,Single Family Residential,8828 Bandera Cir S,Jacksonville,FL,32244,400000,3,2.0,Argyle/chimney Lakes,1846,,1987,34,217,37,Active,,,https://www.redfin.com/FL/Jacksonville/8828-Bandera-Cir-S-32244/home/62425298,NEFLMLS,1255380,N,Y,30.1892504,-81.8006792
MLS Listing,,Single Family Residential,3147 Raven Trce,Green Cove Springs,FL,32043,365394,3,2.0,Granary Park Phase 1,1712,6000,2023,34,213,8,Active,,,https://www.redfin.com/FL/Green-Cove-Springs/3147-Raven-Trc-32043/home/187661912,NEFLMLS,1255345,N,Y,30.0461,-81.7714
MLS Listing,,Single Family Residential,3175 Raven Trce,Green Cove Springs,FL,32043,375485,3,2.5,Granary Park Phase 1,1950,4800,2023,34,193,8,Active,,,https://www.redfin.com/FL/Green-Cove-Springs/3175-RAVEN-TRCE-32043/home/188221128,NEFLMLS,1255340,N,Y,30.04532,-81.760995
MLS Listing,,Single Family Residential,3183 Ravens Trce,Green Cove Springs,FL,32043,376494,4,3.0,Granary Park Phase 1,2088,4800,2023,34,180,8,Active,,,https://www.redfin.com/FL/Green-Cove-Springs/3183-Raven-Trc-32043/home/188178468,NEFLMLS,1255338,N,Y,30.0461,-81.7714
MLS Listing,,Single Family Residential,,Melrose,FL,32666,329000,3,2.0,,1371,14375,2023,34,240,,Active,,,https://www.redfin.com/FL/Melrose/Undisclosed-address-32666/home/188194493,Stellar MLS as Distributed by MLS Grid,GC517212,N,Y,29.7240612,-82.048545
MLS Listing,,Single Family Residential,2382 Birch Pine Way,Green Cove Springs,FL,32043,377990,4,2.5,Cross Creek,2492,,2023,34,152,2,Active,,,https://www.redfin.com/FL/Unknown/2382-Birch-Pine-Way-32043/home/188215034,NEFLMLS,1255274,N,Y,30.037359,-81.736662
MLS Listing,,Single Family Residential,2247 Setting Sun Way,Green Cove Springs,FL,32043,336990,4,2.0,Cross Creek,1778,,2023,34,190,2,Active,,,https://www.redfin.com/FL/Unknown/2247-Setting-Sun-Way-32043/home/188215012,NEFLMLS,1255273,N,Y,30.038524,-81.736918
MLS Listing,,Single Family Residential,2894 Oak Stream Dr,Green Cove Springs,FL,32043,349990,4,2.5,Cross Creek,2206,,2023,34,159,2,Active,,,https://www.redfin.com/FL/Green-Cove-Springs/2894-Oak-Stream-Dr-32043/home/183754337,NEFLMLS,1255271,N,Y,30.037299,-81.73734
MLS Listing,,Single Family Residential,2265 Setting Sun Way,Green Cove Springs,FL,32043,382990,4,2.5,Cross Creek,2492,,2023,34,154,2,Active,,,https://www.redfin.com/FL/Unknown/2265-Setting-Sun-Way-32043/home/188214979,NEFLMLS,1255268,N,Y,30.038524,-81.736918
MLS Listing,,Single Family Residential,2370 Birch Pine Way,Green Cove Springs,FL,32043,308990,3,2.0,Cross Creek,1655,,2023,34,187,2,Active,,,https://www.redfin.com/FL/Unknown/2370-Birch-Pine-Way-32043/home/188214816,NEFLMLS,1255260,N,Y,30.037359,-81.736662
MLS Listing,,Single Family Residential,4947 Calendula Ave,Middleburg,FL,32068,235000,3,2.0,Middleburg,1368,,2005,34,172,,Active,,,https://www.redfin.com/FL/Middleburg/4947-Calendula-Ave-32068/home/77285959,NEFLMLS,1255255,N,Y,30.0474409,-81.9286514
MLS Listing,,Single Family Residential,2865 Oak Stream Dr,Green Cove Springs,FL,32043,371990,4,2.5,Cross Creek,2492,,2023,34,149,2,Active,,,https://www.redfin.com/FL/Green-Cove-Springs/2865-Oak-Stream-Dr-32043/home/183754346,NEFLMLS,1255256,N,Y,30.036273,-81.737181
MLS Listing,,Mobile/Manufactured Home,7625 Grand Mesa Cir,Keystone Heights,FL,32656,209900,3,2.0,Florida Frontier,1144,,1986,35,183,,Active,,,https://www.redfin.com/FL/Keystone-Heights/7625-Grand-Mesa-Cir-32656/home/108762741,NEFLMLS,1255221,N,Y,29.7873202,-81.9558895
MLS Listing,,Single Family Residential,8042 County Line Rd,Melrose,FL,32666,360000,4,2.0,Metes & Bounds,3176,,1974,35,113,,Active,,,https://www.redfin.com/FL/Melrose/8042-County-Line-Rd-32666/home/108480282,NEFLMLS,1255219,N,Y,29.7546288,-81.9827766
MLS Listing,,Single Family Residential,3177 Peppertree Dr,Middleburg,FL,32068,375000,4,2.0,Villages of Fireside,1950,,2002,35,192,55,Active,,,https://www.redfin.com/FL/Middleburg/3177-Peppertree-Dr-32068/home/62399143,NEFLMLS,1255211,N,Y,30.0906392,-81.7897021
MLS Listing,,Single Family Residential,3946 Etheleen Ct,Green Cove Springs,FL,32043,325000,3,3.0,Metes & Bounds,1624,28260,1987,35,200,,Active,,,https://www.redfin.com/FL/Green-Cove-Springs/3946-Etheleen-Ct-32043/home/108766586,NEFLMLS,1255204,N,Y,29.9838709,-81.8299077
MLS Listing,,Vacant Land,4042 Buena Vista Ave,Starke,FL,32091,225000,,,Kingsley Lake Village,,13068,,35,,105,Active,,,https://www.redfin.com/FL/Starke/4042-Buena-Vista-Ave-32091/home/72724080,NEFLMLS,1255199,N,Y,29.980471,-81.996315
MLS Listing,,Single Family Residential,3124 Angora Bay Dr,Middleburg,FL,32068,389900,3,2.5,Angora Bay,2749,,2016,35,142,25,Active,,,https://www.redfin.com/FL/Middleburg/3124-Angora-Bay-Dr-32068/home/72724238,NEFLMLS,1255135,N,Y,30.1018528,-81.7949329
MLS Listing,,Single Family Residential,2857 Buck Creek Pl,Green Cove Springs,FL,32043,297000,3,2.0,Cross Creek,1420,,2019,35,209,2,Active,,,https://www.redfin.com/FL/Green-Cove-Springs/2857-Buck-Creek-Pl-32043/home/170392907,NEFLMLS,1255095,N,Y,30.0452648,-81.7550945
MLS Listing,,Single Family Residential,424 Sigsbee Rd,Orange Park,FL,32073,270000,3,2.0,Bellair,1248,,1966,35,216,,Active,,,https://www.redfin.com/FL/Orange-Park/424-Sigsbee-Rd-32073/home/62442958,NEFLMLS,1255080,N,Y,30.1740902,-81.7319283
MLS Listing,,Condo/Co-op,156 Governors Street St #115,Green Cove Springs,FL,32043,250000,2,1.0,Governors Landing,854,,1983,36,293,385,Active,,,https://www.redfin.com/FL/Green-Cove-Springs/156-Governor-St-32043/unit-115/home/72720084,NEFLMLS,1251967,N,Y,30.006247,-81.689879
MLS Listing,,Single Family Residential,2372 Bonnie Lakes Dr,Green Cove Springs,FL,32043,360000,5,3.0,Magnolia West,2556,,2016,36,141,7,Active,,,https://www.redfin.com/FL/Green-Cove-Springs/2372-Bonnie-Lakes-Dr-32043/home/108740813,NEFLMLS,1255052,N,Y,30.0023734,-81.7310305
MLS Listing,,Single Family Residential,3130 Lowgap Pl,Green Cove Springs,FL,32043,347900,3,2.0,Rolling Hills,1693,,2023,36,205,10,Active,,,https://www.redfin.com/FL/Green-Cove-Springs/3130-Lowgap-Pl-32043/home/183752607,NEFLMLS,1245706,N,Y,30.033765,-81.78803
MLS Listing,,Single Family Residential,603 Thornwood Ln,Orange Park,FL,32073,619900,4,3.0,Orange Park Cc,3066,,1990,37,202,95,Active,,,https://www.redfin.com/FL/Orange-Park/603-Thornwood-Ln-32073/home/108745697,NEFLMLS,1254974,N,Y,30.1709061,-81.7606286
MLS Listing,,Single Family Residential,3205 Lowgap Pl,Green Cove Springs,FL,32043,377900,4,2.0,Rolling Hills,1844,,2023,38,205,10,Active,,,https://www.redfin.com/FL/Green-Cove-Springs/3205-Lowgap-Pl-32043/home/188193798,NEFLMLS,1254868,N,Y,30.0340982,-81.7883506
MLS Listing,,Vacant Land,5824 Bryce St,Keystone Heights,FL,32656,30000,,,Big Tree Lakes,,50529,,38,,,Active,,,https://www.redfin.com/FL/Keystone-Heights/5824-Bryce-St-32656/home/108733259,NEFLMLS,1254866,N,Y,29.800354,-81.960791
MLS Listing,,Single Family Residential,2050 Amberly Dr,Middleburg,FL,32068,397900,3,2.5,Greyhawk,1860,,2023,38,214,8,Active,,,https://www.redfin.com/FL/Middleburg/2050-Amberly-Dr-32068/home/170390156,NEFLMLS,1254864,N,Y,30.156359,-81.840009
MLS Listing,,Vacant Land,0 Cooks Ln,Green Cove Springs,FL,32043,775000,,,Bayard Tract,,189486,,38,,,Active,,,https://www.redfin.com/FL/Green-Cove-Springs/Cooks-Ln-32043/home/108755343,NEFLMLS,1254821,N,Y,29.983269,-81.678021
MLS Listing,,Mobile/Manufactured Home,4785 Cattail St,Middleburg,FL,32068,99999,2,2.0,Metes & Bounds,924,,1998,38,108,,Active,,,https://www.redfin.com/FL/Middleburg/4785-Cattail-St-32068/home/108734968,NEFLMLS,1254775,N,Y,30.0549511,-81.9159027
MLS Listing,,Single Family Residential,1438 Shadow Creek Dr,Orange Park,FL,32065,549900,4,3.5,Eagle Landing,2877,,2006,38,191,4,Active,December-10-2023 01:00 PM,December-10-2023 04:00 PM,https://www.redfin.com/FL/Orange-Park/1438-Shadow-Creek-Dr-32065/home/108770569,NEFLMLS,1254760,N,Y,30.1593062,-81.8500462
MLS Listing,,Condo/Co-op,2199 Astor St #502,Orange Park,FL,32073,595000,2,2.0,Continental Palace,2110,,1973,38,282,689,Active,,,https://www.redfin.com/FL/Orange-Park/2199-Astor-St-32073/unit-502/home/108769546,NEFLMLS,1254744,N,Y,30.162565,-81.6952192
MLS Listing,,Single Family Residential,2931 Jubilee Ln,Green Cove Springs,FL,32043,384900,5,3.0,East Glenhaven,2336,,2006,38,165,20,Active,,,https://www.redfin.com/FL/Green-Cove-Springs/2931-Jubilee-Ln-32043/home/58715431,NEFLMLS,1254742,N,Y,30.0468071,-81.7979671
MLS Listing,,Single Family Residential,2271 Furma St,Orange Park,FL,32073,765000,4,2.5,Doctors Lake,3062,,2001,38,250,,Active,,,https://www.redfin.com/FL/Orange-Park/2271-Furma-St-32073/home/108769995,NEFLMLS,1253887,N,Y,30.1585864,-81.7112349
MLS Listing,,Single Family Residential,662 Frederic Dr,Fleming Island,FL,32003,1999000,5,4.0,Hibernia Links,4000,,1997,38,500,,Active,,,https://www.redfin.com/FL/Fleming-Island/662-Frederic-Dr-32003/home/108730455,NEFLMLS,1254201,N,Y,30.0626254,-81.6988118
MLS Listing,,Single Family Residential,922 Longridge Ct,Orange Park,FL,32065,379500,4,3.0,Foxridge,2120,11250,1985,38,179,,Active,,,https://www.redfin.com/FL/Orange-Park/922-Longridge-Ct-32065/home/108748206,NEFLMLS,1251579,N,Y,30.153268,-81.7760747
MLS Listing,,Single Family Residential,540 Clermont Ave,Orange Park,FL,32073,350000,3,2.0,Bellair,1980,,1970,39,177,,Active,,,https://www.redfin.com/FL/Orange-Park/540-Clermont-Ave-S-32073/home/108756018,NEFLMLS,1254689,N,Y,30.1679289,-81.7371862
MLS Listing,,Condo/Co-op,575 Oakleaf Plantation Pkwy #808,Orange Park,FL,32065,202500,2,2.0,Jennings Point,1049,,2007,39,193,240,Active,,,https://www.redfin.com/FL/Orange-Park/575-Oakleaf-Plantation-Pkwy-32065/unit-808/home/108760600,NEFLMLS,1254599,N,Y,30.1822918,-81.844447
MLS Listing,,Single Family Residential,3804 Pebble Brooke Cir,Orange Park,FL,32065,304000,3,2.0,Oakleaf Plantation,1311,,2005,39,232,7,Active,,,https://www.redfin.com/FL/Orange-Park/3804-Pebble-Brooke-Cir-32065/home/108761397,NEFLMLS,1248769,N,Y,30.1817279,-81.8286482
