SALE TYPE,SOLD DATE,PROPERTY TYPE,ADDRESS,CITY,STATE OR PROVINCE,ZIP OR POSTAL CODE,PRICE,BEDS,BATHS,LOCATION,SQUARE FEET,LOT SIZE,YEAR BUILT,DAYS ON MARKET,$/SQUARE FEET,HOA/MONTH,STATUS,NEXT OPEN HOUSE START TIME,NEXT OPEN HOUSE END TIME,URL (SEE https://www.redfin.com/buy-a-home/comparative-market-analysis FOR INFO ON PRICING),SOURCE,MLS#,FAVORITE,INTERESTED,LATITUDE,LONGITUDE
"In accordance with local MLS rules, some MLS listings are not included in the download"
MLS Listing,,Condo/Co-op,788 Park Shore Dr Unit E23,Naples,FL,34103,500000,2,2.0,HIDDEN LAKE VILLAS,1015,,1973,17,493,823,Active,,,https://www.redfin.com/FL/Naples/788-Park-Shore-Dr-34103/unit-E23/home/67446041,FORTMLS,223083399,N,Y,26.1906854,-81.8023669
MLS Listing,,Condo/Co-op,5287 Treetops Dr Unit V-105,Naples,FL,34113,220000,2,2.0,WOODGATE AT NAPLES,878,,1987,28,251,398,Active,,,https://www.redfin.com/FL/Naples/5287-Treetops-Dr-34113/unit-V-105/home/67536890,FORTMLS,223076104,N,Y,26.0786231,-81.727017
MLS Listing,,Single Family Residential,4831 Frattina St,Ave Maria,FL,34142,775000,5,5.0,MAPLE RIDGE,3866,11325,2021,63,200,211,Active,,,https://www.redfin.com/FL/Ave-Maria/4831-Frattina-St-34142/home/177272169,FORTMLS,223071162,N,Y,26.3340504,-81.4194206
MLS Listing,,Single Family Residential,8233 Laurel Lakes Blvd,Naples,FL,34119,864900,4,2.5,LAUREL LAKES,2642,6534,2002,82,327,168,Active,,,https://www.redfin.com/FL/Naples/8233-Laurel-Lakes-Blvd-34119/home/67576420,FORTMLS,223062821,N,Y,26.2701947,-81.6997764
MLS Listing,,Townhouse,404 Bristle Cone Ln,Naples,FL,34113,499000,3,2.5,NA19 - Lely Area,1729,,1975,1,289,698,Active,,,https://www.redfin.com/FL/Naples/404-Bristle-Cone-Ln-34113/home/184109698,NAPLESMLS,223008881,N,Y,26.1005164,-81.7318855
MLS Listing,,Single Family Residential,823 108th Ave N,Naples,FL,34108,850000,3,2.0,NA03 - Naples Park Area,1843,6534,1989,1,461,,Active,,,https://www.redfin.com/FL/Naples/823-108th-Ave-N-34108/home/67604401,BEARMLS,223089353,N,Y,26.2699285,-81.8044435
MLS Listing,,Condo/Co-op,201 Arbor Lake Dr Unit 2-402,Naples,FL,34110,245000,1,1.0,NA01 - N/O 111th Ave,1004,,1991,1,244,2555,Active,,,https://www.redfin.com/FL/Naples/201-Arbor-Lake-Dr-34110/unit-2-402/home/67453695,NAPLESMLS,223072021,N,Y,26.3015639,-81.8219132
MLS Listing,,Single Family Residential,5839 Bromelia Ct,Naples,FL,34119,2575000,4,4.5,NA14 - N/O Pine Ridge Rd and Vin,3697,13939,2006,1,697,425,Active,,,https://www.redfin.com/FL/Naples/5839-Bromelia-Ct-34119/home/67405441,NAPLESMLS,223089389,N,Y,26.2163671,-81.7207058
MLS Listing,,Single Family Residential,10333 Heritage Bay Blvd #1736,Naples,FL,34120,442000,2,2.0,NA31 - S/O Immokalee Rd,1232,,2010,1,359,922,Active,December-10-2023 01:00 PM,December-10-2023 03:00 PM,https://www.redfin.com/FL/Naples/10333-Heritage-Bay-Blvd-34120/unit-1736/home/67434924,BEARMLS,223089066,N,Y,26.2971425,-81.6620258
MLS Listing,,Condo/Co-op,1672 Spoonbill Ln Unit 1672A,Naples,FL,34105,365000,2,2.0,NA16 - S/O Pine Ridge Rd,1238,,1983,1,295,563,Active,,,https://www.redfin.com/FL/Naples/1672-Spoonbill-Ln-34105/unit-1672a/home/184878215,NAPLESMLS,223088867,N,Y,26.2078473,-81.7708126
MLS Listing,,Condo/Co-op,10220 Heritage Bay Blvd E #321,Naples,FL,34120,649500,2,2.0,NA21 - N/O Immokalee Rd E/O 75,1661,,2006,1,391,1013,Active,,,https://www.redfin.com/FL/Naples/10220-Heritage-Bay-Blvd-34120/unit-321/home/67425146,NAPLESMLS,223083847,N,Y,26.2873226,-81.6607896
MLS Listing,,Condo/Co-op,275 Indies Way #805,Naples,FL,34110,2295000,3,3.0,NA01 - N/O 111th Ave,2798,,2006,1,820,2318,Active,,,https://www.redfin.com/FL/Naples/275-Indies-Way-34110/unit-805/home/67420144,NAPLESMLS,223078802,N,Y,26.2776185,-81.8192567
MLS Listing,,Condo/Co-op,2335 Sawyers Hill Rd #501,Naples,FL,34120,519900,2,2.0,NA31 - S/O Immokalee Rd,1339,,2019,1,388,533,Active,December-9-2023 12:00 PM,December-9-2023 03:00 PM,https://www.redfin.com/FL/Naples/2335-Sawyers-Hill-Rd-34120/unit-501/home/169997529,NAPLESMLS,223088749,N,Y,26.2724968,-81.67443
MLS Listing,,Single Family Residential,4594 Ashton Ct,Naples,FL,34112,1099000,3,2.0,NA18 - N/O Rattlesnake Hammock,2105,10454,1988,1,522,557,Active,,,https://www.redfin.com/FL/Naples/4594-Ashton-Ct-34112/home/67591908,NAPLESMLS,223078794,N,Y,26.1127947,-81.721454
MLS Listing,,Condo/Co-op,1666 Osprey Ave NE #209,Naples,FL,34102,950000,3,2.0,NA08 - Royal Harbor-Windstar Are,1530,,1975,1,621,990,Active,,,https://www.redfin.com/FL/Naples/1666-Osprey-Ave-34102/unit-209/home/67545678,NAPLESMLS,223087855,N,Y,26.1362163,-81.7837202
MLS Listing,,Single Family Residential,237 Bald Eagle Dr,Marco Island,FL,34145,995000,3,2.5,MI01 - Marco Island,1996,8712,2004,1,498,,Active,,,https://www.redfin.com/FL/Marco-Island/237-Bald-Eagle-Dr-34145/home/67578033,NAPLESMLS,223089479,N,Y,25.9427216,-81.7174349
MLS Listing,,Vacant Land,"#0 29th Ave NE",Naples,FL,34120,139900,,,"NA44 - GGE 16-20, 23-25",,49658,,1,,,Active,,,https://www.redfin.com/FL/Naples/Unknown-Unknown/home/67484279,NAPLESMLS,223089463,N,Y,26.286368,-81.530528
MLS Listing,,Single Family Residential,6578 Amarone Ln,Naples,FL,34113,1299000,3,2.0,NA19 - Lely Area,1831,8276,2015,1,709,973,Active,,,https://www.redfin.com/FL/Naples/6578-Amarone-Ln-34113/home/67440022,BEARMLS,223089319,N,Y,26.1048489,-81.7099948
MLS Listing,,Single Family Residential,54 Madison Dr,Naples,FL,34110,620000,3,2.0,NA11 - N/O  Immokalee Rd W/O 75,1275,9583,1977,1,486,,Active,December-9-2023 12:00 PM,December-9-2023 03:00 PM,https://www.redfin.com/FL/Naples/54-Madison-Dr-34110/home/79804053,NAPLESMLS,223082302,N,Y,26.2793345,-81.7658417
MLS Listing,,Condo/Co-op,9385 Pocida Ct #202,Naples,FL,34119,638500,2,2.0,NA21 - N/O Immokalee Rd E/O 75,1616,,2019,1,395,843,Active,,,https://www.redfin.com/FL/Naples/9385-Pocida-Ct-34119/unit-202/home/170585542,NAPLESMLS,223089209,N,Y,26.2962012,-81.6994105
MLS Listing,,Condo/Co-op,1100 8th Ave S Unit 309C,Naples,FL,34102,785000,2,2.0,NA06 - Olde Naples Area,1080,,1970,1,727,939,Active,December-10-2023 01:00 PM,December-10-2023 03:00 PM,https://www.redfin.com/FL/Naples/1100-8th-Ave-S-34102/unit-309C/home/67542588,NAPLESMLS,223089405,N,Y,26.1391705,-81.7917442
MLS Listing,,Single Family Residential,2310 70th Ave NE,Naples,FL,34120,2250000,3,2.0,"NA45 - GGE 13-14, 48-51",1804,871200,2016,1,1247,,Active,,,https://www.redfin.com/FL/Naples/2310-70th-Ave-NE-34120/home/170585735,NAPLESMLS,223089454,N,Y,26.3590716,-81.5622778
MLS Listing,,Single Family Residential,1422 Tangerine St,Immokalee,FL,34142,352900,3,2.0,EDEN PARK,1044,13503,1982,2,338,,Active,,,https://www.redfin.com/FL/Immokalee/1422-Tangerine-St-34142/home/67463974,FORTMLS,223089443,N,Y,26.4399953,-81.4443146
MLS Listing,,Single Family Residential,3274 Sturgeon Bay Ct,Naples,FL,34120,689000,4,2.0,NA34 - E/O Wilson N/O GG Blvd,2292,12196,2000,2,301,227,Active,,,https://www.redfin.com/FL/Naples/3274-Sturgeon-Bay-Ct-34120/home/67601548,NAPLESMLS,223086016,N,Y,26.298004,-81.5863108
MLS Listing,,Condo/Co-op,5789 Gage Ln Unit A 103,Naples,FL,34113,325000,2,2.0,NA19 - Lely Area,1035,,1982,2,314,413,Active,,,https://www.redfin.com/FL/Naples/5789-Gage-Ln-34113/unit-A-103/home/67453591,NAPLESMLS,223088281,N,Y,26.1081921,-81.7231001
MLS Listing,,Vacant Land,18199 Royal Hammock Blvd,Naples,FL,34114,230000,,,NA38 - South of US41 East of 951,,19602,,2,,41,Active,,,https://www.redfin.com/FL/Naples/18199-Royal-Hammock-Blvd-34114/home/67522637,NAPLESMLS,223089422,N,Y,26.0121639,-81.633694
MLS Listing,,Condo/Co-op,5686 Mayflower Way #707,Ave Maria,FL,34142,385000,2,2.0,NA35 - E/O Wilson N/O 75,1538,10890,2023,2,250,727,Active,,,https://www.redfin.com/FL/Ave-Maria/5686-Mayflower-Way-34142/unit-707/home/188810371,NAPLESMLS,223088966,N,Y,26.3194302,-81.442362
MLS Listing,,Single Family Residential,3234 22nd Ave SE,Naples,FL,34117,599999,3,2.0,"NA45 - GGE 13-14, 48-51",1530,108900,2023,2,392,,Active,,,https://www.redfin.com/FL/Naples/3234-22nd-Ave-Se-34117/home/183279495,NAPLESMLS,223057073,N,Y,26.1905488,-81.5440895
MLS Listing,,Condo/Co-op,1385 Mainsail Dr #1812,Naples,FL,34114,359900,2,2.0,NA38 - South of US41 East of 951,843,,1990,2,427,362,Active,,,https://www.redfin.com/FL/Naples/1385-Mainsail-Dr-34114/unit-1812/home/67577378,NAPLESMLS,223089210,N,Y,26.0011109,-81.6898462
MLS Listing,,Condo/Co-op,9596 Trevi Ct #5444,Naples,FL,34113,529000,2,2.0,NA09 - South Naples Area,1194,,2019,2,443,815,Active,,,https://www.redfin.com/FL/Naples/9596-Trevi-Ct-34113/unit-5444/home/169997563,NAPLESMLS,223089411,N,Y,26.080233,-81.7490258
MLS Listing,,Condo/Co-op,1440 Tiffany Ln #2801,Naples,FL,34105,459000,2,2.0,NA16 - S/O Pine Ridge Rd,1800,,2005,2,255,410,Active,,,https://www.redfin.com/FL/Naples/1440-Tiffany-Ln-34105/unit-2801/home/67406815,NAPLESMLS,223084435,N,Y,26.1998261,-81.7419972
MLS Listing,,Condo/Co-op,7810 Gardner Dr #102,Naples,FL,34109,489999,3,2.0,NA14 - N/O Pine Ridge Rd and Vin,1607,,1996,2,305,702,Active,,,https://www.redfin.com/FL/Naples/7810-Gardner-Dr-34109/unit-102/home/67585823,NAPLESMLS,223088243,N,Y,26.2433005,-81.7572954
MLS Listing,,Single Family Residential,1130 Desoto Blvd S,Naples,FL,34117,485000,3,2.0,GOLDEN GATE ESTATES,1519,50965,2023,2,319,,Active,,,https://www.redfin.com/FL/Naples/1130-Desoto-Blvd-S-34117/home/67486947,FORTMLS,223089373,N,Y,26.210272,-81.513688
MLS Listing,,Condo/Co-op,960 7th St S #201,Naples,FL,34102,699900,1,1.0,NA06 - Olde Naples Area,544,,1973,2,1287,574,Active,,,https://www.redfin.com/FL/Naples/960-7th-St-S-34102/unit-201/home/67437531,NAPLESMLS,223088972,N,Y,26.1362973,-81.7971092
MLS Listing,,Vacant Land,4260 22nd Ave SE,Naples,FL,34117,100000,,,"NA45 - GGE 13-14, 48-51",,118483,,2,,,Active,,,https://www.redfin.com/FL/Naples/4260-22nd-Ave-SE-34117/home/67487828,NAPLESMLS,223089394,N,Y,26.189913,-81.520272
MLS Listing,,Single Family Residential,5327 Georgia Ave,Naples,FL,34113,460000,4,2.0,NA19 - Lely Area,1400,9583,2021,2,329,,Active,,,https://www.redfin.com/FL/Naples/5327-Georgia-Ave-34113/home/67508923,NAPLESMLS,223088013,N,Y,26.086642,-81.7249171
MLS Listing,,Single Family Residential,717 Rudder Rd,Naples,FL,34102,3125000,3,2.0,NA05 - Crayton Rd Area,1515,18730,1966,2,2063,,Active,,,https://www.redfin.com/FL/Naples/717-Rudder-Rd-34102/home/67447218,NAPLESMLS,223089161,N,Y,26.1727829,-81.8023448
MLS Listing,,Condo/Co-op,11 Bluebill Ave #606,Naples,FL,34108,849000,2,2.0,NA01 - N/O 111th Ave,1480,,1980,2,574,1067,Active,,,https://www.redfin.com/FL/Naples/11-Bluebill-Ave-34108/unit-606/home/67530428,NAPLESMLS,223078356,N,Y,26.2758865,-81.8256383
MLS Listing,,Condo/Co-op,260 Seaview Ct #1109,Marco Island,FL,34145,689000,2,2.0,MI01 - Marco Island,1075,,1981,2,641,1054,Active,,,https://www.redfin.com/FL/Marco-Island/260-Seaview-Ct-34145/unit-1109/home/67526348,NAPLESMLS,223089356,N,Y,25.9432432,-81.7373785
MLS Listing,,Single Family Residential,3112 Gordon St,Naples,FL,34112,899900,3,2.0,NAPLES 701,1600,10018,1977,2,562,,Active,,,https://www.redfin.com/FL/Naples/3112-Gordon-St-34112/home/67460159,FORTMLS,223088894,N,Y,26.1247117,-81.7682345
MLS Listing,,Single Family Residential,2022 Fairmont Ln,Naples,FL,34120,529000,4,2.0,NA34 - E/O Wilson N/O GG Blvd,2207,,2007,2,240,216,Active,,,https://www.redfin.com/FL/Naples/2022-Fairmont-Ln-34120/home/67421892,BEARMLS,223089347,N,Y,26.2960465,-81.5635417
MLS Listing,,Condo/Co-op,1115 Central Ave #447,Naples,FL,34102,2350000,2,2.5,ELEVEN ELEVEN CENTRAL,1692,,2022,2,1389,840,Active,,,https://www.redfin.com/FL/Naples/1115-Central-Ave-34102/unit-447/home/188809105,FORTMLS,223088820,N,Y,26.1489323,-81.7933839
MLS Listing,,Condo/Co-op,1882 Tarpon Bay Dr S Unit 2-104,Naples,FL,34119,384900,2,2.0,NA22 - S/O Immokalee Rd W/O 951,1332,,2001,2,289,750,Active,,,https://www.redfin.com/FL/Naples/1882-Tarpon-Bay-Dr-S-34119/unit-2-104/home/67612888,NAPLESMLS,223086436,N,Y,26.261825,-81.737637
MLS Listing,,Single Family Residential,5405 Warren St,Naples,FL,34113,698000,3,2.0,NA19 - Lely Area,1802,11586,1977,2,387,,Active,,,https://www.redfin.com/FL/Naples/5405-Warren-St-34113/home/67509217,NAPLESMLS,223063909,N,Y,26.0945237,-81.7260928
MLS Listing,,Single Family Residential,102 Felipe Ln,Naples,FL,34134,10495000,5,5.5,NA01 - N/O 111th Ave,5316,,2009,2,1974,990,Active,,,https://www.redfin.com/FL/Bonita-Springs/102-Felipe-Ln-34134/home/67576575,NAPLESMLS,223089104,N,Y,26.3246569,-81.8423727
MLS Listing,,Condo/Co-op,400 Forest Lakes Blvd #103,Naples,FL,34105,284900,2,2.0,NA16 - S/O Pine Ridge Rd,842,,1979,2,338,464,Active,,,https://www.redfin.com/FL/Naples/400-Forest-Lakes-Blvd-34105/unit-103/home/67598229,NAPLESMLS,223089294,N,Y,26.2097764,-81.7738103
MLS Listing,,Condo/Co-op,1150 Yesica Ann Cir Unit A-205,Naples,FL,34110,409000,2,2.0,NA11 - N/O  Immokalee Rd W/O 75,1168,,1991,2,350,516,Active,,,https://www.redfin.com/FL/Naples/1150-Yesica-Ann-Cir-34110/unit-A-205/home/67452401,NAPLESMLS,223089167,N,Y,26.2906346,-81.7967712
MLS Listing,,Condo/Co-op,3071 Sandpiper Bay Cir Unit L301,Naples,FL,34112,424900,2,2.0,NA08 - Royal Harbor-Windstar Are,1100,,1987,2,386,624,Active,,,https://www.redfin.com/FL/Naples/3071-Sandpiper-Bay-Cir-34112/unit-L301/home/67584632,NAPLESMLS,223089300,N,Y,26.1267936,-81.7790012
MLS Listing,,Condo/Co-op,6820 Sterling Greens Pl #2404,Naples,FL,34104,419900,2,2.0,NA17 - N/O Davis Blvd,1330,,2004,2,316,754,Active,,,https://www.redfin.com/FL/Naples/6820-Sterling-Greens-Pl-34104/unit-2404/home/67407966,NAPLESMLS,223088309,N,Y,26.1483752,-81.7299441
MLS Listing,,Multi-Family (2-4 Unit),5309 Fleming St,Naples,FL,34113,389900,4,2.0,NA19 - Lely Area,1272,8712,1974,2,307,,Active,,,https://www.redfin.com/FL/Naples/5309-Fleming-St-34113/home/67509478,NAPLESMLS,223089341,N,Y,26.0828575,-81.7204707
MLS Listing,,Condo/Co-op,749 Palm View Dr Unit DP10,Naples,FL,34110,344900,2,2.0,NA11 - N/O  Immokalee Rd W/O 75,1230,,1972,2,280,412,Active,,,https://www.redfin.com/FL/Naples/749-Palm-View-Dr-34110/unit-DP10/home/67459920,NAPLESMLS,223050738,N,Y,26.278612,-81.775347
MLS Listing,,Single Family Residential,455 Trent Ct,Marco Island,FL,34145,3998000,4,4.0,MI01 - Marco Island,3222,10890,2014,2,1241,,Active,,,https://www.redfin.com/FL/Marco-Island/455-Trent-Ct-34145/home/67604900,NAPLESMLS,223082919,N,Y,25.9486584,-81.7362458
MLS Listing,,Single Family Residential,6550 Ridgewood Dr,Naples,FL,34108,4750000,4,4.5,NA04 - Pelican Bay Area,3960,19166,1980,2,1199,224,Active,,,https://www.redfin.com/FL/Naples/6550-Ridgewood-Dr-34108/home/67516111,NAPLESMLS,223085808,N,Y,26.218891,-81.8034125
MLS Listing,,Single Family Residential,834 Wintergreen Ct,Marco Island,FL,34145,1200000,3,3.0,MI01 - Marco Island,1690,8712,1974,2,710,,Active,,,https://www.redfin.com/FL/Marco-Island/834-Wintergreen-Ct-34145/home/67502865,NAPLESMLS,223089326,N,Y,25.9402639,-81.7289785
MLS Listing,,Single Family Residential,797 Apple Ct,Marco Island,FL,34145,1499000,3,2.0,MI01 - Marco Island,1895,15681,1997,2,791,,Active,,,https://www.redfin.com/FL/Marco-Island/797-Apple-Ct-34145/home/67502315,NAPLESMLS,223089325,N,Y,25.9579741,-81.7171356
MLS Listing,,Single Family Residential,6382 Negril Isle Dr,Naples,FL,34113,1125000,2,2.0,NA09 - South Naples Area,1770,,2022,2,636,456,Active,,,https://www.redfin.com/FL/Naples/6382-Negril-Isle-Dr-34113/home/177271656,NAPLESMLS,223085474,N,Y,26.084313,-81.757982
MLS Listing,,Condo/Co-op,3605 Boca Ciega Dr #309,Naples,FL,34112,245000,2,2.0,NA18 - N/O Rattlesnake Hammock,966,,1981,2,254,496,Active,,,https://www.redfin.com/FL/Naples/3605-Boca-Ciega-Dr-34112/unit-309/home/67576210,NAPLESMLS,223088448,N,Y,26.1142684,-81.7504661
MLS Listing,,Condo/Co-op,18 Rivard Rd #9,Naples,FL,34112,479000,2,2.0,NA09 - South Naples Area,1344,,1976,2,356,559,Active,,,https://www.redfin.com/FL/Naples/18-Rivard-Rd-34112/unit-9/home/67590631,NAPLESMLS,223089220,N,Y,26.1303013,-81.7798342
MLS Listing,,Condo/Co-op,780 San Marco Rd Unit 4-102,Marco Island,FL,34145,550000,2,2.0,Mariner Apts Marco Island A Condo,814,,1977,2,676,,Active,,,https://www.redfin.com/FL/Marco-Island/780-San-Marco-Rd-34145/unit-4-102/home/67581206,MIML,2232295,N,Y,25.9371839,-81.731157
MLS Listing,,Single Family Residential,695 Tigertail Ct,Marco Island,FL,34145,1349000,3,2.0,MI01 - Marco Island,1982,14810,2002,2,681,,Active,,,https://www.redfin.com/FL/Marco-Island/695-Tigertail-Ct-34145/home/67580541,NAPLESMLS,223089309,N,Y,25.9520113,-81.7335313
MLS Listing,,Condo/Co-op,1015 Anglers Cv Unit G-301,Marco Island,FL,34145,475000,1,1.0,MI01 - Marco Island,732,,1982,2,649,617,Active,,,https://www.redfin.com/FL/Marco-Island/1015-Anglers-Cv-34145/unit-G-301/home/67547390,NAPLESMLS,223088809,N,Y,25.96107,-81.7262913
MLS Listing,,Single Family Residential,3433 16th Ave NE,Naples,FL,34120,689900,4,3.0,"NA44 - GGE 16-20, 23-25",1991,108900,2023,3,347,,Active,,,https://www.redfin.com/FL/Naples/3433-16th-Ave-SE-34120/home/177270657,NAPLESMLS,223088285,N,Y,26.260754,-81.538139
MLS Listing,,Single Family Residential,3421 16th Ave NE,Naples,FL,34120,689900,4,3.0,"NA44 - GGE 16-20, 23-25",1991,108900,2023,3,347,,Active,,,https://www.redfin.com/FL/Naples/3421-16th-Ave-Ne-34120/home/67485251,NAPLESMLS,223088280,N,Y,26.260749,-81.538642
MLS Listing,,Single Family Residential,6055 English Oaks Ln,Naples,FL,34119,2185000,4,3.0,NA22 - S/O Immokalee Rd W/O 951,2944,49658,2023,3,742,,Active,,,https://www.redfin.com/FL/Naples/6055-English-Oaks-Ln-34119/home/67489821,NAPLESMLS,223080578,N,Y,26.2470464,-81.7296625
MLS Listing,,Vacant Land,4665 4th Ave NE,Naples,FL,34120,185000,,,"NA44 - GGE 16-20, 23-25",,118918,,3,,,Active,,,https://www.redfin.com/FL/Naples/4665-4th-Ave-Ne-34120/home/67486317,NAPLESMLS,223089281,N,Y,26.239137,-81.51277
MLS Listing,,Single Family Residential,3280 3rd Ave NW,Naples,FL,34120,899000,3,2.0,NA41 - GGE 3-12,2037,108900,1989,3,441,,Active,,,https://www.redfin.com/FL/Naples/3280-3rd-Ave-NW-34120/home/67472644,NAPLESMLS,223088950,N,Y,26.2339237,-81.6730396
MLS Listing,,Condo/Co-op,9175 Celeste Dr Unit 2-202,Naples,FL,34113,385000,2,2.0,NA19 - Lely Area,1000,,2004,3,385,438,Active,,,https://www.redfin.com/FL/Naples/9175-Celeste-Dr-34113/unit-2-202/home/67397542,NAPLESMLS,223088942,N,Y,26.069456,-81.695877
MLS Listing,,Condo/Co-op,255 3rd Ave S #255,Naples,FL,34102,1250000,2,2.0,NA06 - Olde Naples Area,1150,,1965,3,1087,817,Active,,,https://www.redfin.com/FL/Naples/255-3rd-Ave-S-34102/unit-255/home/67542565,NAPLESMLS,223089263,N,Y,26.1433285,-81.8044528
MLS Listing,,Condo/Co-op,1701 Courtyard Way Unit A-106,Naples,FL,34112,249999,1,1.0,NA18 - N/O Rattlesnake Hammock,815,,1982,3,307,415,Active,December-9-2023 01:00 PM,December-9-2023 03:00 PM,https://www.redfin.com/FL/Naples/1701-Courtyard-Way-34112/unit-A-106/home/67554713,NAPLESMLS,223089246,N,Y,26.1363712,-81.7478945
MLS Listing,,Condo/Co-op,1701 Courtyard Way Unit A-105,Naples,FL,34112,279999,2,2.0,NA18 - N/O Rattlesnake Hammock,1072,,1982,3,261,423,Active,December-9-2023 01:00 PM,December-9-2023 03:00 PM,https://www.redfin.com/FL/Naples/1701-Courtyard-Way-34112/unit-A-105/home/67461738,NAPLESMLS,223089043,N,Y,26.1363712,-81.7478945
MLS Listing,,Single Family Residential,6026 Diamonte Pl,Ave Maria,FL,34142,750000,3,2.5,NA35 - E/O Wilson N/O 75,2395,6969,2021,3,313,606,Active,,,https://www.redfin.com/FL/Ave-Maria/6026-Diamonte-Pl-34142/home/175248901,NAPLESMLS,223089243,N,Y,26.312829,-81.4265034
MLS Listing,,Condo/Co-op,4451 Gulf Shore Blvd N #1605,Naples,FL,34103,2250000,3,3.0,NA05 - Crayton Rd Area,2030,,1986,3,1108,1611,Active,,,https://www.redfin.com/FL/Naples/4451-Gulf-Shore-Blvd-N-34103/unit-1605/home/67451381,NAPLESMLS,223082114,N,Y,26.201429,-81.8136438
MLS Listing,,Condo/Co-op,2150 Gulf Shore Blvd N #309,Naples,FL,34102,1295000,2,2.0,NA05 - Crayton Rd Area,1223,,1968,3,1059,1285,Active,,,https://www.redfin.com/FL/Naples/2150-Gulf-Shore-Blvd-N-34102/unit-309/home/67541968,NAPLESMLS,223088639,N,Y,26.1719771,-81.8111208
MLS Listing,,Mobile/Manufactured Home,39 Bass Ln #39,Naples,FL,34114,149000,1,1.0,NA38 - South of US41 East of 951,636,2613,1987,3,234,264,Active,,,https://www.redfin.com/FL/Naples/39-Bass-Ln-34114/unit-39/home/67494653,NAPLESMLS,223088986,N,Y,26.038467,-81.6673599
MLS Listing,,Single Family Residential,758 Mainsail Pl,Naples,FL,34110,739000,2,2.0,NA01 - N/O 111th Ave,2000,4791,1997,3,370,310,Active,,,https://www.redfin.com/FL/Naples/758-Mainsail-Pl-34110/home/67596510,NAPLESMLS,223089134,N,Y,26.2972036,-81.8080742
MLS Listing,,Condo/Co-op,1130 3rd Ave S #408,Naples,FL,34102,4495000,4,4.5,NA15 - E/O 41 W/O Goodlette,3358,,2023,3,1339,1356,Active,,,https://www.redfin.com/FL/Naples/1130-3rd-Ave-S-34102/unit-408/home/185461030,NAPLESMLS,223086445,N,Y,26.1443976,-81.7921019
MLS Listing,,Single Family Residential,106 Woodshire Ln,Naples,FL,34105,575000,3,3.0,NA16 - S/O Pine Ridge Rd,1875,2178,1985,3,307,361,Active,,,https://www.redfin.com/FL/Naples/106-Woodshire-Ln-34105/home/188800172,NAPLESMLS,223089139,N,Y,26.2093258,-81.7728869
MLS Listing,,Single Family Residential,9500 Montelanico Loop,Naples,FL,34119,1829000,3,3.0,NA21 - N/O Immokalee Rd E/O 75,2277,7840,2020,3,803,1035,Active,,,https://www.redfin.com/FL/Naples/9500-Montelanico-Loop-34119/home/173819297,NAPLESMLS,223088997,N,Y,26.2971363,-81.7009288
MLS Listing,,Mobile/Manufactured Home,388 Leopard Ln #388,Naples,FL,34114,225000,2,2.0,NA38 - South of US41 East of 951,960,4356,1987,3,234,264,Active,,,https://www.redfin.com/FL/Naples/388-Leopard-Ln-34114/unit-388/home/67494670,NAPLESMLS,223087538,N,Y,26.0377035,-81.6700126
MLS Listing,,Single Family Residential,287 Egret Ave,Naples,FL,34108,3975000,5,4.0,NA02 - Vanderbilt Beach Area,3523,9583,1999,3,1128,,Active,,,https://www.redfin.com/FL/Naples/287-Egret-Ave-34108/home/67553821,NAPLESMLS,223086764,N,Y,26.2692117,-81.8208367
MLS Listing,,Condo/Co-op,1550 Gulf Shore Blvd N Unit 5E,Naples,FL,34102,440000,1,1.5,NA05 - Crayton Rd Area,870,,1963,3,506,435,Active,,,https://www.redfin.com/FL/Naples/1550-Gulf-Shore-Blvd-N-34102/unit-E5/home/67446159,NAPLESMLS,223088808,N,Y,26.1643257,-81.8089054
MLS Listing,,Single Family Residential,9431 Foxglove Ln,Naples,FL,34120,800000,4,3.0,NA31 - S/O Immokalee Rd,2006,6098,2020,3,399,333,Active,,,https://www.redfin.com/FL/Naples/9431-Foxglove-Ln-34120/home/168008415,NAPLESMLS,223088922,N,Y,26.2669398,-81.6749434
MLS Listing,,Mobile/Manufactured Home,484 Cheetah Dr #484,Naples,FL,34114,193000,1,2.0,NA38 - South of US41 East of 951,900,2613,1991,3,214,264,Active,,,https://www.redfin.com/FL/Naples/484-Cheetah-Dr-34114/unit-484/home/67494964,NAPLESMLS,223087543,N,Y,26.0368792,-81.6696275
MLS Listing,,Single Family Residential,1422 2nd Ave S,Naples,FL,34102,6390000,4,4.5,NA06 - Olde Naples Area,2948,8276,2023,3,2168,1574,Active,,,https://www.redfin.com/FL/Naples/1422-2nd-Ave-S-34102/home/173812245,NAPLESMLS,223088716,N,Y,26.1461595,-81.7888694
MLS Listing,,Condo/Co-op,309 Goodlette-frank Rd S Unit 304A,Naples,FL,34102,1100000,2,2.0,NA16 - S/O Pine Ridge Rd,1100,,1979,3,1000,734,Active,,,https://www.redfin.com/FL/Naples/309-Goodlette-Frank-Rd-S-34102/unit-304A/home/67542502,NAPLESMLS,223089143,N,Y,26.14424,-81.788314
MLS Listing,,Vacant Land,342100 Golden Gate,Naples,FL,34120,395000,,,Golden Gate,,69260,,3,,,Active,,,https://www.redfin.com/FL/Naples/342100-Golden-Gate-34120/home/188798533,MARMLS,A11486462,N,Y,26.1420358,-81.7948103
MLS Listing,,Townhouse,1160 Clam Ct #3,Naples,FL,34102,1950000,3,3.5,VILLA ENSENADA,2089,,2007,3,933,1250,Active,,,https://www.redfin.com/FL/Naples/1160-Clam-Ct-34102/unit-3/home/67426127,MARMLS,A11494003,N,Y,26.1341045,-81.7860106
MLS Listing,,Vacant Land,12th Ave NE,Naples,FL,34120,199000,,,NAPLES,,118918,,3,,,Active,,,https://www.redfin.com/FL/Rural-Estates/12th-Ave-NE-34120/home/145300581,Stellar MLS as Distributed by MLS Grid,V4933451,N,Y,26.252845,-81.51413
MLS Listing,,Condo/Co-op,3093 Aviamar Cir Unit 7-203,Naples,FL,34114,789900,3,3.0,NA38 - South of US41 East of 951,2200,,2007,3,359,783,Active,,,https://www.redfin.com/FL/Naples/3093-Aviamar-Cir-34114/unit-7-203/home/67429876,NAPLESMLS,223087181,N,Y,26.0343474,-81.6696382
MLS Listing,,Single Family Residential,107 Cypress View Dr Unit C-71,Naples,FL,34113,439000,3,2.0,NA09 - South Naples Area,1794,3484,1986,3,245,1731,Active,,,https://www.redfin.com/FL/Naples/107-Cypress-View-Dr-34113/unit-C-71/home/67463309,NAPLESMLS,223089127,N,Y,26.0571269,-81.7042672
MLS Listing,,Single Family Residential,1830 Maywood Ct,Marco Island,FL,34145,1484000,3,2.0,MI01 - Marco Island,2024,10454,1993,3,733,,Active,,,https://www.redfin.com/FL/Marco-Island/1830-Maywood-Ct-34145/home/67578401,NAPLESMLS,222080675,N,Y,25.9377493,-81.6978923
MLS Listing,,Single Family Residential,65 Southport Cv,Bonita Springs,FL,34134,5750000,4,4.5,NA01 - N/O 111th Ave,4000,11761,2018,3,1438,248,Active,,,https://www.redfin.com/FL/Bonita-Springs/65-Southport-Cv-34134/home/67527120,NAPLESMLS,223082746,N,Y,26.326906,-81.83804
MLS Listing,,Condo/Co-op,400 Park Shore Dr #302,Naples,FL,34103,2795000,3,3.0,NA05 - Crayton Rd Area,1918,,1969,3,1457,1500,Active,,,https://www.redfin.com/FL/Naples/400-Park-Shore-Dr-34103/unit-302/home/67443755,NAPLESMLS,223088588,N,Y,26.195633,-81.808704
MLS Listing,,Condo/Co-op,355 Park Shore Dr Unit 1-114,Naples,FL,34103,1295000,2,2.0,NA05 - Crayton Rd Area,1574,,1984,3,823,1062,Active,,,https://www.redfin.com/FL/Naples/355-Park-Shore-Dr-34103/unit-1-114/home/67543905,NAPLESMLS,223089108,N,Y,26.1971663,-81.8094281
MLS Listing,,Condo/Co-op,106 Wilderness Dr Unit I-236,Naples,FL,34105,499000,2,2.0,NA15 - E/O 41 W/O Goodlette,1758,,1977,3,284,3657,Active,,,https://www.redfin.com/FL/Naples/106-Wilderness-Dr-34105/unit-I-236/home/188797776,NAPLESMLS,223087771,N,Y,26.1835817,-81.7864343
MLS Listing,,Single Family Residential,983 Tivoli Dr,Naples,FL,34104,2000000,5,3.5,NA17 - N/O Davis Blvd,3349,18730,2013,3,597,142,Active,December-10-2023 01:00 PM,December-10-2023 03:00 PM,https://www.redfin.com/FL/Naples/983-Tivoli-Dr-34104/home/67411938,NAPLESMLS,223088369,N,Y,26.1678167,-81.7431917
MLS Listing,,Single Family Residential,1300 Dolphin Rd,Naples,FL,34102,5775000,4,4.5,NA08 - Royal Harbor-Windstar Are,2509,13503,1969,3,2302,,Active,,,https://www.redfin.com/FL/Naples/1300-Dolphin-Rd-34102/home/67450831,NAPLESMLS,223086396,N,Y,26.1289538,-81.7862516
MLS Listing,,Single Family Residential,14633 Kelson Cir,Naples,FL,34114,1740000,3,4.0,NA37 - East Collier S/O 75 E/O 9,2585,,2020,3,673,523,Active,,,https://www.redfin.com/FL/Naples/14633-Kelson-Cir-34114/home/147454623,NAPLESMLS,223088932,N,Y,26.061726,-81.661215
MLS Listing,,Condo/Co-op,275 Cays Dr #2204,Naples,FL,34114,475000,2,2.0,NA39 - South of US41 East SR92,1382,,2003,3,344,430,Active,,,https://www.redfin.com/FL/Naples/275-Cays-Dr-34114/unit-2204/home/67403719,NAPLESMLS,223086594,N,Y,25.9578034,-81.506428
MLS Listing,,Condo/Co-op,265 Indies Way Unit Terrace 03,Naples,FL,34110,3649900,4,4.5,NA01 - N/O 111th Ave,4269,,2007,3,855,3822,Active,,,https://www.redfin.com/FL/Naples/265-Indies-Way-34110/unit-Terrace-03/home/188793430,NAPLESMLS,223086549,N,Y,26.278897,-81.8189268
MLS Listing,,Single Family Residential,12147 Colliers Reserve Dr,Naples,FL,34110,3299000,3,3.0,NA11 - N/O  Immokalee Rd W/O 75,3272,29620,1998,3,1008,1797,Active,,,https://www.redfin.com/FL/Naples/12147-Colliers-Reserve-Dr-34110/home/67460228,NAPLESMLS,223089027,N,Y,26.2864869,-81.7949239
MLS Listing,,Condo/Co-op,9566 Trevi Ct #4915,Naples,FL,34113,449999,2,2.0,NA09 - South Naples Area,1137,,2017,3,396,804,Active,,,https://www.redfin.com/FL/Naples/9566-Trevi-Ct-34113/unit-4915/home/118271159,NAPLESMLS,223089048,N,Y,26.084235,-81.7488763
MLS Listing,,Condo/Co-op,142 Palm Dr #3003,Naples,FL,34112,304900,2,2.0,NA18 - N/O Rattlesnake Hammock,1251,,1985,3,244,350,Active,,,https://www.redfin.com/FL/Naples/142-Palm-Dr-34112/unit-3003/home/67584790,NAPLESMLS,223089001,N,Y,26.1255249,-81.7611271
MLS Listing,,Single Family Residential,4558 20th St NE,Naples,FL,34120,355000,3,2.0,"NA43 - GGE 21-22, 36-38, 52-53,",1058,49658,1996,3,336,,Active,,,https://www.redfin.com/FL/Naples/4558-20th-St-NE-34120/home/67482049,NAPLESMLS,223089049,N,Y,26.3150897,-81.5678048
MLS Listing,,Single Family Residential,130 16th Ave NE,Naples,FL,34120,599900,3,2.0,"NA44 - GGE 16-20, 23-25",2237,49658,1999,3,268,,Active,,,https://www.redfin.com/FL/Naples/130-16th-Ave-NE-34120/home/67474916,NAPLESMLS,223089096,N,Y,26.2585218,-81.6044055
MLS Listing,,Vacant Land,38TH AVE SE,Naples,FL,34117,70000,,,"NA45 - GGE 13-14, 48-51",,49658,,3,,,Active,,,https://www.redfin.com/FL/Rural-Estates/38TH-AVE-SE-38th-Ave-SE-34117/home/179992972,NAPLESMLS,223088740,N,Y,26.1616296,-81.531296
MLS Listing,,Condo/Co-op,2280 Carrington Ct #203,Naples,FL,34109,439000,2,2.0,NA12 - N/O Vanderbilt Bch Rd W/O,1350,,1996,3,325,1325,Active,,,https://www.redfin.com/FL/Naples/2280-Carrington-Ct-34109/unit-203/home/67458352,NAPLESMLS,223088374,N,Y,26.2660144,-81.7715672
MLS Listing,,Vacant Land,41st Ave NW,Naples,FL,34120,89900,,,GOLDEN GATE ESTATES,,215622,,3,,,Active,,,https://www.redfin.com/FL/Rural-Estates/41st-Ave-NW-34120/home/62030002,FORTMLS,223089061,N,Y,26.307935,-81.63377
MLS Listing,,Condo/Co-op,195 Vintage Cir Unit E403,Naples,FL,34119,775000,3,3.0,NA14 - N/O Pine Ridge Rd and Vin,1738,,1996,3,446,796,Active,,,https://www.redfin.com/FL/Naples/195-Vintage-Cir-34119/unit-E403/home/67460531,NAPLESMLS,223089021,N,Y,26.2192185,-81.7336332
MLS Listing,,Vacant Land,2825 62nd Ave NE,Naples,FL,34120,165999,,,"NA43 - GGE 21-22, 36-38, 52-53,",,118918,,3,,,Active,,,https://www.redfin.com/FL/Naples/2825-62nd-Ave-NE-34120/home/67479356,NAPLESMLS,223087308,N,Y,26.346148,-81.552016
MLS Listing,,Condo/Co-op,2295 Carrington Ct #201,Naples,FL,34109,495000,2,2.0,NA12 - N/O Vanderbilt Bch Rd W/O,1213,,1996,3,408,1083,Active,,,https://www.redfin.com/FL/Naples/2295-Carrington-Ct-34109/unit-201/home/178669477,NAPLESMLS,223089022,N,Y,26.2664236,-81.7712167
MLS Listing,,Single Family Residential,5047 Jarvis Ln,Naples,FL,34119,750000,3,2.0,NA22 - S/O Immokalee Rd W/O 951,2181,8712,2000,3,344,468,Active,,,https://www.redfin.com/FL/Naples/5047-Jarvis-Ln-34119/home/67574139,NAPLESMLS,223084227,N,Y,26.2547521,-81.717948
MLS Listing,,Condo/Co-op,760 N Collier Blvd Unit 3-401,Marco Island,FL,34145,1375000,3,2.5,MI01 - Marco Island,1853,,2003,3,742,1167,Active,,,https://www.redfin.com/FL/Marco-Island/760-N-Collier-Blvd-34145/unit-3-401/home/67407335,NAPLESMLS,223086695,N,Y,25.9539819,-81.7287006
MLS Listing,,Vacant Land,4744 32nd Ave SE,Naples,FL,34117,99999,,,"NA45 - GGE 13-14, 48-51",,69260,,3,,,Active,,,https://www.redfin.com/FL/Naples/4744-32nd-Ave-Se-34117/home/67568834,NAPLESMLS,223087074,N,Y,26.171864,-81.5102749
MLS Listing,,Vacant Land,36th Ave SE,Naples,FL,34120,119999,,,"NA45 - GGE 13-14, 48-51",,98881,,3,,,Active,,,https://www.redfin.com/FL/Naples/36th-AVE-SE-34120/home/164863503,NAPLESMLS,223087089,N,Y,26.1420358,-81.7948103
MLS Listing,,Single Family Residential,341 Deauville Loop,Naples,FL,34114,627900,4,2.0,NA37 - East Collier S/O 75 E/O 9,2034,6969,2022,3,309,211,Active,,,https://www.redfin.com/FL/Naples/341-Deauville-Loop-34114/home/183267470,NAPLESMLS,223085876,N,Y,26.097881,-81.6798589
MLS Listing,,Vacant Land,28th Ave SE,Naples,FL,34120,149999,,,"NA45 - GGE 13-14, 48-51",,98881,,3,,,Active,,,https://www.redfin.com/FL/Naples/28th-AVE-SE-34120/home/172294538,NAPLESMLS,223087305,N,Y,26.1420358,-81.7948103
MLS Listing,,Vacant Land,34th Ave SE,Naples,FL,34120,109999,,,"NA45 - GGE 13-14, 48-51",,98881,,3,,,Active,,,https://www.redfin.com/FL/Naples/34th-Ave-SE-34120/home/147259197,NAPLESMLS,223087263,N,Y,26.1420358,-81.7948103
MLS Listing,,Single Family Residential,720 Cherry Blossom Ct,Naples,FL,34120,790000,3,2.0,NA34 - E/O Wilson N/O GG Blvd,1841,14374,1999,3,429,80,Active,,,https://www.redfin.com/FL/Naples/720-Cherry-Blossom-Ct-34120/home/67496490,NAPLESMLS,223089016,N,Y,26.2885067,-81.5937633
MLS Listing,,Single Family Residential,3515 24th Ave SE,Naples,FL,34117,649000,4,3.0,"NA45 - GGE 13-14, 48-51",2502,118918,2003,3,259,,Active,,,https://www.redfin.com/FL/Naples/3515-24th-Ave-SE-34117/home/67569011,BEARMLS,223089019,N,Y,26.1874373,-81.5356011
MLS Listing,,Condo/Co-op,760 N Collier Blvd #401,Marco Island,FL,34145,1375000,3,2.5,Esplanade II A Condo,1853,,2003,3,742,,Active,,,https://www.redfin.com/FL/Marco-Island/760-N-Collier-Blvd-34145/unit-401/home/71466904,MIML,2232290,N,Y,25.9539819,-81.7287006
MLS Listing,,Vacant Land,25050 State Rd 29,Other,FL,34137,29999,,,NA50 - East Collier S/O 75,,34848,,3,,,Active,,,https://www.redfin.com/FL/Ochopee/25050-State-Rd-29-34137/home/162344041,NAPLESMLS,223082000,N,Y,25.954189,-81.355634
MLS Listing,,Vacant Land,3950 Gordon Dr,Naples,FL,34102,25000000,,,NA07 - Port Royal-Aqualane Area,,,,3,,44,Active,,,https://www.redfin.com/FL/Naples/3950-Gordon-Dr-34102/home/67540767,NAPLESMLS,223073951,N,Y,26.1015312,-81.8021526
MLS Listing,,Single Family Residential,9111 Graphite Cir,Naples,FL,34120,1649000,3,2.0,NA21 - N/O Immokalee Rd E/O 75,2153,10890,2012,3,766,807,Active,,,https://www.redfin.com/FL/Naples/9111-Graphite-Cir-34120/home/67436215,NAPLESMLS,223086129,N,Y,26.2904242,-81.6736385
MLS Listing,,Vacant Land,30th Ave SE,Naples,FL,34120,69999,,,"NA45 - GGE 13-14, 48-51",,49658,,3,,,Active,,,https://www.redfin.com/FL/Naples/30th-Ave-SE-34120/home/147375135,NAPLESMLS,223084873,N,Y,26.1420358,-81.7948103
MLS Listing,,Single Family Residential,1236 Westlake Blvd,Naples,FL,34103,875000,3,2.0,NA15 - E/O 41 W/O Goodlette,1445,,1973,3,606,,Active,,,https://www.redfin.com/FL/Naples/1236-Westlake-Blvd-34103/home/67534487,NAPLESMLS,223081170,N,Y,26.2067766,-81.7958529
MLS Listing,,Condo/Co-op,6010 Pinnacle Ln #2404,Naples,FL,34110,755000,3,2.0,NA11 - N/O  Immokalee Rd W/O 75,2150,,2001,3,351,929,Active,,,https://www.redfin.com/FL/Naples/6010-Pinnacle-Ln-34110/unit-2404/home/67611074,NAPLESMLS,223082503,N,Y,26.3006164,-81.7472949
MLS Listing,,Vacant Land,4370 18th Ave NE,Naples,FL,34120,69999,,,"NA44 - GGE 16-20, 23-25",,49658,,3,,,Active,,,https://www.redfin.com/FL/Naples/4370-18th-Ave-Ne-34120/home/67484835,NAPLESMLS,223084897,N,Y,26.2627719,-81.519966
MLS Listing,,Single Family Residential,2332 Island Cove Cir,Naples,FL,34109,1195000,2,2.5,NA12 - N/O Vanderbilt Bch Rd W/O,2037,6534,1997,3,587,697,Active,,,https://www.redfin.com/FL/Naples/2332-Island-Cove-Cir-34109/home/67495126,NAPLESMLS,223085442,N,Y,26.2559426,-81.7775332
MLS Listing,,Vacant Land,4671 28th Ave SE,Naples,FL,34117,69999,,,"NA45 - GGE 13-14, 48-51",,49658,,3,,,Active,,,https://www.redfin.com/FL/Naples/4671-28th-Ave-Se-34117/home/67488694,NAPLESMLS,223084868,N,Y,26.180927,-81.5118169
MLS Listing,,Condo/Co-op,1065 Borghese Ln #2003,Naples,FL,34114,665000,3,2.5,MI01 - Marco Island,1865,,2006,3,357,1282,Active,,,https://www.redfin.com/FL/Naples/1065-Borghese-Ln-34114/unit-2003/home/67424307,NAPLESMLS,223088597,N,Y,25.995829,-81.697746
MLS Listing,,Condo/Co-op,9653 Montelanico Loop #101,Naples,FL,34119,820000,2,2.5,NA21 - N/O Immokalee Rd E/O 75,1956,,2019,3,419,827,Active,,,https://www.redfin.com/FL/Naples/9653-Montelanico-Loop-34119/unit-101/home/170585228,NAPLESMLS,223084415,N,Y,26.2971564,-81.69693
MLS Listing,,Single Family Residential,1442 Biscayne Way,Marco Island,FL,34145,1100000,4,2.0,MI01 - Marco Island,2004,8712,2004,3,549,,Active,,,https://www.redfin.com/FL/Marco-Island/1442-Biscayne-Way-34145/home/67503994,NAPLESMLS,223088656,N,Y,25.9311644,-81.7102086
MLS Listing,,Single Family Residential,635 Anchor Rode Dr,Naples,FL,34103,3800000,4,3.0,NA05 - Crayton Rd Area,3020,15681,1971,3,1258,,Active,,,https://www.redfin.com/FL/Naples/635-Anchor-Rode-Dr-34103/home/67448392,NAPLESMLS,223082305,N,Y,26.1879346,-81.8047908
MLS Listing,,Condo/Co-op,586 Laguna Royale Blvd #801,Naples,FL,34119,550000,2,2.0,NA14 - N/O Pine Ridge Rd and Vin,2003,,1996,3,275,833,Active,,,https://www.redfin.com/FL/Naples/586-Laguna-Royale-Blvd-34119/unit-801/home/67496606,NAPLESMLS,223088685,N,Y,26.2315094,-81.7338733
MLS Listing,,Single Family Residential,6672 Glen Arbor Way,Naples,FL,34119,1825000,4,3.5,NA14 - N/O Pine Ridge Rd and Vin,3635,21344,1993,3,502,385,Active,,,https://www.redfin.com/FL/Naples/6672-Glen-Arbor-Way-34119/home/67601173,NAPLESMLS,223088647,N,Y,26.2254221,-81.7204493
MLS Listing,,Condo/Co-op,7955 Mahogany Run Ln #513,Naples,FL,34113,699000,2,2.0,NA19 - Lely Area,1389,,2006,3,503,,Active,,,https://www.redfin.com/FL/Naples/7955-Mahogany-Run-Ln-34113/unit-513/home/67419699,BEARMLS,223088390,N,Y,26.085694,-81.698878
MLS Listing,,Single Family Residential,7565 Rozzini Ln,Naples,FL,34114,599000,2,2.0,NA37 - East Collier S/O 75 E/O 9,1540,,2005,3,389,420,Active,,,https://www.redfin.com/FL/Naples/7565-Rozzini-Ln-34114/home/67410748,NAPLESMLS,223087701,N,Y,26.0946065,-81.6754772
MLS Listing,,Single Family Residential,3120 Crayton Rd,Naples,FL,34103,6500000,5,5.5,NA05 - Crayton Rd Area,4036,15681,2017,3,1611,,Active,,,https://www.redfin.com/FL/Naples/3120-Crayton-Rd-34103/home/67542925,NAPLESMLS,223084445,N,Y,26.1839565,-81.8074482
MLS Listing,,Condo/Co-op,129 Wading Bird Cir Unit D-106,Naples,FL,34110,370000,2,2.0,NA11 - N/O  Immokalee Rd W/O 75,1101,,1991,3,336,313,Active,,,https://www.redfin.com/FL/Naples/129-Wading-Bird-Cir-34110/unit-D-106/home/67588185,NAPLESMLS,223087242,N,Y,26.2741149,-81.7737125
MLS Listing,,Condo/Co-op,10682 Gulf Shore Dr Unit C-201,Naples,FL,34108,1250000,3,2.0,NA02 - Vanderbilt Beach Area,1248,,1988,3,1002,997,Active,,,https://www.redfin.com/FL/Naples/10682-Gulf-Shore-Dr-34108/unit-C-201/home/67581921,NAPLESMLS,223087700,N,Y,26.2685138,-81.8248698
MLS Listing,,Single Family Residential,5943 Barthelemy Ave,Naples,FL,34113,2395000,3,3.5,NA09 - South Naples Area,2781,8712,2021,3,861,393,Active,,,https://www.redfin.com/FL/Naples/5943-Barthelemy-Ave-34113/home/146026042,NAPLESMLS,223082467,N,Y,26.0981854,-81.7647949
MLS Listing,,Single Family Residential,7358 Emilia Ln,Naples,FL,34114,549000,2,2.0,NA37 - East Collier S/O 75 E/O 9,1554,,2004,3,353,420,Active,,,https://www.redfin.com/FL/Naples/7358-Emilia-Ln-34114/home/67404708,NAPLESMLS,223087693,N,Y,26.092635,-81.6860156
MLS Listing,,Condo/Co-op,2375 Naples Trace Cir Unit 5-507,Naples,FL,34109,295000,2,2.0,NA12 - N/O Vanderbilt Bch Rd W/O,1000,,1990,3,295,325,Active,,,https://www.redfin.com/FL/Naples/2375-Naples-Trace-Cir-34109/unit-5-507/home/67512349,NAPLESMLS,223082306,N,Y,26.2696116,-81.7719945
MLS Listing,,Single Family Residential,2524 Kings Lake Blvd,Naples,FL,34112,930000,2,2.0,NA18 - N/O Rattlesnake Hammock,2039,13068,1985,3,456,,Active,December-8-2023 04:00 PM,December-8-2023 06:00 PM,https://www.redfin.com/FL/Naples/2524-Kings-Lake-Blvd-34112/home/67575634,BEARMLS,223086067,N,Y,26.1287715,-81.7431063
MLS Listing,,Single Family Residential,2125 Canna Way,Naples,FL,34105,13500000,6,7.5,NA16 - S/O Pine Ridge Rd,8676,36154,2005,3,1556,1746,Active,,,https://www.redfin.com/FL/Naples/2125-Canna-Way-34105/home/67608920,NAPLESMLS,223084647,N,Y,26.1819751,-81.7615687
MLS Listing,,Condo/Co-op,1105 Gayer Way Unit A-202,Marco Island,FL,34145,1379000,3,2.0,MI01 - Marco Island,1850,,1999,3,745,1200,Active,,,https://www.redfin.com/FL/Marco-Island/1105-Gayer-Way-34145/unit-A-202/home/67601394,NAPLESMLS,223078548,N,Y,25.9698153,-81.7286546
MLS Listing,,Single Family Residential,2832 44th St SW,Naples,FL,34116,499900,3,2.0,NA24 - Golden Gate City,1697,10018,1980,3,295,,Active,,,https://www.redfin.com/FL/Naples/2832-44th-St-SW-34116/home/67472503,NAPLESMLS,223087472,N,Y,26.1766436,-81.6948129
MLS Listing,,Single Family Residential,267 Cypress Way W,Naples,FL,34110,739900,3,2.0,NA11 - N/O  Immokalee Rd W/O 75,1795,11325,1970,4,412,,Active,,,https://www.redfin.com/FL/Naples/267-Cypress-Way-W-34110/home/67515052,NAPLESMLS,223088562,N,Y,26.2810925,-81.7841062
MLS Listing,,Single Family Residential,535 Turtle Hatch Rd,Naples,FL,34103,3300000,3,2.5,NA05 - Crayton Rd Area,2038,16988,1973,4,1619,,Active,,,https://www.redfin.com/FL/Naples/535-Turtle-Hatch-Rd-34103/home/67449833,NAPLESMLS,223088563,N,Y,26.1993048,-81.8054197
MLS Listing,,Single Family Residential,2207 Majestic Ct S,Naples,FL,34110,1100000,3,2.5,NA11 - N/O  Immokalee Rd W/O 75,2185,16988,1984,4,503,204,Active,,,https://www.redfin.com/FL/Naples/2207-Majestic-Ct-S-34110/home/67493914,NAPLESMLS,223087669,N,Y,26.2874127,-81.7784789
MLS Listing,,Condo/Co-op,3200 Gulf Shore Blvd N #115,Naples,FL,34103,750000,2,2.0,NA05 - Crayton Rd Area,1116,,1973,4,672,997,Active,,,https://www.redfin.com/FL/Naples/3200-Gulf-Shore-Blvd-N-34103/unit-115/home/67444206,NAPLESMLS,223086341,N,Y,26.1840125,-81.8132559
MLS Listing,,Condo/Co-op,850 S Collier Blvd #604,Marco Island,FL,34145,1850000,3,2.5,MI01 - Marco Island,2071,,1984,4,893,1611,Active,,,https://www.redfin.com/FL/Marco-Island/850-S-Collier-Blvd-34145/unit-604/home/67524192,NAPLESMLS,223087495,N,Y,25.9150095,-81.7280621
MLS Listing,,Single Family Residential,520 16 Ave NW,Other City - In The State Of Florida,FL,34120,749999,4,2.0,Golden Gate Estates,2000,118919,2001,4,375,,Active,,,https://www.redfin.com/FL/Naples/520-16th-Ave-NW-34120/home/67564080,MARMLS,A11494041,N,Y,26.258351,-81.6175294
MLS Listing,,Single Family Residential,3210 Randall Blvd,Naples,FL,34120,579900,3,2.0,"NA44 - GGE 16-20, 23-25",1715,69260,2023,4,338,,Active,December-9-2023 12:00 PM,December-9-2023 02:00 PM,https://www.redfin.com/FL/Naples/3210-Randall-Blvd-34120/home/67483774,NAPLESMLS,223088960,N,Y,26.277069,-81.5429879
MLS Listing,,Condo/Co-op,5930 Three Iron Dr #3202,Naples,FL,34110,674999,3,2.0,NA11 - N/O  Immokalee Rd W/O 75,1633,,2000,4,413,883,Active,,,https://www.redfin.com/FL/Naples/5930-Three-Iron-Dr-34110/unit-3202/home/67552876,NAPLESMLS,223088947,N,Y,26.2979189,-81.7449869
MLS Listing,,Single Family Residential,154 Tahiti Rd,Marco Island,FL,34145,1695000,3,3.0,MI01 - Marco Island,2250,8712,2024,4,753,,Active,,,https://www.redfin.com/FL/Marco-Island/154-Tahiti-Rd-34145/home/67500660,NAPLESMLS,223088940,N,Y,25.9405576,-81.7156819
MLS Listing,,Condo/Co-op,9394 Pocida Ct #204,Naples,FL,34119,648500,2,2.0,NA21 - N/O Immokalee Rd E/O 75,1528,,2019,4,424,879,Active,,,https://www.redfin.com/FL/Naples/9394-Pocida-Ct-34119/unit-204/home/175623453,NAPLESMLS,223087626,N,Y,26.2967976,-81.6986407
MLS Listing,,Mobile/Manufactured Home,109 Audubon Rd,Naples,FL,34114,424900,2,2.0,RIVERWOOD,1508,14374,1985,4,282,38,Active,,,https://www.redfin.com/FL/Naples/109-Audubon-Rd-34114/home/67591112,FORTMLS,223087526,N,Y,26.0500356,-81.6964809
MLS Listing,,Single Family Residential,112 1st Ave N,Naples,FL,34102,13325000,4,6.0,NA06 - Olde Naples Area,4531,14810,2019,4,2941,,Active,,,https://www.redfin.com/FL/Naples/112-1st-Ave-N-34102/home/67448603,NAPLESMLS,223087271,N,Y,26.1468803,-81.8065059
MLS Listing,,Single Family Residential,2118 Satsuma Ln,Naples,FL,34120,645000,4,2.0,NA34 - E/O Wilson N/O GG Blvd,2268,10018,2016,4,284,337,Active,,,https://www.redfin.com/FL/Naples/2118-Satsuma-Ln-34120/home/67422403,NAPLESMLS,223088518,N,Y,26.2904656,-81.5651698
MLS Listing,,Single Family Residential,9060 Mayreau Way,Naples,FL,34114,679995,2,2.0,NA37 - East Collier S/O 75 E/O 9,1575,,2023,4,432,408,Active,December-5-2023 11:00 AM,December-5-2023 05:00 PM,https://www.redfin.com/FL/Naples/9060-Mayreau-Way-34114/home/177260558,NAPLESMLS,223088920,N,Y,26.104246,-81.669145
MLS Listing,,Vacant Land,,Naples,FL,34114,1500000,,,,,3049,,4,,486,Active,,,https://www.redfin.com/FL/Naples/Undisclosed-address-34114/home/67433651,NAPLESMLS,223088784,N,Y,26.0541313,-81.6909955
MLS Listing,,Single Family Residential,6608 Cutty Sark Ln,Naples,FL,34104,700000,2,2.0,BERKSHIRE LAKES,1544,10454,1992,4,453,37,Active,,,https://www.redfin.com/FL/Naples/6608-Cutty-Sark-Ln-34104/home/67549320,FORTMLS,223087507,N,Y,26.1596219,-81.7344881
MLS Listing,,Condo/Co-op,7670 Meadow Lakes Dr #1501,Naples,FL,34104,426000,3,2.0,NA17 - N/O Davis Blvd,1311,,2002,4,325,551,Active,,,https://www.redfin.com/FL/Naples/7670-Meadow-Lakes-Dr-34104/unit-1501/home/67392465,NAPLESMLS,223088252,N,Y,26.1624545,-81.7151456
MLS Listing,,Vacant Land,1144 Galleon Dr,Naples,FL,34102,11500000,,,NA07 - Port Royal-Aqualane Area,,,,4,,66,Active,,,https://www.redfin.com/FL/Naples/1144-Galleon-Dr-34102/home/67450437,NAPLESMLS,223086550,N,Y,26.1150828,-81.7910263
MLS Listing,,Condo/Co-op,260 Barefoot Beach Blvd #201,Bonita Springs,FL,34134,2350000,3,3.0,NA01 - N/O 111th Ave,2003,,1992,4,1173,1382,Active,,,https://www.redfin.com/FL/Bonita-Springs/260-Barefoot-Beach-Blvd-34134/unit-201/home/67454459,NAPLESMLS,223088062,N,Y,26.315432,-81.838999
MLS Listing,,Single Family Residential,2475 Randall Blvd,Naples,FL,34120,475000,4,3.0,"NA44 - GGE 16-20, 23-25",1459,50965,1997,4,326,,Active,,,https://www.redfin.com/FL/Naples/2475-Randall-Blvd-34120/home/67484299,NAPLESMLS,223088601,N,Y,26.278488,-81.5580787
MLS Listing,,Single Family Residential,1709 Piedmont Ct,Marco Island,FL,34145,1875000,3,2.0,MI01 - Marco Island,2204,10890,1999,4,851,,Active,December-9-2023 01:00 PM,December-9-2023 04:00 PM,https://www.redfin.com/FL/Marco-Island/1709-Piedmont-Ct-34145/home/67578730,NAPLESMLS,223083159,N,Y,25.9490147,-81.7052267
MLS Listing,,Condo/Co-op,4692 Lakewood Blvd Unit K-9,Naples,FL,34112,375000,2,2.0,NA18 - N/O Rattlesnake Hammock,1410,,1979,4,266,406,Active,,,https://www.redfin.com/FL/Naples/4692-Lakewood-Blvd-34112/unit-K-9/home/67576600,NAPLESMLS,223088865,N,Y,26.133454,-81.7563739
MLS Listing,,Single Family Residential,4461 19th Pl SW,Naples,FL,34116,375000,3,2.0,GOLDEN GATE CITY UNIT 2,1384,10890,1967,4,271,,Active,,,https://www.redfin.com/FL/Naples/4461-19th-Pl-SW-34116/home/67561218,Stellar MLS as Distributed by MLS Grid,A4591071,N,Y,26.1921315,-81.6956683
MLS Listing,,Condo/Co-op,242 Newport Dr #502,Naples,FL,34114,450000,2,2.0,Sunset Cay Villas II,,,1997,4,,60,Active,,,https://www.redfin.com/FL/Naples/242-Newport-Dr-34114/unit-502/home/67595785,MARMLS,A11493754,N,Y,25.9528465,-81.5125594
MLS Listing,,Single Family Residential,2864 24th Ave NE,Naples,FL,34120,509999,3,2.0,"NA44 - GGE 16-20, 23-25",1519,49658,2023,4,336,,Active,,,https://www.redfin.com/FL/Naples/2864-24th-Ave-NE-34120/home/67567613,NAPLESMLS,223088753,N,Y,26.27333,-81.550154
MLS Listing,,Single Family Residential,6631 Monterey Pt,Naples,FL,34105,859900,2,3.0,NA16 - S/O Pine Ridge Rd,2244,8232,2012,4,383,361,Active,,,https://www.redfin.com/FL/Naples/6631-Monterey-Pt-34105/home/67434811,NAPLESMLS,223087763,N,Y,26.1955419,-81.7444614
MLS Listing,,Condo/Co-op,380 Seaview Ct #1912,Marco Island,FL,34145,1175000,2,2.0,MI01 - Marco Island,1099,,1981,4,1069,1772,Active,,,https://www.redfin.com/FL/Marco-Island/380-Seaview-Ct-34145/unit-1912/home/67595478,NAPLESMLS,223088806,N,Y,25.9450865,-81.7386453
MLS Listing,,Condo/Co-op,65 Silver Oaks Cir #202,Naples,FL,34119,565000,3,2.0,NA14 - N/O Pine Ridge Rd and Vin,1574,,1994,4,359,623,Active,,,https://www.redfin.com/FL/Naples/65-Silver-Oaks-Cir-34119/unit-202/home/67525419,NAPLESMLS,223087509,N,Y,26.2214054,-81.7300327
MLS Listing,,Vacant Land,122 Greenbrier St,Marco Island,FL,34145,599000,,,MI01 - Marco Island,,10890,,4,,,Active,,,https://www.redfin.com/FL/Marco-Island/122-Greenbrier-St-34145/home/67502573,NAPLESMLS,223088827,N,Y,25.939428,-81.730992
MLS Listing,,Mobile/Manufactured Home,240 Mcbeth Way,,FL,34137,248000,3,2.0,,1536,9583,1998,4,161,,Active,,,https://www.redfin.com/FL/Copeland/240-McBeth-Way-34137/home/67539510,NAPLESMLS,223088708,N,Y,25.941053,-81.363161
MLS Listing,,Condo/Co-op,900 S Collier Blvd #503,Marco Island,FL,34145,890000,1,1.0,MI01 - Marco Island,504,,1990,4,1766,1134,Active,,,https://www.redfin.com/FL/Marco-Island/900-S-Collier-Blvd-34145/unit-503/home/67547807,NAPLESMLS,223088186,N,Y,25.9130092,-81.7279704
MLS Listing,,Condo/Co-op,4041 Gulf Shore Blvd N #1002,Naples,FL,34103,2395000,2,3.0,NA05 - Crayton Rd Area,2160,,1983,4,1109,1839,Active,,,https://www.redfin.com/FL/Naples/4041-Gulf-Shore-Blvd-N-34103/unit-1002/home/67545014,NAPLESMLS,223088076,N,Y,26.1953612,-81.8145628
MLS Listing,,Vacant Land,7 Jasper Dr,Naples,FL,34114,79900,,,NA38 - South of US41 East of 951,,,,4,,157,Active,,,https://www.redfin.com/FL/Naples/7-Jasper-Dr-34114/home/188774412,NAPLESMLS,223088757,N,Y,26.0477325,-81.685835
MLS Listing,,Single Family Residential,4366 Caldera Cir,Naples,FL,34119,2150000,3,3.5,NA21 - N/O Immokalee Rd E/O 75,3072,13939,2017,4,700,403,Active,,,https://www.redfin.com/FL/Naples/4366-Caldera-Cir-34119/home/108228485,NAPLESMLS,223087437,N,Y,26.310107,-81.7149764
MLS Listing,,Vacant Land,3775 Cotton Green Path Dr,Naples,FL,34114,219000,,,NA38 - South of US41 East of 951,,6098,,4,,520,Active,,,https://www.redfin.com/FL/Naples/3775-Cotton-Green-Path-Dr-34114/home/67554078,NAPLESMLS,223088635,N,Y,26.0288062,-81.6828362
MLS Listing,,Single Family Residential,6160 Copper Leaf Ln,Naples,FL,34116,1160000,3,2.0,NA23 - S/O Pine Ridge Rd W/O 951,1971,98881,2000,4,589,,Active,,,https://www.redfin.com/FL/Naples/6160-Copper-Leaf-Ln-34116/home/67477448,NAPLESMLS,223087564,N,Y,26.1808707,-81.730774
MLS Listing,,Single Family Residential,5975 Green Blvd,Naples,FL,34116,1199000,3,2.0,NA23 - S/O Pine Ridge Rd W/O 951,1486,98881,1985,4,807,,Active,,,https://www.redfin.com/FL/Naples/5975-Green-Blvd-34116/home/67478330,NAPLESMLS,223088468,N,Y,26.1999217,-81.72667
MLS Listing,,Condo/Co-op,1206 Edington Pl Unit D202,Marco Island,FL,34145,599000,2,2.0,MI01 - Marco Island,1000,,1973,4,599,1006,Active,,,https://www.redfin.com/FL/Marco-Island/1206-Edington-Pl-34145/unit-D202/home/67532941,NAPLESMLS,223083985,N,Y,25.973942,-81.731706
MLS Listing,,Vacant Land,0 NE 40th St,Naples,FL,34120,160000,,,GOLDEN GATE EST UNIT 45,,101930,,4,,,Active,,,https://www.redfin.com/FL/Naples/Unknown-Unknown/home/67479930,MARMLS,A11493593,N,Y,26.328362,-81.527421
MLS Listing,,Single Family Residential,394 Leawood Cir,Naples,FL,34104,375000,2,2.0,NA17 - N/O Davis Blvd,1064,3484,2005,4,352,115,Active,,,https://www.redfin.com/FL/Naples/394-Leawood-Cir-34104/home/67605286,NAPLESMLS,223088437,N,Y,26.1486287,-81.7412947
MLS Listing,,Vacant Land,1959 Sheffield Ave,Marco Island,FL,34145,292000,,,MI01 - Marco Island,,10890,,4,,,Active,,,https://www.redfin.com/FL/Marco-Island/1959-Sheffield-Ave-34145/home/67502124,NAPLESMLS,223088684,N,Y,25.936966,-81.690683
MLS Listing,,Single Family Residential,6926 Wellington Dr,Naples,FL,34109,1650000,4,3.0,NA14 - N/O Pine Ridge Rd and Vin,2800,16117,1994,4,589,208,Active,,,https://www.redfin.com/FL/Naples/6926-Wellington-Dr-34109/home/67462351,NAPLESMLS,223088636,N,Y,26.232135,-81.7798556
MLS Listing,,Condo/Co-op,7240 Coventry Ct #320,Naples,FL,34104,340000,2,2.0,NA17 - N/O Davis Blvd,1032,,1990,4,329,962,Active,,,https://www.redfin.com/FL/Naples/7240-Coventry-Ct-34104/unit-320/home/67554318,NAPLESMLS,223087523,N,Y,26.1489545,-81.7226905
MLS Listing,,Single Family Residential,264 Henley Dr,Naples,FL,34104,849900,3,2.0,NA17 - N/O Davis Blvd,2640,26136,1989,4,322,45,Active,,,https://www.redfin.com/FL/Naples/264-Henley-Dr-34104/home/67549180,BEARMLS,223088663,N,Y,26.1583334,-81.7201072
MLS Listing,,Single Family Residential,4298 Washington Pl,Ave Maria,FL,34142,1035294,5,5.0,NA35 - E/O Wilson N/O 75,4269,8276,2023,4,243,277,Active,,,https://www.redfin.com/FL/Ave-Maria/4298-Washington-Pl-34142/home/183280662,BEARMLS,223088523,N,Y,26.3452373,-81.4350447
MLS Listing,,Condo/Co-op,1518 Oyster Catcher Pt Unit 1518C,Naples,FL,34105,415000,2,2.0,NAPLES BATH AND TENNIS CLUB,1214,,1986,4,342,590,Active,,,https://www.redfin.com/FL/Naples/1518-Oyster-Catcher-Pt-34105/unit-C/home/71505276,FORTMLS,223088571,N,Y,26.207547,-81.7722038
MLS Listing,,Single Family Residential,5337 19th Ave SW,Naples,FL,34116,270000,3,2.0,NA24 - Golden Gate City,1008,10018,1983,4,268,,Active,,,https://www.redfin.com/FL/Naples/5337-19th-Ave-SW-34116/home/67561946,NAPLESMLS,223088641,N,Y,26.193654,-81.7140998
MLS Listing,,Mobile/Manufactured Home,1753 Beverly Dr,Naples,FL,34114,305000,2,2.0,NA38 - South of US41 East of 951,1123,6969,1990,4,272,19,Active,,,https://www.redfin.com/FL/Naples/1753-Beverly-Dr-34114/home/67591095,NAPLESMLS,223087848,N,Y,26.0495123,-81.6945563
MLS Listing,,Condo/Co-op,380 Seaview Ct #912,Marco Island,FL,34145,1175000,2,2.0,South Seas Northwest Condo Apts Of Marco Isl,1099,,1981,4,1069,,Active,,,https://www.redfin.com/FL/Marco-Island/380-Seaview-Ct-34145/unit-912/home/71432006,MIML,2232279,N,Y,25.9450865,-81.7386453
MLS Listing,,Single Family Residential,3093 Fort Charles Dr,Naples,FL,34102,33500000,6,7.5,NA07 - Port Royal-Aqualane Area,11912,,1994,4,2812,66,Active,,,https://www.redfin.com/FL/Naples/3093-Fort-Charles-Dr-34102/home/67450643,NAPLESMLS,223086554,N,Y,26.1115505,-81.7977168
MLS Listing,,Single Family Residential,9605 Pavia Ct,Naples,FL,34113,4449000,4,4.5,NA09 - South Naples Area,4102,30056,2015,4,1085,878,Active,,,https://www.redfin.com/FL/Naples/9605-Pavia-Ct-34113/home/67430652,NAPLESMLS,223087546,N,Y,26.0802135,-81.7402852
MLS Listing,,Single Family Residential,,Naples,FL,34108,1250000,2,1.0,,836,55321,1959,4,1495,,Active,,,https://www.redfin.com/FL/Naples/Undisclosed-address-34108/home/67587669,NAPLESMLS,223088300,N,Y,26.2116812,-81.7958956
MLS Listing,,Single Family Residential,5422 Guadeloupe Way,Naples,FL,34119,619900,2,2.0,NA22 - S/O Immokalee Rd W/O 951,1540,4791,1999,4,403,482,Active,,,https://www.redfin.com/FL/Naples/5422-Guadeloupe-Way-34119/home/67495801,NAPLESMLS,223087555,N,Y,26.250002,-81.7157959
MLS Listing,,Condo/Co-op,4440 Botanical Place Cir #101,Naples,FL,34112,498000,3,3.5,NA08 - Royal Harbor-Windstar Are,1950,,2006,4,255,614,Active,,,https://www.redfin.com/FL/Naples/4440-Botanical-Place-Cir-34112/unit-101/home/67418812,NAPLESMLS,223087748,N,Y,26.1123232,-81.7679782
MLS Listing,,Condo/Co-op,17 Lanai Cir #17,Naples,FL,34112,399500,3,2.0,NA18 - N/O Rattlesnake Hammock,1462,,1971,4,273,270,Active,,,https://www.redfin.com/FL/Naples/17-Lanai-Cir-34112/unit-17/home/67577235,NAPLESMLS,223088577,N,Y,26.1115882,-81.7438852
MLS Listing,,Single Family Residential,5765 Mayflower Way,Ave Maria,FL,34142,439000,2,2.0,DEL WEBB,1577,5662,2015,4,278,416,Active,,,https://www.redfin.com/FL/Ave-Maria/5765-Mayflower-Way-34142/home/114091806,FORTMLS,223086775,N,Y,26.3168628,-81.4457307
MLS Listing,,Single Family Residential,452 Willet Ave,Naples,FL,34108,3795000,3,2.0,NA02 - Vanderbilt Beach Area,2143,,1993,4,1771,,Active,,,https://www.redfin.com/FL/Naples/452-Willet-Ave-34108/home/67553717,NAPLESMLS,223088328,N,Y,26.2628431,-81.818295
MLS Listing,,Single Family Residential,14727 Edgewater Cir,Naples,FL,34114,639888,2,2.0,NA37 - East Collier S/O 75 E/O 9,1515,4356,2020,5,422,443,Active,,,https://www.redfin.com/FL/Naples/14727-Edgewater-Cir-34114/home/144781790,NAPLESMLS,223087452,N,Y,26.057467,-81.654882
MLS Listing,,Condo/Co-op,219 Palm Dr Unit 219-2,Naples,FL,34112,290000,2,2.0,NA18 - N/O Rattlesnake Hammock,1215,,1973,5,239,965,Active,,,https://www.redfin.com/FL/Naples/219-Palm-Dr-34112/unit-219-2/home/67560386,NAPLESMLS,223088218,N,Y,26.1286564,-81.7601507
MLS Listing,,Single Family Residential,787 Anchor Rode Dr,Naples,FL,34103,3775000,4,3.0,NA05 - Crayton Rd Area,3664,17424,1978,5,1030,,Active,,,https://www.redfin.com/FL/Naples/787-Anchor-Rode-Dr-34103/home/67448402,NAPLESMLS,223085115,N,Y,26.1883379,-81.8023235
MLS Listing,,Single Family Residential,2817 30th Ave SE,Naples,FL,34117,559000,3,2.0,GOLDEN GATE ESTATES,1519,118918,2023,5,368,,Active,,,https://www.redfin.com/FL/Naples/2817-30th-Ave-SE-34117/home/67568927,FORTMLS,223088569,N,Y,26.176861,-81.550208
MLS Listing,,Single Family Residential,6749 Bent Grass Dr,Naples,FL,34113,995000,3,2.0,NA19 - Lely Area,1749,871,2003,5,569,,Active,,,https://www.redfin.com/FL/Naples/6749-Bent-Grass-Dr-34113/home/67392213,NAPLESMLS,223085552,N,Y,26.0851308,-81.7081988
MLS Listing,,Single Family Residential,1349 Serrano Cir,Naples,FL,34105,809000,3,2.5,NA16 - S/O Pine Ridge Rd,2324,5662,2007,5,348,292,Active,,,https://www.redfin.com/FL/Naples/1349-Serrano-Cir-34105/home/67417911,NAPLESMLS,223086101,N,Y,26.2047858,-81.7443244
MLS Listing,,Condo/Co-op,9213 Museo Cir Unit 9-201,Naples,FL,34114,949900,3,3.0,NA38 - South of US41 East of 951,3029,,2006,5,314,936,Active,,,https://www.redfin.com/FL/Naples/9213-Museo-Cir-34114/unit-9-201/home/67425331,NAPLESMLS,223087730,N,Y,26.0371985,-81.6729754
MLS Listing,,Condo/Co-op,600 L Ambiance Cir #6-101,Naples,FL,34108,795000,2,2.0,L'AMBIANCE GARDEN HOMES II A CONDO,1389,,1995,5,572,950,Active,December-9-2023 12:00 PM,December-9-2023 03:00 PM,https://www.redfin.com/FL/Naples/600-Lambiance-Cir-34108/home/67399631,Stellar MLS as Distributed by MLS Grid,T3488764,N,Y,26.2464743,-81.8030132
MLS Listing,,Single Family Residential,4421 Aurora St,Naples,FL,34119,1599000,4,4.0,NA21 - N/O Immokalee Rd E/O 75,3022,7840,2018,5,529,417,Active,,,https://www.redfin.com/FL/Naples/4421-Aurora-St-34119/home/144781494,NAPLESMLS,223088010,N,Y,26.3121307,-81.7210692
MLS Listing,,Condo/Co-op,505 5th Ave S,Naples,FL,34102,5300000,3,2.5,NA06 - Olde Naples Area,2620,,2019,5,2023,1732,Active,,,https://www.redfin.com/FL/Naples/505-5th-Ave-S-34102/home/188754845,NAPLESMLS,223087566,N,Y,26.1415541,-81.8001289
MLS Listing,,Single Family Residential,76 Gulfport Ct,Marco Island,FL,34145,1350000,3,2.0,MI01 - Marco Island,1469,8276,1979,5,919,,Active,,,https://www.redfin.com/FL/Marco-Island/76-Gulfport-Ct-34145/home/67578387,NAPLESMLS,223088028,N,Y,25.9374567,-81.7023828
MLS Listing,,Vacant Land,4874 Southern Breeze Dr,Naples,FL,34114,549000,,,NA38 - South of US41 East of 951,,5227,,5,,583,Active,,,https://www.redfin.com/FL/Naples/4874-Southern-Breeze-Dr-34114/home/67587918,NAPLESMLS,223088481,N,Y,26.035313,-81.6909527
MLS Listing,,Single Family Residential,981 10th Ave NE,Naples,FL,34120,930000,3,3.0,"NA44 - GGE 16-20, 23-25",2392,100623,2023,5,389,,Active,,,https://www.redfin.com/FL/Naples/981-10th-Ave-NE-34120/home/67475236,NAPLESMLS,223088314,N,Y,26.249305,-81.586919
MLS Listing,,Single Family Residential,9250 The Ln,Naples,FL,34109,5000000,4,3.5,NA12 - N/O Vanderbilt Bch Rd W/O,4399,44866,1996,5,1137,300,Active,,,https://www.redfin.com/FL/Naples/9250-The-Ln-34109/home/67463799,NAPLESMLS,223088368,N,Y,26.2689996,-81.7581501
MLS Listing,,Condo/Co-op,2318 Gulf Shore Blvd N #510,Naples,FL,34103,3800000,3,3.5,NA05 - Crayton Rd Area,2029,,1976,5,1873,2257,Active,,,https://www.redfin.com/FL/Naples/2318-Gulf-Shore-Blvd-N-34103/unit-510/home/67442011,NAPLESMLS,223082265,N,Y,26.17569,-81.814063
MLS Listing,,Condo/Co-op,1060 Borghese Ln #205,Naples,FL,34114,685000,2,2.5,NA38 - South of US41 East of 951,2346,,2004,5,292,2055,Active,,,https://www.redfin.com/FL/Naples/1060-Borghese-Ln-34114/unit-205/home/67406005,NAPLESMLS,223088320,N,Y,25.9943986,-81.6967522
MLS Listing,,Condo/Co-op,5620 Sherborn Dr #202,Naples,FL,34110,530000,3,2.0,NA11 - N/O  Immokalee Rd W/O 75,1928,,2004,5,275,656,Active,,,https://www.redfin.com/FL/Naples/5620-Sherborn-Dr-34110/unit-202/home/67407770,NAPLESMLS,223087537,N,Y,26.2812863,-81.7519175
MLS Listing,,Condo/Co-op,3980 Bishopwood Ct E Unit 4-102,Naples,FL,34114,455000,2,2.0,NA18 - N/O Rattlesnake Hammock,1417,,2003,5,321,950,Active,,,https://www.redfin.com/FL/Naples/3980-Bishopwood-Ct-E-34114/unit-4-102/home/67406375,NAPLESMLS,223086838,N,Y,26.1435506,-81.6770173
MLS Listing,,Single Family Residential,14740 Edgewater Cir,Naples,FL,34114,659000,2,2.0,NA37 - East Collier S/O 75 E/O 9,1519,4356,2019,5,434,443,Active,,,https://www.redfin.com/FL/Naples/14740-Edgewater-Cir-34114/home/144781871,NAPLESMLS,223086203,N,Y,26.057168,-81.6554309
MLS Listing,,Mobile/Manufactured Home,1004 Diamond Lake Cir,Naples,FL,34114,399000,2,2.0,NA38 - South of US41 East of 951,1288,,1995,5,310,274,Active,,,https://www.redfin.com/FL/Naples/1004-Diamond-Lake-Cir-34114/home/67525149,NAPLESMLS,223088419,N,Y,26.0388518,-81.698876
MLS Listing,,Vacant Land,44th St NE,Naples,FL,34120,142900,,,"NA43 - GGE 21-22, 36-38, 52-53,",,98881,,5,,,Active,,,https://www.redfin.com/FL/Rural-Estates/44th-St-NE-34120/home/144038756,BEARMLS,223088456,N,Y,26.327184,-81.520395
MLS Listing,,Condo/Co-op,4633 Bayshore Dr Unit M6,Naples,FL,34112,240000,2,2.0,NA09 - South Naples Area,886,,1982,5,271,330,Active,,,https://www.redfin.com/FL/Naples/4633-Bayshore-Dr-34112/unit-M6/home/67410962,BEARMLS,223087934,N,Y,26.1102077,-81.7680523
MLS Listing,,Single Family Residential,2345 8th Ave NE,Naples,FL,34120,895000,4,3.0,Golden Gate,2089,,2020,5,428,,Active,,,https://www.redfin.com/FL/Naples/2345-8th-Ave-NE-34120/home/67485719,MARMLS,A11493103,N,Y,26.245924,-81.5602229
MLS Listing,,Condo/Co-op,720 S Collier Blvd #506,Marco Island,FL,34145,999000,2,2.0,MI01 - Marco Island,1318,,1983,5,758,1348,Active,,,https://www.redfin.com/FL/Marco-Island/720-S-Collier-Blvd-34145/unit-506/home/67592771,NAPLESMLS,223082107,N,Y,25.9186959,-81.7280358
MLS Listing,,Condo/Co-op,591 Seaview Ct Unit A-509,Marco Island,FL,34145,675000,2,2.0,MI01 - Marco Island,964,,1980,5,700,867,Active,,,https://www.redfin.com/FL/Marco-Island/591-Seaview-Ct-34145/unit-A-509/home/67526514,NAPLESMLS,223088140,N,Y,25.9469745,-81.7372717
MLS Listing,,Single Family Residential,1060 Port Orange Way,Naples,FL,34120,540000,3,2.0,NA34 - E/O Wilson N/O GG Blvd,1872,10890,2003,5,288,227,Active,,,https://www.redfin.com/FL/Naples/1060-Port-Orange-Way-34120/home/67612736,NAPLESMLS,223084818,N,Y,26.3025631,-81.5902727
MLS Listing,,Condo/Co-op,498 Bristle Cone Ln #50,Naples,FL,34113,299000,2,2.0,NA19 - Lely Area,1129,,1979,5,265,367,Active,,,https://www.redfin.com/FL/Naples/498-Bristle-Cone-Ln-34113/unit-50/home/67573881,NAPLESMLS,223087799,N,Y,26.09988,-81.7324036
MLS Listing,,Condo/Co-op,1530 Mainsail Dr Unit 44-C,Naples,FL,34114,389900,2,2.0,NA38 - South of US41 East of 951,966,,1983,5,404,324,Active,,,https://www.redfin.com/FL/Naples/1530-Mainsail-Dr-34114/unit-44-C/home/67598149,NAPLESMLS,223087457,N,Y,25.999127,-81.685971
MLS Listing,,Condo/Co-op,112 Bob O Link Way Unit 12B,Naples,FL,34105,369000,2,2.0,NA16 - S/O Pine Ridge Rd,1235,,1975,5,299,516,Active,,,https://www.redfin.com/FL/Naples/112-Bob-O-Link-Way-34105/unit-12B/home/67582642,NAPLESMLS,223087667,N,Y,26.2025679,-81.7695377
MLS Listing,,Mobile/Manufactured Home,142 Flicker Ln,Everglades City,FL,34139,195000,3,2.0,NA39 - South of US41 East SR92,672,4791,1977,5,290,,Active,,,https://www.redfin.com/FL/Everglades-City/142-Flicker-Ln-34139/home/67539944,NAPLESMLS,223088342,N,Y,25.845967,-81.373087
MLS Listing,,Single Family Residential,12871 Brynwood Preserve Ln,Naples,FL,34105,849900,3,2.5,BRYNWOOD PRESERVE,2467,6969,2004,5,345,261,Active,,,https://www.redfin.com/FL/Naples/12871-Brynwood-Preserve-Ln-34105/home/67390885,FORTMLS,223088316,N,Y,26.2068711,-81.750141
MLS Listing,,Condo/Co-op,591 Seaview Ct #509,Marco Island,FL,34145,675000,2,2.0,South Seas North Condo Apts Of Marco Island,964,,1980,5,700,867,Active,,,https://www.redfin.com/FL/Marco-Island/591-Seaview-Ct-34145/unit-509/home/188753501,MIML,2232271,N,Y,25.9469745,-81.7372717
MLS Listing,,Condo/Co-op,4339 27th Ct SW Unit 7-104,Naples,FL,34116,214999,2,2.0,FAIRWAYS AT PAR ONE,735,,1983,5,293,419,Active,,,https://www.redfin.com/FL/Naples/4339-27th-Ct-SW-34116/unit-7-104/home/67558382,FORTMLS,223084267,N,Y,26.1776989,-81.6908779
MLS Listing,,Condo/Co-op,175 5th Ave S Unit 13 (204),Naples,FL,34102,1495000,2,2.0,NA06 - Olde Naples Area,735,,1964,5,2034,1133,Active,,,https://www.redfin.com/FL/Naples/175-5th-Ave-S-34102/unit-13/home/67410536,NAPLESMLS,223087489,N,Y,26.1410037,-81.8047241
MLS Listing,,Single Family Residential,911 Moon Ct,Marco Island,FL,34145,1650000,4,3.0,MI01 - Marco Island,2888,8712,1991,5,571,,Active,,,https://www.redfin.com/FL/Marco-Island/911-Moon-Ct-34145/home/67502836,NAPLESMLS,223087969,N,Y,25.9422117,-81.7269722
MLS Listing,,Single Family Residential,6418 Memorial Ln,Ave Maria,FL,34142,467565,2,2.0,NA35 - E/O Wilson N/O 75,1602,13068,2023,5,292,419,Active,,,https://www.redfin.com/FL/Immokalee/6418-Memorial-Ln-34142/home/188469644,BEARMLS,223088187,N,Y,26.31272,-81.4356514
MLS Listing,,Condo/Co-op,6300 Pelican Bay Blvd Unit A-106,Naples,FL,34108,1200000,3,2.5,NA04 - Pelican Bay Area,2378,,1983,5,505,1498,Active,,,https://www.redfin.com/FL/Naples/6300-Pelican-Bay-Blvd-34108/unit-A-106/home/67493830,NAPLESMLS,223087767,N,Y,26.2252707,-81.8101182
MLS Listing,,Single Family Residential,240 Copperfield Ct,Marco Island,FL,34145,2899000,4,4.5,MI01 - Marco Island,3308,8712,2005,5,876,,Active,,,https://www.redfin.com/FL/Marco-Island/240-Copperfield-Ct-34145/home/67502794,NAPLESMLS,223088265,N,Y,25.941964,-81.7277206
MLS Listing,,Condo/Co-op,185 Santa Clara Dr #15,Naples,FL,34104,249900,1,1.0,NA17 - N/O Davis Blvd,727,,1987,5,344,406,Active,,,https://www.redfin.com/FL/Naples/185-Santa-Clara-Dr-34104/unit-15/home/67416419,NAPLESMLS,223084057,N,Y,26.1488647,-81.7177835
MLS Listing,,Single Family Residential,840 96th Ave N,Naples,FL,34108,1095000,3,2.0,NA03 - Naples Park Area,1831,6534,2000,5,598,,Active,,,https://www.redfin.com/FL/Naples/840-96th-Ave-N-34108/home/67584284,NAPLESMLS,223088071,N,Y,26.2585613,-81.8033271
MLS Listing,,Condo/Co-op,167 N Collier Blvd Unit L2,Marco Island,FL,34145,315000,1,1.0,MI01 - Marco Island,508,,1972,5,620,459,Active,,,https://www.redfin.com/FL/Marco-Island/167-N-Collier-Blvd-34145/unit-L2/home/67453190,NAPLESMLS,223088065,N,Y,25.9406093,-81.731794
MLS Listing,,Single Family Residential,3720 Parkview Way,Naples,FL,34103,2490000,3,3.5,NA05 - Crayton Rd Area,2200,13068,1979,5,1132,,Active,,,https://www.redfin.com/FL/Naples/3720-Parkview-Way-34103/home/67449578,NAPLESMLS,223088175,N,Y,26.1903985,-81.8043094
MLS Listing,,Condo/Co-op,2000 Royal Marco Way #607,Marco Island,FL,34145,1800000,2,3.5,MI01 - Marco Island,2180,,1990,5,826,3419,Active,,,https://www.redfin.com/FL/Marco-Island/2000-Royal-Marco-Way-34145/unit-607/home/79774925,NAPLESMLS,223088293,N,Y,25.9696175,-81.7395493
MLS Listing,,Single Family Residential,625 Dorando Ct,Marco Island,fl,34145,1950000,3,2.0,MI01 - Marco Island,2124,10890,1990,5,918,,Active,,,https://www.redfin.com/FL/Marco-Island/625-Dorando-Ct-34145/home/67504588,NAPLESMLS,223082237,N,Y,25.9533446,-81.7330752
MLS Listing,,Single Family Residential,9479 Galliano Ter,Naples,FL,34119,2299000,3,3.5,NA21 - N/O Immokalee Rd E/O 75,2848,11325,2017,5,807,977,Active,,,https://www.redfin.com/FL/Naples/9479-Galliano-Ter-34119/home/113053473,NAPLESMLS,223087560,N,Y,26.2977295,-81.6960625
MLS Listing,,Single Family Residential,1650 Triangle Palm Ter,Naples,FL,34119,730000,4,2.5,NA21 - N/O Immokalee Rd E/O 75,2200,5227,2005,5,332,608,Active,,,https://www.redfin.com/FL/Naples/1650-Triangle-Palm-Ter-34119/home/67402066,NAPLESMLS,223088154,N,Y,26.2591253,-81.7183328
MLS Listing,,Condo/Co-op,410 Bayfront Pl #2501,Naples,FL,34102,1348000,3,2.0,NA16 - S/O Pine Ridge Rd,1633,,2000,5,825,1632,Active,,,https://www.redfin.com/FL/Naples/410-Bayfront-Pl-34102/unit-2501/home/67540021,NAPLESMLS,223088042,N,Y,26.1439739,-81.7896461
MLS Listing,,Single Family Residential,3303 Ibiza Ln,Naples,FL,34114,2900000,4,4.5,NA38 - South of US41 East of 951,2802,10890,2018,6,1035,725,Active,,,https://www.redfin.com/FL/Naples/3303-Ibiza-Ln-34114/home/67440664,NAPLESMLS,223069707,N,Y,26.01945,-81.67147
MLS Listing,,Single Family Residential,4465 12th St NE,Other City - In The State Of Florida,FL,34120,485000,3,2.0,Golden Gate Estate Unit 59,,,1998,6,,,Active,,,https://www.redfin.com/FL/Naples/4465-12th-St-NE-34120/home/67566994,MARMLS,A11492785,N,Y,26.3133081,-81.584983
MLS Listing,,Condo/Co-op,8165 Sanctuary Dr Unit 71-1,Naples,FL,34104,529900,3,2.0,NA17 - N/O Davis Blvd,1742,,2005,6,304,608,Active,,,https://www.redfin.com/FL/Naples/8165-Sanctuary-Dr-34104/unit-71-1/home/67414677,NAPLESMLS,223088072,N,Y,26.1625965,-81.7062317
MLS Listing,,Condo/Co-op,3625 Boca Ciega Dr #106,Naples,FL,34112,239000,1,1.0,NA18 - N/O Rattlesnake Hammock,650,,1979,6,368,438,Active,,,https://www.redfin.com/FL/Naples/3625-Boca-Ciega-Dr-34112/unit-106/home/67576075,NAPLESMLS,223088223,N,Y,26.1149404,-81.7515087
MLS Listing,,Single Family Residential,738 97th Ave N,Naples,FL,34108,1995000,4,2.0,NA03 - Naples Park Area,1682,6534,1988,6,1186,,Active,,,https://www.redfin.com/FL/Naples/738-97th-Ave-N-34108/home/67511257,NAPLESMLS,223088221,N,Y,26.2594999,-81.8076364
MLS Listing,,Condo/Co-op,3425 Laurel Greens Ln S #203,Naples,FL,34119,452900,3,2.0,NA21 - N/O Immokalee Rd E/O 75,1708,,2005,6,265,955,Active,,,https://www.redfin.com/FL/Naples/3425-Laurel-Greens-Ln-S-34119/unit-203/home/67413249,NAPLESMLS,223087396,N,Y,26.2890148,-81.7406699
MLS Listing,,Condo/Co-op,2738 Tiburon Blvd E Unit B-401,Naples,FL,34109,679900,1,2.0,NA12 - N/O Vanderbilt Bch Rd W/O,1120,,2002,6,607,1333,Active,,,https://www.redfin.com/FL/Naples/2738-Tiburon-Blvd-E-34109/unit-B-401/home/67403850,BEARMLS,223087996,N,Y,26.2514067,-81.762186
MLS Listing,,Condo/Co-op,6015 Ellerston Way #921,Ave Maria,FL,34142,459900,3,2.0,NA35 - E/O Wilson N/O 75,2110,,2022,6,218,1039,Active,,,https://www.redfin.com/FL/Ave-Maria/6015-Ellerston-Way-34142/unit-921/home/182698839,NAPLESMLS,223088196,N,Y,26.3113191,-81.4195849
MLS Listing,,Condo/Co-op,3317 Timberwood Cir,Naples,FL,34105,300000,2,2.0,NA16 - S/O Pine Ridge Rd,1175,,1987,6,255,570,Active,,,https://www.redfin.com/FL/Naples/3317-Timberwood-Cir-34105/home/67441322,NAPLESMLS,223087899,N,Y,26.2013683,-81.7665422
MLS Listing,,Single Family Residential,1452 Mockingbird Dr,Naples,FL,34120,1399990,3,4.0,NA31 - S/O Immokalee Rd,2565,11761,2018,6,546,407,Active,,,https://www.redfin.com/FL/Naples/1452-Mockingbird-Dr-34120/home/142584871,NAPLESMLS,223088198,N,Y,26.2520678,-81.6664721
MLS Listing,,Condo/Co-op,6666 Alden Woods Cir #102,Naples,FL,34113,579990,2,2.0,NA19 - Lely Area,1657,,2008,6,350,912,Active,,,https://www.redfin.com/FL/Naples/6666-Alden-Woods-Cir-34113/unit-102/home/67432193,NAPLESMLS,223087666,N,Y,26.0908588,-81.7036937
MLS Listing,,Condo/Co-op,6320 Pelican Bay Blvd Unit T-7,Naples,FL,34108,790000,2,2.5,NA04 - Pelican Bay Area,1439,,1984,6,549,1498,Active,,,https://www.redfin.com/FL/Naples/6320-Pelican-Bay-Blvd-34108/unit-T-7/home/67606022,NAPLESMLS,223087850,N,Y,26.2267167,-81.8098063
MLS Listing,,Condo/Co-op,326 Newport Dr #1705,Naples,FL,34114,399000,2,2.0,NA39 - South of US41 East SR92,1116,,2004,6,358,694,Active,,,https://www.redfin.com/FL/Naples/326-Newport-Dr-34114/unit-1705/home/67408703,NAPLESMLS,223087922,N,Y,25.956382,-81.5130524
MLS Listing,,Condo/Co-op,4200 Belair Ln #109,Naples,FL,34103,890000,3,2.0,NA05 - Crayton Rd Area,1485,,1975,6,599,587,Active,,,https://www.redfin.com/FL/Naples/4200-Belair-Ln-34103/unit-109/home/67445388,NAPLESMLS,223085430,N,Y,26.2010843,-81.8043179
MLS Listing,,Condo/Co-op,2555 Tamiami Trl N #129,Naples,FL,34103,174999,1,1.0,NA05 - Crayton Rd Area,279,,1970,6,627,475,Active,,,https://www.redfin.com/FL/Naples/2555-Tamiami-Trl-N-34103/unit-129/home/67541525,NAPLESMLS,223084756,N,Y,26.1778599,-81.8004213
MLS Listing,,Single Family Residential,493 Willet Ave,Naples,FL,34108,3900000,3,2.0,NA02 - Vanderbilt Beach Area,2146,10018,1961,6,1817,,Active,,,https://www.redfin.com/FL/Naples/493-Willet-Ave-34108/home/67553724,NAPLESMLS,223079455,N,Y,26.2633516,-81.8176369
MLS Listing,,Single Family Residential,621 105th,Naples,FL,34108,2345000,3,3.0,NA03 - Naples Park Area,2000,6534,2023,6,1173,,Active,,,https://www.redfin.com/FL/Naples/621-105th-Ave-N-34108/home/67510517,NAPLESMLS,223088160,N,Y,26.2671467,-81.8125513
MLS Listing,,Single Family Residential,1440 Salvadore Ct,Marco Island,FL,34145,3299000,4,3.0,MI01 - Marco Island,2945,18730,1989,6,1120,,Active,,,https://www.redfin.com/FL/Marco-Island/1440-Salvadore-Ct-34145/home/67504216,NAPLESMLS,223088167,N,Y,25.9208778,-81.7103583
MLS Listing,,Vacant Land,2370 16th Ave NE,Naples,FL,34120,139900,,,"NA44 - GGE 16-20, 23-25",,98881,,6,,,Active,,,https://www.redfin.com/FL/Naples/2370-16th-Ave-Ne-34120/home/67567773,NAPLESMLS,223087777,N,Y,26.2586939,-81.559906
MLS Listing,,Single Family Residential,3608 Sapphire Cove Cir,Naples,FL,34114,984000,3,2.0,NA37 - East Collier S/O 75 E/O 9,1915,11761,2023,6,514,245,Active,,,https://www.redfin.com/FL/Naples/3608-Sapphire-Cove-Cir-34114/home/173819550,NAPLESMLS,223088139,N,Y,26.116968,-81.679641
MLS Listing,,Single Family Residential,380 Trade Winds Ave,Naples,FL,34108,8750000,5,6.0,NA02 - Vanderbilt Beach Area,4350,9147,2018,6,2011,,Active,,,https://www.redfin.com/FL/Naples/380-Trade-Winds-Ave-34108/home/67553704,NAPLESMLS,223079456,N,Y,26.2616824,-81.8192137
MLS Listing,,Condo/Co-op,218 Newport Dr #701,Naples,FL,34114,474900,3,2.0,NA39 - South of US41 East SR92,1321,,1996,6,360,667,Active,,,https://www.redfin.com/FL/Naples/218-Newport-Dr-34114/unit-701/home/67528085,NAPLESMLS,223087927,N,Y,25.9515623,-81.5127416
MLS Listing,,Condo/Co-op,975 Sandpiper St Unit A-102,Naples,FL,34102,989000,2,2.0,NA08 - Royal Harbor-Windstar Are,1307,,2006,6,757,1180,Active,,,https://www.redfin.com/FL/Naples/975-Sandpiper-St-34102/unit-A-102/home/67426383,NAPLESMLS,223086693,N,Y,26.1367102,-81.7823482
MLS Listing,,Vacant Land,506 Copeland Ave N,Everglades City,FL,34139,95000,,,NA39 - South of US41 East SR92,,12196,,6,,,Active,,,https://www.redfin.com/FL/Everglades-City/506-Copeland-Ave-N-34139/home/67603288,NAPLESMLS,223088099,N,Y,25.864735,-81.3845149
MLS Listing,,Condo/Co-op,197 Harrison Rd #3,Naples,FL,34112,329900,2,2.0,NA18 - N/O Rattlesnake Hammock,1188,,1972,6,278,971,Active,,,https://www.redfin.com/FL/Naples/197-Harrison-Rd-34112/unit-3/home/188740777,NAPLESMLS,223087347,N,Y,26.1268188,-81.7572697
MLS Listing,,Condo/Co-op,8600 Cedar Hammock Cir #1316,Naples,FL,34112,375000,2,2.0,NA18 - N/O Rattlesnake Hammock,1232,,2002,6,304,1037,Active,,,https://www.redfin.com/FL/Naples/8600-Cedar-Hammock-Cir-34112/unit-1316/home/67604458,NAPLESMLS,223088088,N,Y,26.1418143,-81.700608
MLS Listing,,Single Family Residential,13466 Sumter Ln,Naples,FL,34109,895000,3,2.0,NA14 - N/O Pine Ridge Rd and Vin,1837,5227,2015,6,487,559,Active,,,https://www.redfin.com/FL/Naples/13466-Sumter-Ln-34109/home/108225935,NAPLESMLS,223082861,N,Y,26.2249418,-81.761351
MLS Listing,,Moorage,801 River Point Dr,Naples,FL,34102,700,,,NA06 - Olde Naples Area,,,2015,6,,,Active,,,https://www.redfin.com/FL/Naples/801-River-Point-Dr-34102/home/67395088,NAPLESMLS,223088135,N,Y,26.1399976,-81.788345
MLS Listing,,Single Family Residential,2440 22nd Ave NE,Naples,FL,34120,435000,3,2.0,"NA44 - GGE 16-20, 23-25",1230,49658,2000,6,354,,Active,,,https://www.redfin.com/FL/Naples/2440-22nd-Ave-NE-34120/home/67567684,NAPLESMLS,223087663,N,Y,26.2699924,-81.5584215
MLS Listing,,Vacant Land,609 Spinnaker Dr,Other City - In The State Of Florida,FL,34145,1595000,,,MARCO BEACH,,8276,,6,,,Active,,,https://www.redfin.com/FL/Marco-Island/609-Spinnaker-Dr-34145/home/67505422,MARMLS,A11492465,N,Y,25.952157,-81.746008
MLS Listing,,Single Family Residential,715 Hideaway Circle West,Other City - In The State Of Florida,FL,34145,2495000,4,4.0,HIDEAWAY BEACH ASSOCIATION,3132,16988,1998,6,797,1571,Active,,,https://www.redfin.com/FL/Marco-Island/715-Hideaway-Cir-W-34145/home/67492632,MARMLS,A11492382,N,Y,25.9560734,-81.7455596
MLS Listing,,Vacant Land,508 Buckner Ave N,Everglades City,FL,34139,130000,,,NA39 - South of US41 East SR92,,12632,,6,,,Active,,,https://www.redfin.com/FL/Everglades-City/508-Buckner-Ave-N-34139/home/67603738,NAPLESMLS,223088059,N,Y,25.8651519,-81.383411
MLS Listing,,Single Family Residential,15809 Savona Way,Naples,FL,34110,6495000,5,6.0,NA11 - N/O  Immokalee Rd W/O 75,6000,24829,2005,6,1083,985,Active,,,https://www.redfin.com/FL/Naples/15809-Savona-Way-34110/home/67581632,NAPLESMLS,223084326,N,Y,26.3115128,-81.7659485
MLS Listing,,Single Family Residential,9107 Sahalee Ct,Naples,FL,34113,2995000,4,3.5,NA19 - Lely Area,3159,12632,2006,6,948,712,Active,,,https://www.redfin.com/FL/Naples/9107-Sahalee-Ct-34113/home/67413791,NAPLESMLS,223087254,N,Y,26.0813468,-81.7153184
MLS Listing,,Condo/Co-op,4940 Cougar Ct S Unit 5-201,Naples,FL,34109,400000,2,2.0,NA21 - N/O Immokalee Rd E/O 75,1377,,2004,6,290,343,Active,,,https://www.redfin.com/FL/Naples/4940-Cougar-Ct-S-34109/unit-5-201/home/67404180,NAPLESMLS,223087283,N,Y,26.2707776,-81.7523712
MLS Listing,,Condo/Co-op,410 Bayfront Pl #2307,Naples,FL,34102,998000,2,2.0,NA16 - S/O Pine Ridge Rd,1344,,2000,6,743,1632,Active,,,https://www.redfin.com/FL/Naples/410-Bayfront-Pl-34102/unit-2307/home/67605615,NAPLESMLS,223087995,N,Y,26.1439739,-81.7896461
MLS Listing,,Condo/Co-op,780 5th Ave S #3,Naples,FL,34102,2900000,2,2.5,NA06 - Olde Naples Area,1800,,2001,6,1611,1075,Active,,,https://www.redfin.com/FL/Naples/780-5th-Ave-S-34102/unit-3/home/67607010,NAPLESMLS,223087893,N,Y,26.1415369,-81.7965794
MLS Listing,,Vacant Land,,Naples,FL,34114,269000,,,,,3049,,6,,,Active,,,https://www.redfin.com/FL/Naples/Undisclosed-address-34114/home/67433695,NAPLESMLS,223087992,N,Y,26.054916,-81.688306
MLS Listing,,Condo/Co-op,1594 Oceania Dr S Unit 2-102,Naples,FL,34113,628000,2,2.0,NA09 - South Naples Area,1833,,2016,6,343,883,Active,,,https://www.redfin.com/FL/Naples/1594-Oceania-Dr-S-34113/unit-2-102/home/112803958,NAPLESMLS,223085827,N,Y,26.051637,-81.713031
MLS Listing,,Condo/Co-op,5875 Cobblestone Ln Unit D106,Naples,FL,34112,400000,2,2.0,NA18 - N/O Rattlesnake Hammock,1350,,1990,6,296,1087,Active,,,https://www.redfin.com/FL/Naples/5875-Cobblestone-Ln-34112/unit-D106/home/67552774,NAPLESMLS,223087462,N,Y,26.1169919,-81.7246396
MLS Listing,,Single Family Residential,3376 8th Ave SE,Naples,FL,34117,565000,3,2.0,"NA45 - GGE 13-14, 48-51",1637,49658,2022,6,345,,Active,,,https://www.redfin.com/FL/Naples/3376-8th-Ave-SE-34117/home/67605041,NAPLESMLS,223087955,N,Y,26.215131,-81.538698
MLS Listing,,Single Family Residential,850 Eubanks Ct,Marco Island,FL,34145,7950000,6,8.0,MI01 - Marco Island,8326,48351,1989,6,955,,Active,,,https://www.redfin.com/FL/Marco-Island/850-Eubanks-Ct-34145/home/67505023,NAPLESMLS,223086199,N,Y,25.9145183,-81.7082202
MLS Listing,,Single Family Residential,1433 Redona Way,Naples,FL,34113,1250000,4,3.5,NA09 - South Naples Area,2420,8712,2016,6,517,358,Active,,,https://www.redfin.com/FL/Naples/1433-Redona-Way-34113/home/108226613,NAPLESMLS,223053191,N,Y,26.05648,-81.7192735
MLS Listing,,Single Family Residential,6921 Bent Grass Dr,Naples,FL,34113,889000,3,2.0,NA19 - Lely Area,1672,6969,2004,6,532,620,Active,,,https://www.redfin.com/FL/Naples/6921-Bent-Grass-Dr-34113/home/67400686,NAPLESMLS,223085830,N,Y,26.0895932,-81.7082771
MLS Listing,,Moorage,5025 Bonita Beach Rd,Bonita Springs,FL,34134,63000,,,NA01 - N/O 111th Ave,,,1996,6,,,Active,,,https://www.redfin.com/FL/Bonita-Springs/5025-Bonita-Beach-Rd-SW-34134/home/62091119,NAPLESMLS,223011846,N,Y,26.3298694,-81.8355856
MLS Listing,,Single Family Residential,509 Echo Cir,Marco Island,FL,34145,3300000,4,4.0,MI01 - Marco Island,3769,14810,2021,6,876,,Active,,,https://www.redfin.com/FL/Marco-Island/509-Echo-Cir-34145/home/67500800,NAPLESMLS,223087400,N,Y,25.9505726,-81.717606
MLS Listing,,Single Family Residential,7296 Lantana Cir,Naples,FL,34119,1349900,3,2.0,NA21 - N/O Immokalee Rd E/O 75,2327,9583,2013,6,580,835,Active,,,https://www.redfin.com/FL/Naples/7296-Lantana-Cir-34119/home/67438062,NAPLESMLS,223085417,N,Y,26.2760085,-81.717251
MLS Listing,,Condo/Co-op,1206 Edington Pl Unit D304,Marco Island,FL,34145,600000,2,2.0,MI01 - Marco Island,1000,,1973,6,600,984,Active,,,https://www.redfin.com/FL/Marco-Island/1206-Edington-Pl-34145/unit-D304/home/67532939,NAPLESMLS,223087286,N,Y,25.973942,-81.731706
MLS Listing,,Condo/Co-op,263 Barefoot Beach Blvd #301,Bonita Springs,FL,34134,3795000,3,3.0,NA01 - N/O 111th Ave,2307,,1991,6,1645,1382,Active,,,https://www.redfin.com/FL/Bonita-Springs/263-Barefoot-Beach-Blvd-34134/unit-301/home/67454409,NAPLESMLS,223087826,N,Y,26.314817,-81.838696
MLS Listing,,Townhouse,7587 Morgan Way,Naples,FL,34119,515000,3,2.5,NA22 - S/O Immokalee Rd W/O 951,1643,3484,2021,7,313,399,Active,,,https://www.redfin.com/FL/Naples/7587-Morgan-Way-34119/home/147454770,NAPLESMLS,223087344,N,Y,26.2488442,-81.6997313
MLS Listing,,Condo/Co-op,5213 Treetops Dr Unit I-O-4,Naples,FL,34113,199900,1,1.0,TREETOPS OF NAPLES,576,720,1980,7,347,506,Active,,,https://www.redfin.com/FL/Naples/5213-Treetops-Dr-34113/unit-I-O-4/home/67529779,Stellar MLS as Distributed by MLS Grid,D6133541,N,Y,26.0801217,-81.7259075
MLS Listing,,Condo/Co-op,13675 Vanderbilt Dr Unit I-610,Naples,FL,34110,3999000,3,4.0,NA01 - N/O 111th Ave,3963,,2008,7,1009,2896,Active,,,https://www.redfin.com/FL/Naples/13675-Vanderbilt-Dr-34110/unit-I-610/home/67433234,NAPLESMLS,223084748,N,Y,26.2952091,-81.8198398
MLS Listing,,Single Family Residential,360 Lagoon Ave,Naples,FL,34108,5750000,3,4.0,NA02 - Vanderbilt Beach Area,3993,9583,2002,7,1440,,Active,,,https://www.redfin.com/FL/Naples/360-Lagoon-Ave-34108/home/67553691,NAPLESMLS,223087622,N,Y,26.260601,-81.8194743
MLS Listing,,Single Family Residential,6714 Canwick Cove Cir Cir,Naples,FL,34113,1850000,3,3.0,NA19 - Lely Area,2637,8712,2014,7,702,909,Active,,,https://www.redfin.com/FL/Naples/6714-Canwick-Cove-Cir-34113/home/67438813,NAPLESMLS,223086063,N,Y,26.0936011,-81.7051423
MLS Listing,,Single Family Residential,5140 Taylor Dr,Ave Maria,FL,34142,695000,5,3.5,NA35 - E/O Wilson N/O 75,3018,9583,2007,7,230,316,Active,,,https://www.redfin.com/FL/Ave-Maria/5140-Taylor-Dr-34142/home/67425603,NAPLESMLS,223087796,N,Y,26.3320441,-81.4371048
MLS Listing,,Single Family Residential,149 Sharwood Dr,Naples,FL,34110,1127000,3,2.0,PALM RIVER ESTATES,1846,11761,1979,7,611,25,Active,,,https://www.redfin.com/FL/Naples/149-Sharwood-Dr-34110/home/67515465,FORTMLS,223087867,N,Y,26.273596,-81.7819703
MLS Listing,,Condo/Co-op,1714 Kings Lake Blvd Unit 2-202,Naples,FL,34112,339900,2,2.0,GREENFIELD VILLAGE,962,,1985,7,353,492,Active,,,https://www.redfin.com/FL/Naples/1714-Kings-Lake-Blvd-34112/unit-2-202/home/67491121,FORTMLS,223087573,N,Y,26.1362986,-81.7451698
MLS Listing,,Single Family Residential,13675 Vanderbilt Dr #1105,Naples,FL,34110,6200000,3,3.5,NA01 - N/O 111th Ave,4969,,2008,7,1248,4008,Active,,,https://www.redfin.com/FL/Naples/13675-Vanderbilt-Dr-34110/unit-1105/home/67433319,NAPLESMLS,223087862,N,Y,26.2952091,-81.8198398
MLS Listing,,Vacant Land,1013 W Inlet Dr,Marco Island,FL,34145,5872500,,,MI01 - Marco Island,,26136,,7,,,Active,,,https://www.redfin.com/FL/Marco-Island/1013-E-Inlet-Dr-34145/home/67505084,NAPLESMLS,223072209,N,Y,25.910016,-81.699136
MLS Listing,,Single Family Residential,291 Heron Ave,Naples,FL,34108,3499000,4,3.0,Conner's Vanderbilt BCH,2527,9583,1978,7,1385,,Active,,,https://www.redfin.com/FL/Naples/291-Heron-Ave-34108/home/67553846,MARMLS,A11491711,N,Y,26.2702762,-81.8208351
MLS Listing,,Condo/Co-op,911 Huron Ct #7,Marco Island,FL,34145,579000,2,2.5,MI01 - Marco Island,1138,,1974,7,509,972,Active,,,https://www.redfin.com/FL/Marco-Island/911-Huron-Ct-34145/unit-7/home/67493838,NAPLESMLS,223087818,N,Y,25.9132914,-81.7220862
MLS Listing,,Single Family Residential,5109 Salerno St,Ave Maria,FL,34142,599000,3,3.0,NA35 - E/O Wilson N/O 75,2900,10018,2016,7,207,267,Active,,,https://www.redfin.com/FL/Ave-Maria/5109-Salerno-St-34142/home/108229078,NAPLESMLS,223087772,N,Y,26.3320853,-81.4301518
MLS Listing,,Condo/Co-op,608 Arbor Lake Dr Unit 6-105,Naples,FL,34110,725000,3,2.0,NA01 - N/O 111th Ave,1960,,1991,7,370,3298,Active,,,https://www.redfin.com/FL/Naples/608-Arbor-Lake-Dr-34110/unit-6-105/home/67453334,NAPLESMLS,223084349,N,Y,26.302201,-81.820706
MLS Listing,,Condo/Co-op,349 Dover Pl Unit B-203,Naples,FL,34104,394900,2,2.0,NA17 - N/O Davis Blvd,1635,,2000,7,242,832,Active,,,https://www.redfin.com/FL/Naples/349-Dover-Pl-34104/unit-B-203/home/67556922,NAPLESMLS,223087822,N,Y,26.1551637,-81.7477317
MLS Listing,,Vacant Land,17994 Bluewater Dr,Naples,FL,34114,249900,,,NA38 - South of US41 East of 951,,20037,,7,,42,Active,,,https://www.redfin.com/FL/Naples/17994-Bluewater-Dr-34114/home/67522806,NAPLESMLS,223085649,N,Y,26.0064959,-81.627826
MLS Listing,,Single Family Residential,6992 Saona Ct,Naples,FL,34113,706990,2,2.0,NA09 - South Naples Area,1309,,2022,7,540,780,Active,,,https://www.redfin.com/FL/Naples/6992-Saona-Ct-34113/home/183241281,BEARMLS,223087832,N,Y,26.097197,-81.740047
MLS Listing,,Single Family Residential,2011 21st St SW,Naples,FL,34117,589000,4,2.0,"NA42 - GGE 15, 27-28, 193-195",2281,118918,1984,7,258,,Active,,,https://www.redfin.com/FL/Naples/2011-21st-St-SW-34117/home/67490308,NAPLESMLS,223086545,N,Y,26.1925962,-81.6491628
MLS Listing,,Single Family Residential,1114 Tranquil Brook Dr,Naples,FL,34114,559000,2,2.0,NA38 - South of US41 East of 951,1503,34848,2022,7,372,145,Active,,,https://www.redfin.com/FL/Naples/1114-Tranquil-Brook-Dr-34114/home/177268670,NAPLESMLS,223077410,N,Y,26.046155,-81.694473
MLS Listing,,Single Family Residential,960 17th Ave S,Naples,FL,34102,29500000,4,5.5,NA07 - Port Royal-Aqualane Area,6861,48787,2014,7,4300,,Active,,,https://www.redfin.com/FL/Naples/960-17th-Ave-S-34102/home/67435289,NAPLESMLS,223085294,N,Y,26.1274334,-81.7918165
MLS Listing,,Single Family Residential,15213 Butler Lake Dr #201,Naples,FL,34109,754999,3,2.0,NA12 - N/O Vanderbilt Bch Rd W/O,2152,,2015,7,351,439,Active,,,https://www.redfin.com/FL/Naples/15213-Butler-Lake-Dr-34109/unit-201/home/88838533,NAPLESMLS,223087561,N,Y,26.2677929,-81.7483206
MLS Listing,,Condo/Co-op,4615 Bayshore Dr Unit E6,Naples,FL,34112,257000,2,2.0,NA09 - South Naples Area,886,,1982,7,290,330,Active,,,https://www.redfin.com/FL/Naples/4615-Bayshore-Dr-34112/unit-E6/home/67410620,NAPLESMLS,223084785,N,Y,26.1104299,-81.7696523
MLS Listing,,Condo/Co-op,6830 Beach Resort Dr #2608,Naples,FL,34114,439900,2,2.0,NA37 - East Collier S/O 75 E/O 9,1351,,2002,7,326,543,Active,,,https://www.redfin.com/FL/Naples/6830-Beach-Resort-Dr-34114/unit-2608/home/67608775,NAPLESMLS,223086980,N,Y,26.0631746,-81.6955389
MLS Listing,,Condo/Co-op,1351 Curlew Ave #102,Naples,FL,34102,819000,2,2.0,NA08 - Royal Harbor-Windstar Are,1100,22651,1979,7,745,667,Active,,,https://www.redfin.com/FL/Naples/1351-Curlew-Ave-34102/unit-102/home/67444330,NAPLESMLS,223087096,N,Y,26.1379136,-81.787545
MLS Listing,,Condo/Co-op,15 Bluebill Ave #706,Naples,FL,34108,869000,2,2.0,NA02 - Vanderbilt Beach Area,1493,,1982,7,582,1200,Active,,,https://www.redfin.com/FL/Naples/15-Bluebill-Ave-34108/unit-706/home/67598858,NAPLESMLS,223085661,N,Y,26.2767929,-81.8254676
MLS Listing,,Condo/Co-op,3820 Sawgrass Way #3042,Naples,FL,34112,365000,2,2.0,NA18 - N/O Rattlesnake Hammock,1232,,2003,7,296,1168,Active,,,https://www.redfin.com/FL/Naples/3820-Sawgrass-Way-34112/unit-3042/home/67408763,NAPLESMLS,223086489,N,Y,26.1427373,-81.6911987
MLS Listing,,Condo/Co-op,750 W Elkcam Cir #317,Marco Island,FL,34145,588000,2,2.0,MI01 - Marco Island,990,,1987,7,594,730,Active,,,https://www.redfin.com/FL/Marco-Island/750-W-Elkcam-Cir-34145/unit-317/home/67594908,NAPLESMLS,223087458,N,Y,25.9574435,-81.7281429
MLS Listing,,Single Family Residential,,Naples,FL,34120,599000,3,2.0,,1903,98881,2023,7,315,,Active,,,https://www.redfin.com/FL/Naples/Undisclosed-address-34120/home/67486319,NAPLESMLS,223087740,N,Y,26.235511,-81.512217
MLS Listing,,Single Family Residential,3603 Grand Cypress Dr,Naples,FL,34119,695000,3,2.0,NA21 - N/O Immokalee Rd E/O 75,1988,,2005,7,350,756,Active,,,https://www.redfin.com/FL/Naples/3603-Grand-Cypress-Dr-34119/home/67406825,NAPLESMLS,223085482,N,Y,26.2976911,-81.7382548
MLS Listing,,Condo/Co-op,4000 Royal Marco Way #922,Marco Island,FL,34145,4250000,3,3.0,MI01 - Marco Island,4274,,1996,7,994,3986,Active,,,https://www.redfin.com/FL/Marco-Island/4000-Royal-Marco-Way-34145/unit-922/home/67522531,NAPLESMLS,223084901,N,Y,25.9703458,-81.7378024
MLS Listing,,Single Family Residential,2201 Longboat Dr,Naples,FL,34104,1999000,3,3.0,NA17 - N/O Davis Blvd,2385,10890,1975,7,838,38,Active,,,https://www.redfin.com/FL/Naples/2201-Longboat-Dr-34104/home/67553129,NAPLESMLS,223086292,N,Y,26.1674653,-81.7781561
MLS Listing,,Condo/Co-op,180 Seaview Ct #904,Marco Island,FL,34145,465000,1,1.5,MI01 - Marco Island,590,,1973,7,788,782,Active,,,https://www.redfin.com/FL/Marco-Island/180-Seaview-Ct-34145/unit-904/home/67597310,NAPLESMLS,223087133,N,Y,25.9408646,-81.7354763
MLS Listing,,Single Family Residential,10500 Heritage Bay Blvd,Naples,FL,34120,1100000,3,2.0,NA21 - N/O Immokalee Rd E/O 75,1997,6969,2008,7,551,827,Active,,,https://www.redfin.com/FL/Naples/10500-Heritage-Bay-Blvd-34120/home/67420322,NAPLESMLS,223079546,N,Y,26.2907754,-81.6591321
MLS Listing,,Condo/Co-op,460 Launch Cir #602,Naples,FL,34108,1350000,3,2.0,NA02 - Vanderbilt Beach Area,1480,,1999,7,912,1296,Active,,,https://www.redfin.com/FL/Naples/460-Launch-Cir-34108/unit-602/home/67590541,NAPLESMLS,223084336,N,Y,26.2537213,-81.8175033
MLS Listing,,Single Family Residential,1008 Tranquil Brook Dr,Naples,FL,34114,472900,2,2.0,NA38 - South of US41 East of 951,1503,10890,2023,7,315,145,Active,,,https://www.redfin.com/FL/Naples/1008-Tranquil-Brook-Dr-34114/home/177268725,NAPLESMLS,223085857,N,Y,26.043578,-81.6945173
MLS Listing,,Single Family Residential,1004 Tranquil Brook Dr,Naples,FL,34114,472900,2,2.0,NA38 - South of US41 East of 951,1503,10890,2022,7,315,145,Active,,,https://www.redfin.com/FL/Naples/1004-Tranquil-Brook-Dr-34114/home/177268726,NAPLESMLS,223085839,N,Y,26.0434829,-81.694487
MLS Listing,,Single Family Residential,1257 22nd Ave N,Naples,FL,34103,1200000,3,1.0,NA15 - E/O 41 W/O Goodlette,1430,10454,1967,7,839,,Active,,,https://www.redfin.com/FL/Naples/1257-22nd-Ave-N-34103/home/67447106,NAPLESMLS,223086320,N,Y,26.1745081,-81.7939825
MLS Listing,,Condo/Co-op,8231 Bay Colony Dr #302,Naples,FL,34108,5400000,2,3.0,NA04 - Pelican Bay Area,2760,,1994,7,1957,2115,Active,,,https://www.redfin.com/FL/Naples/8231-Bay-Colony-Dr-34108/unit-302/home/67550638,NAPLESMLS,223075879,N,Y,26.2469689,-81.8212586
MLS Listing,,Single Family Residential,10742 Regent Cir #805,Naples,FL,34109,379000,2,2.0,NA12 - N/O Vanderbilt Bch Rd W/O,1169,,1987,7,324,530,Active,,,https://www.redfin.com/FL/Naples/10742-Regent-Cir-34109/unit-805/home/67520532,NAPLESMLS,223087587,N,Y,26.2701718,-81.7629584
MLS Listing,,Condo/Co-op,1125 Central Ave #268,Naples,FL,34102,3495000,3,3.5,NA15 - E/O 41 W/O Goodlette,2539,,2023,7,1377,839,Active,,,https://www.redfin.com/FL/Naples/1125-Central-Ave-34102/unit-268/home/177025792,NAPLESMLS,223087492,N,Y,26.149184,-81.7923689
MLS Listing,,Single Family Residential,324 Capistrano Ct,Marco Island,FL,34145,1450000,4,2.0,MI01 - Marco Island,1905,9583,1998,7,761,,Active,,,https://www.redfin.com/FL/Marco-Island/324-Capistrano-Ct-34145/home/67579703,NAPLESMLS,223086360,N,Y,25.9448471,-81.7225229
MLS Listing,,Single Family Residential,143 Saxon St,Marco Island,FL,34145,1699000,3,3.0,MI01 - Marco Island,2355,8712,2020,7,721,,Active,,,https://www.redfin.com/FL/Marco-Island/143-Saxon-St-34145/home/67580926,NAPLESMLS,223087634,N,Y,25.9341339,-81.7112135
MLS Listing,,Single Family Residential,844 101st Ave N,Naples,FL,34108,2850000,4,4.5,NA03 - Naples Park Area,3017,10018,2023,7,945,,Active,,,https://www.redfin.com/FL/Naples/844-101st-Ave-N-34108/home/108226913,NAPLESMLS,223079158,N,Y,26.2630084,-81.8034552
MLS Listing,,Condo/Co-op,180 Seaview Ct #706,Marco Island,FL,34145,500000,1,1.5,MI01 - Marco Island,590,,1973,7,847,1073,Active,,,https://www.redfin.com/FL/Marco-Island/180-Seaview-Ct-34145/unit-706/home/67597290,NAPLESMLS,223087210,N,Y,25.9408646,-81.7354763
MLS Listing,,Single Family Residential,1103 Medan Ct S #41,Naples,FL,34113,510000,3,2.5,NA09 - South Naples Area,1696,,2007,7,301,461,Active,,,https://www.redfin.com/FL/Naples/1103-Medan-Ct-S-34113/unit-41/home/67432021,NAPLESMLS,223086664,N,Y,26.0561073,-81.7111921
MLS Listing,,Single Family Residential,161 Venus Cay,Naples,FL,34114,1150000,3,2.0,NA39 - South of US41 East SR92,1830,13068,1993,7,628,,Active,,,https://www.redfin.com/FL/Naples/161-Venus-Cay-34114/home/67588649,NAPLESMLS,223087180,N,Y,25.9532379,-81.5079073
MLS Listing,,Condo/Co-op,4611 Bayshore Dr Unit O2,Naples,FL,34112,259000,2,2.0,NA09 - South Naples Area,886,,1982,7,292,330,Active,,,https://www.redfin.com/FL/Naples/4611-Bayshore-Dr-34112/unit-O2/home/67410947,NAPLESMLS,223087407,N,Y,26.110436,-81.768211
MLS Listing,,Condo/Co-op,15547 Monterosso Ln #202,Naples,FL,34110,1949000,3,3.0,NA21 - N/O Immokalee Rd E/O 75,2685,,2003,7,726,1826,Active,,,https://www.redfin.com/FL/Naples/15547-Monterosso-Ln-34110/unit-202/home/67613067,NAPLESMLS,223085379,N,Y,26.306049,-81.7651518
MLS Listing,,Condo/Co-op,5741 Deauville Cir Unit F208,Naples,FL,34112,349900,3,2.0,NA18 - N/O Rattlesnake Hammock,1427,,1992,7,245,564,Active,,,https://www.redfin.com/FL/Naples/5741-Deauville-Cir-34112/unit-F208/home/67556328,NAPLESMLS,223086265,N,Y,26.1176528,-81.7262413
