SALE TYPE,SOLD DATE,PROPERTY TYPE,ADDRESS,CITY,STATE OR PROVINCE,ZIP OR POSTAL CODE,PRICE,BEDS,BATHS,LOCATION,SQUARE FEET,LOT SIZE,YEAR BUILT,DAYS ON MARKET,$/SQUARE FEET,HOA/MONTH,STATUS,NEXT OPEN HOUSE START TIME,NEXT OPEN HOUSE END TIME,URL (SEE https://www.redfin.com/buy-a-home/comparative-market-analysis FOR INFO ON PRICING),SOURCE,MLS#,FAVORITE,INTERESTED,LATITUDE,LONGITUDE
"In accordance with local MLS rules, some MLS listings are not included in the download"
MLS Listing,,Vacant Land,1300 S Ocean Shore Blvd,Flagler Beach,FL,32136,1500000,,,FUQUAY SUB,,13504,,166,,,Active,,,https://www.redfin.com/FL/Flagler-Beach/1300-S-Ocean-Shore-Blvd-32136/home/137238718,Stellar MLS as Distributed by MLS Grid,O6117071,N,Y,29.471972,-81.123362
MLS Listing,,Single Family Residential,2 Burrell Pl,Palm Coast,FL,32137,549000,3,2.0,PALM COAST SEC 35,1980,22521,1995,1,277,,Active,,,https://www.redfin.com/FL/Palm-Coast/2-Burrell-Pl-32137/home/113587077,Stellar MLS as Distributed by MLS Grid,FC296498,N,Y,29.5865226,-81.249345
MLS Listing,,Single Family Residential,181 Island Estates Pkwy,Palm Coast,FL,32137,1890000,4,3.5,HAMMOCK DUNES,3712,38381,2014,1,509,434,Active,,,https://www.redfin.com/FL/Palm-Coast/181-Island-Estates-Pkwy-32137/home/137130914,Stellar MLS as Distributed by MLS Grid,FC296515,N,Y,29.5355995,-81.1578236
MLS Listing,,Vacant Land,54 Canopy Walk Ln,Palm Coast,FL,32137,25000,,,PALM COAST,,,,1,,85,Active,,,https://www.redfin.com/FL/Palm-Coast/54-Canopy-Walk-Ln-32137/home/180025862,Stellar MLS as Distributed by MLS Grid,FC296527,N,Y,29.566731,-81.1893341
MLS Listing,,Single Family Residential,2268 S Ocean Shore Blvd,Flagler Beach,FL,32136,2000000,4,4.5,MORNINGSIDE SUB,3772,9916,2024,1,530,,Active,,,https://www.redfin.com/FL/Flagler-Beach/2268-S-Ocean-Shore-Blvd-32136/home/137179057,Stellar MLS as Distributed by MLS Grid,FC296523,N,Y,29.4542865,-81.1151471
MLS Listing,,Single Family Residential,53 Felwood Ln,Palm Coast,FL,32137,519900,3,2.0,PALM HARBOR,1797,10019,2019,2,289,,Active,,,https://www.redfin.com/FL/Palm-Coast/53-Felwood-Ln-32137/home/108498931,Stellar MLS as Distributed by MLS Grid,FC296453,N,Y,29.5857123,-81.2333602
MLS Listing,,Single Family Residential,25 Freneau Ln,Palm Coast,FL,32137,367000,3,2.0,Palm Harbor,1570,,1996,2,234,,Active,,,https://www.redfin.com/FL/Palm-Coast/25-Freneau-Ln-32137/home/136761420,Daytona MLS,1116809,N,Y,29.5808275,-81.2349093
MLS Listing,,Vacant Land,4 Upland Pl,Palm Coast,FL,32164,58900,,,PALM COAST SEC 57,,10193,,2,,,Active,,,https://www.redfin.com/FL/Palm-Coast/4-Upland-Pl-32164/home/137248504,Stellar MLS as Distributed by MLS Grid,FC296434,N,Y,29.4458816,-81.1788719
MLS Listing,,Single Family Residential,29 Nantucket Dr,Palm Coast,FL,32137,449000,2,2.0,SEA COLONY SUB,1417,5271,1987,2,317,225,Active,,,https://www.redfin.com/FL/Palm-Coast/29-Nantucket-Dr-32137/home/137251196,Stellar MLS as Distributed by MLS Grid,FC296398,N,Y,29.6257897,-81.1974101
MLS Listing,,Single Family Residential,15 Fernon Ln,Palm Coast,FL,32137,319500,3,2.0,FOREST GROVE BUS CENTER,1272,10237,2002,3,251,,Active,,,https://www.redfin.com/FL/Palm-Coast/15-Fernon-Ln-32137/home/137144942,Stellar MLS as Distributed by MLS Grid,FC296435,N,Y,29.5955527,-81.2259153
MLS Listing,,Single Family Residential,321 Beachway Dr,Palm Coast,FL,32137,235000,3,2.0,PALM COAST NORTHWEST QUADRANT,1247,10019,1985,3,188,,Active,,,https://www.redfin.com/FL/Palm-Coast/321-Beachway-Dr-32137/home/137058130,Stellar MLS as Distributed by MLS Grid,FC296506,N,Y,29.5618003,-81.2380075
MLS Listing,,Vacant Land,49 S Riverwalk Dr,Palm Coast,FL,32137,279900,,,PALM COAST PLANTATION,,19411,,3,,208,Active,,,https://www.redfin.com/FL/Palm-Coast/49-S-Riverwalk-Dr-32137/home/136928425,Stellar MLS as Distributed by MLS Grid,FC296483,N,Y,29.519946,-81.152784
MLS Listing,,Single Family Residential,23 Laguna Frst,Palm Coast,FL,32164,499900,3,2.0,PALM COAST SEC 64,1721,11238,2022,3,290,,Active,,,https://www.redfin.com/FL/Palm-Coast/23-Laguna-Forest-Trl-32164/home/180039192,Stellar MLS as Distributed by MLS Grid,FC296482,N,Y,29.4513562,-81.2140514
MLS Listing,,Vacant Land,18 N Lakewalk Dr,Palm Coast,FL,32137,157900,,,PALM COAST,,27225,,3,,208,Active,,,https://www.redfin.com/FL/Palm-Coast/18-N-Lakewalk-Dr-32137/home/137253759,Stellar MLS as Distributed by MLS Grid,FC296496,N,Y,29.507687,-81.15666
MLS Listing,,Single Family Residential,2008 N Daytona Ave,Flagler Beach,FL,32136,729000,3,3.0,SILVER LAKE SUB,2181,8276,1980,3,334,,Active,,,https://www.redfin.com/FL/Flagler-Beach/2008-N-Daytona-Ave-32136/home/136971536,Stellar MLS as Distributed by MLS Grid,FC296500,N,Y,29.5045231,-81.1403551
MLS Listing,,Vacant Land,50 Bickford Dr,Palm Coast,FL,32137,65000,,,PALM COAST SEC 35,,10019,,3,,,Active,,,https://www.redfin.com/FL/Palm-Coast/50-Bickford-Dr-32137/home/137311096,Stellar MLS as Distributed by MLS Grid,FC296495,N,Y,29.5941942,-81.254271
MLS Listing,,Condo/Co-op,3600 S Ocean Shore Blvd #816,Flagler Beach,FL,32136,359000,1,1.0,OCEAN VIEW MANOR CONDOS,719,728,1984,3,499,567,Active,,,https://www.redfin.com/FL/Flagler-Beach/3600-S-Ocean-Shore-Blvd-32136/unit-816/home/137081389,Stellar MLS as Distributed by MLS Grid,T3489089,N,Y,29.4304203,-81.1046854
MLS Listing,,Single Family Residential,16 Llach Ct,Palm Coast,FL,32164,349000,3,2.0,QUAIL HOLLOW,1838,10000,2005,3,190,,Active,,,https://www.redfin.com/FL/Palm-Coast/16-Llach-Ct-32164/home/137318649,Stellar MLS as Distributed by MLS Grid,FC296484,N,Y,29.4475771,-81.2075366
MLS Listing,,Single Family Residential,20 Fulton Pl,Palm Coast,FL,32137,629900,3,2.0,PALM COAST SEC 07,2023,10000,2006,3,311,,Active,,,https://www.redfin.com/FL/Palm-Coast/20-Fulton-Pl-32137/home/137232125,Stellar MLS as Distributed by MLS Grid,FC296472,N,Y,29.5779572,-81.2244736
MLS Listing,,Vacant Land,18 Meridian Home Ln,Palm Coast,FL,32137,328800,,,HARRIS PARK,,43551,,3,,,Active,,,https://www.redfin.com/FL/Palm-Coast/18-Meridian-Home-Ln-32137/home/136976446,Stellar MLS as Distributed by MLS Grid,FC296476,N,Y,29.6218194,-81.2022706
MLS Listing,,Single Family Residential,25 Untermeyer Pl,Palm Coast,FL,32164,339900,3,2.0,SEMINOLE WOODS,1721,10623,2023,3,198,,Active,,,https://www.redfin.com/FL/Palm-Coast/25-Untermeyer-Pl-32164/home/137187339,Stellar MLS as Distributed by MLS Grid,FC296485,N,Y,29.445029,-81.175402
MLS Listing,,Single Family Residential,198 Monitor Dr,Beverly Beach,FL,32136,189900,2,2.0,BEVERLY BEACH SURFSIDE ESTATES,784,2997,1987,3,242,160,Active,,,https://www.redfin.com/FL/Beverly-Beach/198-Monitor-Dr-32136/home/137192671,Stellar MLS as Distributed by MLS Grid,FC296460,N,Y,29.5212926,-81.1505222
MLS Listing,,Townhouse,109 Redbud Rd,Palm Coast,FL,32137,291990,3,2.5,THE TRAILS,1795,19892,2023,3,163,75,Active,,,https://www.redfin.com/FL/Palm-Coast/109-Redbud-Rd-32137/home/183948831,Stellar MLS as Distributed by MLS Grid,FC296480,N,Y,29.590272,-81.2626856
MLS Listing,,Single Family Residential,31 Faircastle Ln,Palm Coast,FL,32137,447700,4,3.0,PALM COAST FLORIDA PARK SEC 09 M,2639,12327,2006,3,170,,Active,,,https://www.redfin.com/FL/Palm-Coast/31-Faircastle-Ln-32137/home/136803213,Stellar MLS as Distributed by MLS Grid,FC296415,N,Y,29.5878718,-81.2250598
MLS Listing,,Single Family Residential,22 Woodside Dr,Palm Coast,FL,32164,380000,3,2.0,PALM COAST SEC 27 BLK 58 & 59,1678,10019,2004,3,226,,Active,,,https://www.redfin.com/FL/Palm-Coast/22-Woodside-Dr-32164/home/136939710,Stellar MLS as Distributed by MLS Grid,V4933517,N,Y,29.5445543,-81.2630251
MLS Listing,,Single Family Residential,7 Vanderbilt Pl,Palm Coast,FL,32164,524900,4,2.0,SUTTON PLACE SUB,2107,12807,1994,3,249,95,Active,,,https://www.redfin.com/FL/Palm-Coast/7-Vanderbilt-Pl-32164/home/136794322,Stellar MLS as Distributed by MLS Grid,FC296361,N,Y,29.544056,-81.2435581
MLS Listing,,Single Family Residential,18 Felter Ln,Palm Coast,FL,32137,359900,3,2.0,PALM HARBOR CENTER PH 01,1774,10015,1975,3,203,,Active,,,https://www.redfin.com/FL/Palm-Coast/18-Felter-Ln-32137/home/136742181,Stellar MLS as Distributed by MLS Grid,O6160725,N,Y,29.5672068,-81.2124438
MLS Listing,,Single Family Residential,74 Fleming Ct,Palm Coast,FL,32137,695000,3,2.0,PALM COAST/FLORIDA PARK SEC 06,1955,14983,1974,3,355,,Active,,,https://www.redfin.com/FL/Palm-Coast/74-Fleming-Ct-32137/home/136953189,Stellar MLS as Distributed by MLS Grid,FC296321,N,Y,29.571717,-81.2072621
MLS Listing,,Single Family Residential,16 Slogan Pl,Palm Coast,FL,32164,299900,3,2.0,PALM COAST SEC 60,1284,10019,2022,4,234,,Active,,,https://www.redfin.com/FL/Palm-Coast/16-Slogan-Pl-32164/home/137310071,Stellar MLS as Distributed by MLS Grid,FC296397,N,Y,29.42157,-81.2039637
MLS Listing,,Condo/Co-op,200 Ocean Crest Dr #437,Palm Coast,FL,32137,368880,1,1.0,HAMMOCK BEACH,678,19151,2003,4,544,359,Active,,,https://www.redfin.com/FL/Palm-Coast/200-Ocean-Crest-Dr-32137/unit-437/home/180016397,Stellar MLS as Distributed by MLS Grid,FC296302,N,Y,29.6043549,-81.1890752
MLS Listing,,Vacant Land,23 Slipper Flower Path E,Palm Coast,FL,32164,68000,,,Seminole Woods,,12632,,4,,,Active,,,https://www.redfin.com/FL/Palm-Coast/23-Slipper-Flower-Path-E-32164/home/137315442,NEFLMLS,1259600,N,Y,29.4253137,-81.1926349
MLS Listing,,Single Family Residential,26 Angela Dr,Palm Coast,FL,32164,360000,3,2.0,AVALON AT LEHIGH WOODS,2235,11151,2008,4,161,40,Active,,,https://www.redfin.com/FL/Palm-Coast/26-Angela-Dr-32164/home/137332134,Stellar MLS as Distributed by MLS Grid,O6161058,N,Y,29.5148944,-81.2563144
MLS Listing,,Single Family Residential,1604 Sherwood St,Bunnell,FL,32110,344800,3,2.0,Daytona,1631,,2007,4,211,,Active,,,https://www.redfin.com/FL/Bunnell/1604-Sherwood-St-32110/home/137317035,Daytona MLS,1116727,N,Y,29.4578939,-81.3827515
MLS Listing,,Vacant Land,13 Saint Andrews Ct,Palm Coast,FL,32137,169900,,,FAIRWAY EDGE GRAND HAVEN,,8930,,4,,224,Active,,,https://www.redfin.com/FL/Palm-Coast/13-Saint-Andrews-Ct-32137/home/137255433,Stellar MLS as Distributed by MLS Grid,FC296466,N,Y,29.5408412,-81.1727473
MLS Listing,,Single Family Residential,54 Las Casitas Blvd,Palm Coast,FL,32137,459000,4,2.0,LAS CASITAS/MATANZAS SHORES,1706,5663,2021,4,269,188,Active,,,https://www.redfin.com/FL/Palm-Coast/54-Las-Casitas-Blvd-32137/home/170572704,Stellar MLS as Distributed by MLS Grid,FC296324,N,Y,29.643772,-81.208646
MLS Listing,,Single Family Residential,42 Bogey Pl,Bunnell,FL,32110,310990,4,2.0,GRAND RESERVE PHASE 3,1526,9389,2023,4,204,37,Active,,,https://www.redfin.com/FL/Bunnell/42-Bogey-PL-Unknown/home/188775283,Stellar MLS as Distributed by MLS Grid,FC296465,N,Y,29.449607,-81.351469
MLS Listing,,Single Family Residential,50 Bogey Pl,Bunnell,FL,32110,340990,4,2.0,GRAND RESERVE PHASE 3,1778,9389,2023,4,192,37,Active,,,https://www.redfin.com/FL/Bunnell/50-Bogey-PL-Unknown/home/188775042,Stellar MLS as Distributed by MLS Grid,FC296463,N,Y,29.449607,-81.351469
MLS Listing,,Single Family Residential,38 Bogey Pl,Bunnell,FL,32110,342990,4,2.0,GRAND RESERVE PHASE 3,1778,9389,2023,4,193,37,Active,,,https://www.redfin.com/FL/Bunnell/38-Bogey-PL-Unknown/home/188774971,Stellar MLS as Distributed by MLS Grid,FC296462,N,Y,29.449607,-81.351469
MLS Listing,,Vacant Land,N Old Dixie Hwy,Bunnell,FL,32110,125000,,,BUNNELL DEV CO,,443005,,4,,,Active,,,https://www.redfin.com/FL/Bunnell/Unknown-32110/home/137148355,Stellar MLS as Distributed by MLS Grid,O6160829,N,Y,29.399052,-81.184918
MLS Listing,,Single Family Residential,37 Bogey Pl,Bunnell,FL,32110,315990,3,2.0,GRAND RESERVE PHASE 3,1526,9389,2023,4,207,37,Active,,,https://www.redfin.com/FL/Bunnell/37-Bogey-PL-Unknown/home/188774896,Stellar MLS as Distributed by MLS Grid,FC296459,N,Y,29.449607,-81.351469
MLS Listing,,Single Family Residential,23 Rockefeller Dr,Palm Coast,FL,32164,345990,5,3.0,PALM COAST SEC 32,2277,10019,2024,4,152,,Active,,,https://www.redfin.com/FL/Palm-Coast/23-Rockefeller-Dr-32164/home/137237149,Stellar MLS as Distributed by MLS Grid,C7484480,N,Y,29.5222802,-81.2530595
MLS Listing,,Single Family Residential,240 S Riverwalk Dr,Palm Coast,FL,32137,1025000,4,5.0,Palm Coast Plantation,3577,,2023,4,287,209,Active,,,https://www.redfin.com/FL/Palm-Coast/240-S-Riverwalk-Dr-32137/home/137190443,NEFLMLS,1259530,N,Y,29.503019,-81.147572
MLS Listing,,Single Family Residential,238 S Riverwalk Dr,Palm Coast,FL,32137,1025000,4,5.0,Palm Coast Plantation,3577,,2023,4,287,209,Active,,,https://www.redfin.com/FL/Palm-Coast/238-S-Riverwalk-Dr-32137/home/137193708,NEFLMLS,1259529,N,Y,29.503217,-81.147634
MLS Listing,,Single Family Residential,52 Bogey Pl,Bunnell,FL,32110,299990,3,2.0,GRAND RESERVE PHASE 3,1526,9389,2023,4,197,37,Active,,,https://www.redfin.com/FL/Bunnell/52-Bogey-PL-Unknown/home/188774673,Stellar MLS as Distributed by MLS Grid,FC296456,N,Y,29.449607,-81.351469
MLS Listing,,Single Family Residential,40 Bogey Pl,Bunnell,FL,32110,323990,3,2.0,GRAND RESERVE PHASE 3,1526,9389,2023,4,212,37,Active,,,https://www.redfin.com/FL/Bunnell/40-Bogey-PL-Unknown/home/188774633,Stellar MLS as Distributed by MLS Grid,FC296454,N,Y,29.449607,-81.351469
MLS Listing,,Single Family Residential,223 S Riverwalk Dr,Palm Coast,FL,32137,1250000,5,4.0,PALM COAST PLANTATION,3960,16891,2023,4,316,208,Active,,,https://www.redfin.com/FL/Palm-Coast/223-S-Riverwalk-Dr-32137/home/136925204,Stellar MLS as Distributed by MLS Grid,FC296432,N,Y,29.5050399,-81.1474205
MLS Listing,,Single Family Residential,42 Wellford Ln,Palm Coast,FL,32164,315990,4,3.0,PALM COAST SEC 21,1941,10019,2024,4,163,,Active,,,https://www.redfin.com/FL/Palm-Coast/42-Wellford-Ln-32164/home/137096334,Stellar MLS as Distributed by MLS Grid,C7484465,N,Y,29.5452238,-81.2544262
MLS Listing,,Single Family Residential,9 Egan Dr,Palm Coast,FL,32164,795000,4,3.0,PALM COAST/EASTHAMPTON SEC 34,2782,10019,2013,4,286,,Active,,,https://www.redfin.com/FL/Palm-Coast/9-Egan-Dr-32164/home/136910405,Stellar MLS as Distributed by MLS Grid,FC296446,N,Y,29.4841644,-81.2319492
MLS Listing,,Vacant Land,4006 Acorn Ave,Bunnell,FL,32110,39500,,,Daytona North,,49484,,4,,,Active,,,https://www.redfin.com/FL/Bunnell/4006-Acorn-Ave-32110/home/137004745,St. Augustine and St. Johns County Board of REALTORS®,237478,N,Y,29.4413162,-81.3805361
MLS Listing,,Vacant Land,104 Del Palma Dr,Palm Coast,FL,32137,225000,,,Marina Del Palma,,6534,,4,,298,Active,,,https://www.redfin.com/FL/Palm-Coast/104-Del-Palma-Dr-32137/home/160478986,NEFLMLS,1259461,N,Y,29.498712,-81.154166
MLS Listing,,Single Family Residential,36 Bogey Pl,Bunnell,FL,32110,325990,3,2.0,GRAND RESERVE PHASE 3,1526,9389,2023,4,214,37,Active,,,https://www.redfin.com/FL/Bunnell/36-Bogey-PL-Unknown/home/188763239,Stellar MLS as Distributed by MLS Grid,FC296440,N,Y,29.449607,-81.351469
MLS Listing,,Single Family Residential,34 Edgewater Dr,Palm Coast,FL,32164,569000,3,2.0,PALM COAST/EASTHAMPTON SEC 34,2212,10019,2023,5,257,,Active,,,https://www.redfin.com/FL/Palm-Coast/34-Edgewater-Dr-32164/home/136960206,Stellar MLS as Distributed by MLS Grid,W7860075,N,Y,29.487315,-81.24101
MLS Listing,,Condo/Co-op,110 Club House Dr #301,Palm Coast,FL,32137,549000,3,3.0,PALM COAST SEC 03 PALM HARBOR OFFICE PARK,2414,5859,2004,5,227,880,Active,,,https://www.redfin.com/FL/Palm-Coast/110-Club-House-Dr-32137/unit-301/home/137116247,Stellar MLS as Distributed by MLS Grid,FC296375,N,Y,29.5761713,-81.1947779
MLS Listing,,Single Family Residential,95 Rivertown Rd,Palm Coast,FL,32137,340000,4,2.0,SAWMILL CRK/PALM COAST PARK,1698,8712,2020,5,200,28,Active,,,https://www.redfin.com/FL/Palm-Coast/95-Rivertown-Rd-32137/home/174430835,Stellar MLS as Distributed by MLS Grid,O6159767,N,Y,29.616298,-81.284065
MLS Listing,,Single Family Residential,81 Egret Trl,Palm Coast,FL,32164,479000,3,2.0,PALM COAST/EASTHAMPTON SEC 34,1540,14636,1998,5,311,,Active,December-9-2023 01:00 PM,December-9-2023 03:00 PM,https://www.redfin.com/FL/Palm-Coast/81-Egret-Trl-32164/home/137146433,Stellar MLS as Distributed by MLS Grid,O6159778,N,Y,29.4796272,-81.230477
MLS Listing,,Vacant Land,63 Post View Dr,Palm Coast,FL,32164,69900,,,Pine Grove,,10018,,5,,,Active,,,https://www.redfin.com/FL/Palm-Coast/63-Post-View-Dr-32164/home/137211675,NEFLMLS,1259379,N,Y,29.5042673,-81.2058465
MLS Listing,,Vacant Land,92 Kashmir Trl,Palm Coast,FL,32164,55000,,,PALM COAST SEC 65,,15000,,5,,,Active,,,https://www.redfin.com/FL/Palm-Coast/92-Kashmir-Trl-32164/home/137324326,Stellar MLS as Distributed by MLS Grid,A4590891,N,Y,29.443685,-81.233757
MLS Listing,,Vacant Land,67 Old Oak Dr S,Palm Coast,FL,32137,165000,,,SANCTUARY SUB,,15507,,5,,130,Active,,,https://www.redfin.com/FL/Palm-Coast/67-Old-Oak-Dr-S-32137/home/137223474,Stellar MLS as Distributed by MLS Grid,C7484149,N,Y,29.6002208,-81.2024132
MLS Listing,,Condo/Co-op,3580 S Ocean Shore Blvd #506,Flagler Beach,FL,32136,574900,3,2.0,NAUTILUS CONDO,1619,1871,1982,5,355,940,Active,,,https://www.redfin.com/FL/Flagler-Beach/3580-S-Ocean-Shore-Blvd-32136/unit-506/home/137089917,Stellar MLS as Distributed by MLS Grid,FC296367,N,Y,29.43164,-81.1052842
MLS Listing,,Single Family Residential,82 Smith Trl,Palm Coast,FL,32164,315000,3,2.0,PALM COAST SEC 59,1846,10019,2005,5,171,,Active,,,https://www.redfin.com/FL/Palm-Coast/82-Smith-Trl-32164/home/137268728,Stellar MLS as Distributed by MLS Grid,FC296284,N,Y,29.4161769,-81.1728334
MLS Listing,,Single Family Residential,4 Red Fox Pl,Palm Coast,FL,32164,350000,3,2.0,PALM COAST SEC 33,2318,11195,2006,5,151,,Active,,,https://www.redfin.com/FL/Palm-Coast/4-Red-Fox-Pl-32164/home/136843766,Stellar MLS as Distributed by MLS Grid,FC296418,N,Y,29.5077346,-81.2567415
MLS Listing,,Single Family Residential,1240 S Flagler Ave,Flagler Beach,FL,32136,575000,3,2.0,GEORGE MOODY,1342,6250,1990,5,428,,Active,,,https://www.redfin.com/FL/Flagler-Beach/1240-S-Flagler-Ave-32136/home/136920510,Stellar MLS as Distributed by MLS Grid,FC296428,N,Y,29.4714305,-81.1266996
MLS Listing,,Single Family Residential,1 Renworth Pl,Palm Coast,FL,32164,424900,4,3.0,PALM COAST SEC 33,2985,12502,2018,5,142,,Active,,,https://www.redfin.com/FL/Palm-Coast/1-Renworth-Pl-32164/home/136718290,Stellar MLS as Distributed by MLS Grid,FC296427,N,Y,29.5103993,-81.2546151
MLS Listing,,Townhouse,39 Redbud Rd,Palm Coast,FL,32137,277990,3,2.5,THE TRAILS,1795,19892,2023,5,155,75,Active,,,https://www.redfin.com/FL/Palm-Coast/39-Redbud-Rd-32137/home/183948776,Stellar MLS as Distributed by MLS Grid,FC296256,N,Y,29.5916176,-81.2639738
MLS Listing,,Single Family Residential,6 Llestone Path,Palm Coast,FL,32164,369900,4,2.0,PALM COAST SEC 64,1755,10019,2022,5,211,,Active,,,https://www.redfin.com/FL/Palm-Coast/6-Llestone-Path-32164/home/137182618,Stellar MLS as Distributed by MLS Grid,FC296426,N,Y,29.449151,-81.2153492
MLS Listing,,Vacant Land,116 Edward Dr,Palm Coast,FL,32164,110000,,,CYPRESS KNOLL,,10200,,5,,,Active,,,https://www.redfin.com/FL/Palm-Coast/116-Edward-Dr-32164/home/137106902,Stellar MLS as Distributed by MLS Grid,FC296425,N,Y,29.4865313,-81.2471364
MLS Listing,,Condo/Co-op,3651 S Central Ave #204,Flagler Beach,FL,32136,550000,2,2.0,SOUTH BEACH CONDOMINIUM,1283,1833,2002,5,429,911,Active,,,https://www.redfin.com/FL/Flagler-Beach/3651-S-Central-Ave-32136/unit-204/home/137325874,Stellar MLS as Distributed by MLS Grid,FC296342,N,Y,29.429616,-81.1043017
MLS Listing,,Single Family Residential,15 Blyth Pl,Palm Coast,FL,32137,300000,2,2.0,PALM COAST BERNARD MDWS SEC 81,1604,10019,1979,6,187,,Active,,,https://www.redfin.com/FL/Palm-Coast/15-Blyth-Pl-32137/home/136749295,Stellar MLS as Distributed by MLS Grid,FC296416,N,Y,29.544143,-81.2028014
MLS Listing,,Single Family Residential,3 Westmar Pl,Palm Coast,FL,32164,305000,3,2.0,DEERWOOD REP BLK 20 PINE LAKES GOLF COURSE,1611,10759,1988,6,189,,Active,,,https://www.redfin.com/FL/Palm-Coast/3-Westmar-Pl-32164/home/136960954,Stellar MLS as Distributed by MLS Grid,FC296036,N,Y,29.5273772,-81.2462257
MLS Listing,,Single Family Residential,47 Cimmaron Dr,Palm Coast,FL,32137,560000,3,2.0,COUNTRY CLUB COVE SEC 14,2384,12502,1998,6,235,,Active,,,https://www.redfin.com/FL/Palm-Coast/47-Cimmaron-Dr-32137/home/136793674,Stellar MLS as Distributed by MLS Grid,A4590673,N,Y,29.590511,-81.2105283
MLS Listing,,Single Family Residential,179 Bayside Dr,Palm Coast,FL,32137,325000,3,2.0,BAYSIDE PRCL C,1390,12502,2000,6,234,,Active,,,https://www.redfin.com/FL/Palm-Coast/179-Bayside-Dr-32137/home/137279668,Stellar MLS as Distributed by MLS Grid,FC296408,N,Y,29.5679978,-81.246785
MLS Listing,,Multi-Family (2-4 Unit),25 Pony Express Dr,Palm Coast,FL,32164,559900,6,4.0,PALM COAST SEC 28,2596,10672,2023,6,216,,Active,,,https://www.redfin.com/FL/Palm-Coast/25-Pony-Express-Dr-32164/home/136900993,Stellar MLS as Distributed by MLS Grid,FC296411,N,Y,29.511137,-81.214798
MLS Listing,,Single Family Residential,14 Poinciana Ln,Palm Coast,FL,32164,330000,3,3.0,PALM COAST SEC 28,1576,10019,2018,6,209,,Active,,,https://www.redfin.com/FL/Palm-Coast/14-Poinciana-Ln-32164/home/136853087,Stellar MLS as Distributed by MLS Grid,FC296410,N,Y,29.5004859,-81.2148111
MLS Listing,,Single Family Residential,52 Zebulahs Trl,Palm Coast,FL,32164,399900,5,2.5,PALM COAST SEC 63,2904,11238,2004,6,138,,Active,,,https://www.redfin.com/FL/Palm-Coast/52-Zebulahs-Trl-32164/home/137220170,Stellar MLS as Distributed by MLS Grid,FC296400,N,Y,29.4690061,-81.225571
MLS Listing,,Single Family Residential,12 Farrington Ln,Palm Coast,FL,32137,285000,2,2.0,PALM HARBOR CENTER PH 01,1536,10070,1976,6,186,,Active,,,https://www.redfin.com/FL/Palm-Coast/12-Farrington-Ln-32137/home/137275341,Stellar MLS as Distributed by MLS Grid,FC296390,N,Y,29.5597645,-81.2099902
MLS Listing,,Vacant Land,245 Yacht Harbor Dr,Palm Coast,FL,32137,299000,,,HARBOR VILLAGE MARINA,,5498,,6,,145,Active,,,https://www.redfin.com/FL/Palm-Coast/245-Yacht-Harbor-Dr-32137/home/137239322,Stellar MLS as Distributed by MLS Grid,FC296402,N,Y,29.580303,-81.190624
MLS Listing,,Single Family Residential,39 Princess Ruth Ln,Palm Coast,FL,32164,339000,3,2.0,PINE GROVE,1846,13733,2000,6,184,,Active,,,https://www.redfin.com/FL/Palm-Coast/39-Princess-Ruth-Ln-32164/home/137050945,Stellar MLS as Distributed by MLS Grid,FC296404,N,Y,29.5205784,-81.2239571
MLS Listing,,Single Family Residential,49 Bird OF Paradise Dr,Palm Coast,FL,32137,332990,4,2.0,PALM COAST SECTION 24,1806,10040,2023,6,184,,Active,,,https://www.redfin.com/FL/Palm-Coast/49-Bird-Of-Paradise-Dr-32137/home/137235329,Stellar MLS as Distributed by MLS Grid,C7484285,N,Y,29.579758,-81.248639
MLS Listing,,Single Family Residential,20 Point Pleasant Dr,Palm Coast,FL,32164,323990,3,2.0,PALM COAST SECTION 28,1552,10000,2024,6,209,,Active,,,https://www.redfin.com/FL/Palm-Coast/20-Point-Pleasant-Dr-32164/home/136990133,Stellar MLS as Distributed by MLS Grid,C7484281,N,Y,29.501276,-81.216078
MLS Listing,,Single Family Residential,12 Zinc Pl,Palm Coast,FL,32164,295990,3,2.0,PALM COAST SECTION 63,1284,10875,2024,6,231,,Active,,,https://www.redfin.com/FL/Palm-Coast/12-Zinc-Pl-32164/home/136907076,Stellar MLS as Distributed by MLS Grid,C7484278,N,Y,29.458959,-81.222207
MLS Listing,,Single Family Residential,14 Deerwood St,Palm Coast,FL,32137,757000,3,2.0,MARITIME ESTATES II,1822,12981,2015,7,415,87,Active,,,https://www.redfin.com/FL/Palm-Coast/14-Deerwood-St-32137/home/137163628,Stellar MLS as Distributed by MLS Grid,FC296233,N,Y,29.6597952,-81.2125729
MLS Listing,,Single Family Residential,21 Ullman Ct,Palm Coast,FL,32164,342000,4,2.0,PALM COAST SEC 57,1680,10171,2020,7,204,,Active,,,https://www.redfin.com/FL/Palm-Coast/21-Ullman-Ct-32164/home/136944708,Stellar MLS as Distributed by MLS Grid,O6160154,N,Y,29.4669077,-81.1837283
MLS Listing,,Single Family Residential,69 Bruning Ln,Palm Coast,FL,32137,299900,3,2.0,INDIAN TRAILS,1128,10019,1996,7,266,,Active,,,https://www.redfin.com/FL/Palm-Coast/69-Bruning-Ln-32137/home/136826555,Stellar MLS as Distributed by MLS Grid,FC296384,N,Y,29.5594204,-81.254357
MLS Listing,,Single Family Residential,21 Raintree Cir,Palm Coast,FL,32164,369000,3,2.0,LEHIGH WOODS,1776,5610,2005,7,208,200,Active,,,https://www.redfin.com/FL/Palm-Coast/21-Raintree-Cir-32164/home/136928883,Stellar MLS as Distributed by MLS Grid,FC296348,N,Y,29.5104758,-81.2258292
MLS Listing,,Single Family Residential,111 Fleetwood Dr,Palm Coast,FL,32137,495000,4,3.5,PALM HARBOR,3299,19440,1988,7,150,,Active,,,https://www.redfin.com/FL/Palm-Coast/111-Fleetwood-Dr-32137/home/136713296,Stellar MLS as Distributed by MLS Grid,FC296301,N,Y,29.5653857,-81.2232685
MLS Listing,,Single Family Residential,17 Tideway Trl,Palm Coast,FL,32137,410900,2,2.0,60-Palm Coast,1813,,2023,7,227,170,Active,,,https://www.redfin.com/FL/Palm-Coast/17-Tideway-Trl-32137/home/174431525,Daytona MLS,1116597,N,Y,29.60743,-81.257861
MLS Listing,,Condo/Co-op,3600 S Ocean Shore Blvd #415,Flagler Beach,FL,32136,315000,1,1.0,OCEAN VIEW MANOR CONDO,715,728,1984,7,441,485,Active,,,https://www.redfin.com/FL/Flagler-Beach/3600-S-Ocean-Shore-Blvd-32136/unit-415/home/136721524,Stellar MLS as Distributed by MLS Grid,FC296388,N,Y,29.4304203,-81.1046854
MLS Listing,,Single Family Residential,106 Front St,Palm Coast,FL,32137,649900,3,2.0,GRAND HAVEN,2480,7710,2019,7,262,25,Active,,,https://www.redfin.com/FL/Palm-Coast/106-Front-St-32137/home/136868488,Stellar MLS as Distributed by MLS Grid,FC296217,N,Y,29.5428857,-81.1656473
MLS Listing,,Single Family Residential,25 Hulett Woods Rd,Palm Coast,FL,32137,298990,4,2.0,SAWMILL BRANCH,1490,6000,2023,7,201,19,Active,,,https://www.redfin.com/FL/Palm-Coast/25-Hulett-Woods-Rd-32137/home/188705780,Stellar MLS as Distributed by MLS Grid,FC296385,N,Y,29.6090746,-81.288349
MLS Listing,,Single Family Residential,31 Hulett Woods Rd,Palm Coast,FL,32137,320990,4,2.0,SAWMILL BRANCH,1862,5000,2023,7,172,19,Active,,,https://www.redfin.com/FL/Palm-Coast/31-Hulett-Woods-Rd-32137/home/188703078,Stellar MLS as Distributed by MLS Grid,FC296380,N,Y,29.6092545,-81.2879261
MLS Listing,,Single Family Residential,2 Ryecorn Pl,Palm Coast,FL,32164,345000,3,2.0,PALM COAST SEC 29,1851,12502,1994,7,186,,Active,,,https://www.redfin.com/FL/Palm-Coast/2-Ryecorn-Pl-32164/home/137043796,Stellar MLS as Distributed by MLS Grid,FC295961,N,Y,29.5037764,-81.2227521
MLS Listing,,Condo/Co-op,400 Canopy Walk Ln #443,Palm Coast,FL,32137,399500,2,2.0,CANOPY WALK,1238,9194,2004,7,323,637,Active,,,https://www.redfin.com/FL/Palm-Coast/400-Canopy-Walk-Ln-32137/unit-443/home/136740964,Stellar MLS as Distributed by MLS Grid,FC296328,N,Y,29.5662314,-81.1872806
MLS Listing,,Single Family Residential,71 White Hall Dr,Palm Coast,FL,32164,569000,4,3.0,PINE LAKES,2306,16117,2020,8,247,,Active,,,https://www.redfin.com/FL/Palm-Coast/71-White-Hall-Dr-32164/home/137233974,Stellar MLS as Distributed by MLS Grid,FC296371,N,Y,29.5176097,-81.2337712
MLS Listing,,Single Family Residential,5 Winchester Pl,Palm Coast,FL,32164,490000,3,2.0,PINE LAKES,1672,10250,2002,8,293,,Active,,,https://www.redfin.com/FL/Palm-Coast/5-Winchester-Pl-32164/home/137187596,Stellar MLS as Distributed by MLS Grid,FC296290,N,Y,29.5393568,-81.2370609
MLS Listing,,Single Family Residential,23 Red Barn Dr,Palm Coast,FL,32164,410000,3,2.0,LEHIGH WOODS,1932,14026,2001,8,212,,Active,,,https://www.redfin.com/FL/Palm-Coast/23-Red-Barn-Dr-32164/home/137005267,Stellar MLS as Distributed by MLS Grid,FC296370,N,Y,29.5075959,-81.2557336
MLS Listing,,Single Family Residential,135 Parkview Dr,Palm Coast,FL,32164,449000,3,2.0,SOUTHWEST QUADRANT,1778,10149,1992,8,253,,Active,,,https://www.redfin.com/FL/Palm-Coast/135-Parkview-Dr-32164/home/137155024,Stellar MLS as Distributed by MLS Grid,FC296338,N,Y,29.5440844,-81.218857
MLS Listing,,Single Family Residential,25 Ethan Allen Dr,Palm Coast,FL,32164,299000,3,2.0,EAST HAMPTON,1247,10019,1986,9,240,,Active,,,https://www.redfin.com/FL/Palm-Coast/25-Ethan-Allen-Dr-32164/home/136863418,Stellar MLS as Distributed by MLS Grid,FC296365,N,Y,29.4946531,-81.2346942
MLS Listing,,Vacant Land,3653 Apple Ave,Bunnell,FL,32110,24900,,,BUNNELL,,60000,,9,,,Active,,,https://www.redfin.com/FL/Bunnell/3653-Apple-Ave-32110/home/137189424,Stellar MLS as Distributed by MLS Grid,FC296358,N,Y,29.4504944,-81.3748873
MLS Listing,,Vacant Land,3681 Apple Ave,Bunnell,FL,32110,24900,,,BUNNELL,,60000,,9,,,Active,,,https://www.redfin.com/FL/Bunnell/3681-Apple-Ave-32110/home/137153936,Stellar MLS as Distributed by MLS Grid,FC296359,N,Y,29.4504873,-81.3753585
MLS Listing,,Vacant Land,14 Sycamore Ter,Palm Coast,FL,32137,225000,,,ARMAND BEACH EAST SUB,,11106,,9,,,Active,,,https://www.redfin.com/FL/Palm-Coast/14-Sycamore-Ter-32137/home/136972491,Stellar MLS as Distributed by MLS Grid,FC296364,N,Y,29.622921,-81.199715
MLS Listing,,Condo/Co-op,200 Cedar Cv #206,Palm Coast,FL,32137,500000,3,2.5,HAMMOCK/PALM HARBOR,2501,2808,2011,9,200,700,Active,,,https://www.redfin.com/FL/Palm-Coast/200-Cedar-Cv-32137/unit-206/home/137189620,Stellar MLS as Distributed by MLS Grid,FC296357,N,Y,29.5748975,-81.1959778
MLS Listing,,Single Family Residential,2 Freneau Ln,Palm Coast,FL,32137,550000,4,2.0,PALM COAST MAP/FLORIDA PARK SECTION,2108,21566,2022,9,261,,Active,,,https://www.redfin.com/FL/Palm-Coast/2-Freneau-Ln-32137/home/137229754,Stellar MLS as Distributed by MLS Grid,FC295811,N,Y,29.5814768,-81.2324995
MLS Listing,,Vacant Land,40 N Lakewalk Dr,Palm Coast,FL,32137,175000,,,PALM COAST,,34543,,10,,208,Active,,,https://www.redfin.com/FL/Palm-Coast/40-N-Lakewalk-Dr-32137/home/137030030,Stellar MLS as Distributed by MLS Grid,FC296347,N,Y,29.509538,-81.157242
MLS Listing,,Single Family Residential,37 Fenwick Ln,Palm Coast,FL,32137,369900,3,2.0,PALM COAST SEC 09,1804,10019,2022,10,205,,Active,,,https://www.redfin.com/FL/Palm-Coast/37-Fenwick-Ln-32137/home/136984416,Stellar MLS as Distributed by MLS Grid,FC296353,N,Y,29.590197,-81.226829
MLS Listing,,Multi-Family (2-4 Unit),8 Linda Pl,Palm Coast,FL,32137,624900,6,4.0,04 FAIRWAYS,2422,10193,2020,10,258,,Active,,,https://www.redfin.com/FL/Palm-Coast/8-Linda-Pl-32137/home/180029743,Stellar MLS as Distributed by MLS Grid,FC296354,N,Y,29.6113515,-81.25896
MLS Listing,,Single Family Residential,39 Nautilus Dr,Flagler Beach,FL,32136,264500,2,2.0,BEVERLY BEACH SURFSIDE ESTATES,1040,3514,1986,10,254,160,Active,,,https://www.redfin.com/FL/Flagler-Beach/39-Nautilus-Dr-32136/home/136885327,Stellar MLS as Distributed by MLS Grid,FC296356,N,Y,29.5234661,-81.1500914
MLS Listing,,Single Family Residential,10 Post Tree Ln,Palm Coast,FL,32164,409000,4,2.0,PINE GROVE,1735,10019,2023,10,236,,Active,December-7-2023 10:00 AM,December-7-2023 02:30 PM,https://www.redfin.com/FL/Palm-Coast/10-Post-Tree-Ln-32164/home/136959317,Stellar MLS as Distributed by MLS Grid,FC296343,N,Y,29.500057,-81.207119
MLS Listing,,Single Family Residential,65 Fanshawe Ln,Palm Coast,FL,32137,432000,3,2.0,PALM HARBOR,2002,15638,1995,10,216,,Active,,,https://www.redfin.com/FL/Palm-Coast/65-Fanshawe-Ln-32137/home/136713994,Stellar MLS as Distributed by MLS Grid,FC296295,N,Y,29.5790666,-81.2312524
MLS Listing,,Single Family Residential,421 Wingspan Dr,Ormond Beach,FL,32174,1324900,5,4.0,PLANTATION BAY PH 01A UNIT 01-6,4337,11718,2008,10,305,78,Active,,,https://www.redfin.com/FL/Ormond-Beach/421-Wingspan-Dr-32174/home/137332809,Stellar MLS as Distributed by MLS Grid,FC296340,N,Y,29.3752735,-81.1620474
MLS Listing,,Townhouse,3545 S Central Ave,Flagler Beach,FL,32136,410000,2,1.5,OCEAN PALM VILLAS EAST,998,1568,1976,10,411,,Active,,,https://www.redfin.com/FL/Flagler-Beach/3545-S-Central-Ave-32136/home/137112199,Stellar MLS as Distributed by MLS Grid,FC296327,N,Y,29.432658,-81.1063815
MLS Listing,,Single Family Residential,486 Stirling Bridge Dr,Ormond Beach,FL,32174,845000,3,2.5,PLANTATION BAY SEC 2 A-F UN 9,2720,10649,2023,10,311,78,Active,,,https://www.redfin.com/FL/Ormond-Beach/486-Stirling-Bridge-Dr-32174/home/183952127,Stellar MLS as Distributed by MLS Grid,FC296346,N,Y,29.3887088,-81.1742314
MLS Listing,,Condo/Co-op,200 Riverfront Dr Unit B204,Palm Coast,FL,32137,565000,3,3.0,RIVERVIEW CONDOS/GRAND HAVEN,2015,1999,2006,10,280,782,Active,,,https://www.redfin.com/FL/Palm-Coast/200-Riverfront-Dr-32137/unit-B204/home/137030490,Stellar MLS as Distributed by MLS Grid,FC296260,N,Y,29.5376665,-81.1651813
MLS Listing,,Single Family Residential,49 Lagare St,Palm Coast,FL,32137,569500,4,2.5,GRAND HAVEN,2140,9540,2000,10,266,12,Active,,,https://www.redfin.com/FL/Palm-Coast/49-Lagare-St-32137/home/137314542,Stellar MLS as Distributed by MLS Grid,FC296345,N,Y,29.5456513,-81.168053
MLS Listing,,Single Family Residential,18 Covington Ln,Palm Coast,FL,32137,349900,2,2.0,Palm Coast,1273,,1987,10,275,,Active,,,https://www.redfin.com/FL/Palm-Coast/18-Covington-Ln-32137/home/137260438,NEFLMLS,1258772,N,Y,29.5963509,-81.2162746
MLS Listing,,Condo/Co-op,3510 S Ocean Shore Blvd #109,Flagler Beach,FL,32136,374999,2,2.0,OCEAN BEACH CONDO CLUB II,1107,1106,1978,10,339,638,Active,,,https://www.redfin.com/FL/Flagler-Beach/3510-S-Ocean-Shore-Blvd-32136/unit-109/home/136906693,Stellar MLS as Distributed by MLS Grid,O6159607,N,Y,29.4323745,-81.1054883
MLS Listing,,Single Family Residential,10 Rydell Ln,Palm Coast,FL,32164,499000,4,3.0,60-Palm Coast,2976,,2004,11,168,,Active,,,https://www.redfin.com/FL/Palm-Coast/10-Rydell-Ln-32164/home/136717467,Daytona MLS,1116536,N,Y,29.4985878,-81.2340272
MLS Listing,,Single Family Residential,20 W Westgrill Dr,Palm Coast,FL,32137,363990,5,3.0,PALM COAST SEC 37,2077,12066,2023,11,175,,Active,,,https://www.redfin.com/FL/Palm-Coast/20-Westgrill-Dr-32164/home/137287628,Stellar MLS as Distributed by MLS Grid,C7484152,N,Y,29.5314545,-81.2516657
MLS Listing,,Single Family Residential,7 Lakeside Pl W,Palm Coast,FL,32137,629000,3,3.0,LAKE VIEW SUB,2085,12502,2006,11,302,20,Active,,,https://www.redfin.com/FL/Palm-Coast/7-Lakeside-Pl-W-32137/home/137056527,Stellar MLS as Distributed by MLS Grid,FC296337,N,Y,29.5798669,-81.2441605
MLS Listing,,Single Family Residential,67 Whispering Pine Dr,Palm Coast,FL,32137,327990,4,3.0,PALM COAST SECTION 29,1941,12066,2024,11,169,,Active,,,https://www.redfin.com/FL/Palm-Coast/67-Whispering-Pine-Dr-32164/home/137289819,Stellar MLS as Distributed by MLS Grid,C7484151,N,Y,29.5256503,-81.2366012
MLS Listing,,Single Family Residential,2156 Rosewood St,Bunnell,FL,32110,289000,3,2.0,DAYTONA NORTH SUB,1785,49484,1990,12,162,,Active,,,https://www.redfin.com/FL/Bunnell/2156-Rosewood-St-32110/home/136945420,Stellar MLS as Distributed by MLS Grid,FC296332,N,Y,29.4501294,-81.3906536
MLS Listing,,Single Family Residential,10 Pine Brook Dr,Palm Coast,FL,32164,350000,3,2.0,Palm Coast,1858,,2005,12,188,,Active,,,https://www.redfin.com/FL/Palm-Coast/10-Pine-Brook-Dr-32164/home/137130663,NEFLMLS,1258719,N,Y,29.5173617,-81.2055995
MLS Listing,,Condo/Co-op,3600 S Ocean Shore Blvd #721,Flagler Beach,FL,32136,399000,2,2.0,OCEAN VIEW MANOR,1331,1384,1984,12,300,710,Active,,,https://www.redfin.com/FL/Flagler-Beach/3600-S-Ocean-Shore-Blvd-32136/unit-721/home/137009337,Stellar MLS as Distributed by MLS Grid,FC296334,N,Y,29.4304203,-81.1046854
MLS Listing,,Vacant Land,25 Bud Shire Ln,Palm Coast,FL,32137,67000,,,PALM COAST SEC 35,,10062,,12,,,Active,,,https://www.redfin.com/FL/Palm-Coast/25-Bud-Shire-Ln-32137/home/136857762,Stellar MLS as Distributed by MLS Grid,FC296335,N,Y,29.598744,-81.2605554
MLS Listing,,Single Family Residential,6 Whippoorwill Dr,Palm Coast,FL,32164,429900,4,2.0,PALM COAST SEC 23,2288,13036,2019,12,188,,Active,,,https://www.redfin.com/FL/Palm-Coast/6-Whippoorwill-Dr-32164/home/137204635,Stellar MLS as Distributed by MLS Grid,FC296317,N,Y,29.5216187,-81.2264317
MLS Listing,,Condo/Co-op,3580 S Ocean Shore Blvd #602,Flagler Beach,FL,32136,429000,2,2.0,NAUTILUS A CONDO,1358,1456,1982,12,316,841,Active,,,https://www.redfin.com/FL/Flagler-Beach/3580-S-Ocean-Shore-Blvd-32136/unit-602/home/136949145,Stellar MLS as Distributed by MLS Grid,FC296318,N,Y,29.43164,-81.1052842
MLS Listing,,Townhouse,20 Uniontin Ct Unit B,Palm Coast,FL,32164,295000,3,2.0,ROYAL PALMS SEC 30,1216,5401,2023,12,243,,Active,,,https://www.redfin.com/FL/Palm-Coast/20-Uniontin-Ct-32164/unit-B/home/183951833,Stellar MLS as Distributed by MLS Grid,O6159432,N,Y,29.449332,-81.176774
MLS Listing,,Townhouse,20 Uniontin Ct Unit A,Palm Coast,FL,32164,295000,3,2.0,ROYAL PALMS SEC 30,1216,4661,2023,12,243,,Active,,,https://www.redfin.com/FL/Palm-Coast/20-Uniontin-Ct-32164/unit-A/home/137237941,Stellar MLS as Distributed by MLS Grid,O6159417,N,Y,29.449228,-81.176722
MLS Listing,,Multi-Family (2-4 Unit),20 Uniontin Ct,Palm Coast,FL,32164,589000,6,4.0,ROYAL PALMS SEC 30,2432,4716,2023,12,242,,Active,,,https://www.redfin.com/FL/Palm-Coast/20-Uniontin-Ct-32164/home/185346416,Stellar MLS as Distributed by MLS Grid,O6159323,N,Y,29.4490902,-81.1769694
MLS Listing,,Condo/Co-op,4600 E Moody Blvd Unit 3M,Bunnell,FL,32110,175000,2,2.0,PALM POINTE I,1035,1159,2005,12,169,295,Active,,,https://www.redfin.com/FL/Bunnell/4600-E-Moody-Blvd-32110/unit-3M/home/136929505,Stellar MLS as Distributed by MLS Grid,FC296303,N,Y,29.4767104,-81.2244513
MLS Listing,,Single Family Residential,45 S Riverwalk Dr,Palm Coast,FL,32137,1600000,4,4.0,PALM COAST PLANTATION PUD UN 1,3494,19473,2014,12,458,208,Active,,,https://www.redfin.com/FL/Palm-Coast/45-S-Riverwalk-Dr-32137/home/136785918,Stellar MLS as Distributed by MLS Grid,FC296319,N,Y,29.520261,-81.152896
MLS Listing,,Vacant Land,1311 Hickory St,Bunnell,FL,32110,52000,,,Daytona North,,49658,,12,,,Active,,,https://www.redfin.com/FL/Bunnell/1311-Hickory-St-32110/home/137266358,St. Augustine and St. Johns County Board of REALTORS®,237370,N,Y,29.4623866,-81.3883883
MLS Listing,,Condo/Co-op,104 Club House Dr #105,Palm Coast,FL,32137,557000,2,2.0,WATERSIDE PALM COAST CONDO,2297,5859,2005,12,242,880,Active,,,https://www.redfin.com/FL/Palm-Coast/104-Club-House-Dr-32137/unit-105/home/136975437,Stellar MLS as Distributed by MLS Grid,FC296250,N,Y,29.5760371,-81.1955473
MLS Listing,,Single Family Residential,10 Smollett Pl,Palm Coast,FL,32164,310000,3,2.0,PALM COAST SEC 59,1272,10019,1996,12,244,,Active,,,https://www.redfin.com/FL/Palm-Coast/10-Smollett-Pl-32164/home/136944830,Stellar MLS as Distributed by MLS Grid,O6159269,N,Y,29.417083,-81.1736086
MLS Listing,,Condo/Co-op,3600 S Ocean Shore Blvd #712,Flagler Beach,FL,32136,469000,2,2.0,OCEAN VIEW MANOR CONDO,1331,1563,1984,13,352,710,Active,,,https://www.redfin.com/FL/Flagler-Beach/3600-S-Ocean-Shore-Blvd-32136/unit-712/home/137022545,Stellar MLS as Distributed by MLS Grid,FC296281,N,Y,29.4304203,-81.1046854
MLS Listing,,Multi-Family (2-4 Unit),4 Whelan Pl,Palm Coast,FL,32164,569000,6,4.0,PALM COAST SEC 23,2595,11579,2024,13,219,,Active,,,https://www.redfin.com/FL/Palm-Coast/4-Whelan-Pl-32164/home/136813317,Stellar MLS as Distributed by MLS Grid,FC296313,N,Y,29.526307,-81.245649
MLS Listing,,Vacant Land,3438 N Oceanshore Blvd,Flagler Beach,FL,32136,339000,,,HAMMOCK MOORINGS SOUTH,,,,13,,42,Active,,,https://www.redfin.com/FL/Flagler-Beach/3438-N-Ocean-Shore-Blvd-32136/home/137190250,Stellar MLS as Distributed by MLS Grid,NS1077625,N,Y,29.54387,-81.15967
MLS Listing,,Vacant Land,128 Colechester Ln,Palm Coast,FL,32137,138500,,,PALM HARBOR,,15136,,13,,,Active,,,https://www.redfin.com/FL/Palm-Coast/128-Colechester-Ln-32137/home/137153894,Stellar MLS as Distributed by MLS Grid,FC296279,N,Y,29.593992,-81.215963
MLS Listing,,Vacant Land,44 Clinton Ct N,Palm Coast,FL,32137,375000,,,PALM COAST SEC 04,,12864,,13,,,Active,,,https://www.redfin.com/FL/Palm-Coast/44-Clinton-Ct-N-32137/home/137148713,Stellar MLS as Distributed by MLS Grid,FC296310,N,Y,29.5808212,-81.2041281
MLS Listing,,Vacant Land,46 Del Palma,Palm Coast,FL,32137,199000,,,PALM COAST,,,,13,,298,Active,,,https://www.redfin.com/FL/Palm-Coast/46-Del-Palma-Dr-32137/home/160478957,Stellar MLS as Distributed by MLS Grid,NS1076814,N,Y,29.499828,-81.157122
MLS Listing,,Vacant Land,38 Felwood Ln,Palm Coast,FL,32137,77000,,,PALM COAST FLORIDA PARK SEC 10 M,,12502,,13,,,Active,,,https://www.redfin.com/FL/Palm-Coast/38-Felwood-Ln-32137/home/136761375,Stellar MLS as Distributed by MLS Grid,FC296309,N,Y,29.5878556,-81.2342342
MLS Listing,,Vacant Land,111 S 12th St,Flagler Beach,FL,32136,400000,,,FLAGLER BEACH,,4791,,13,,,Active,,,https://www.redfin.com/FL/Flagler-Beach/111-12th-St-S-32136/home/180023185,Stellar MLS as Distributed by MLS Grid,NS1076625,N,Y,29.4736546,-81.124441
MLS Listing,,Vacant Land,87 Del Palma Dr,Palm Coast,FL,32137,229900,,,PALM COAST,,8712,,13,,298,Active,,,https://www.redfin.com/FL/Palm-Coast/87-Del-Palma-Dr-32137/home/160478868,Stellar MLS as Distributed by MLS Grid,NS1075164,N,Y,29.499959,-81.154049
MLS Listing,,Single Family Residential,58 Leidel Dr,Palm Coast,FL,32137,419000,4,2.0,MATANZAS WOODS,2044,11631,2021,13,205,,Active,,,https://www.redfin.com/FL/Palm-Coast/58-Leidel-Dr-32137/home/137235633,Stellar MLS as Distributed by MLS Grid,FC296263,N,Y,29.6119439,-81.2682728
MLS Listing,,Single Family Residential,42 Sea Vista Dr,Palm Coast,FL,32137,1595000,3,2.5,SEA COLONY SUB,2211,4966,1987,13,721,225,Active,,,https://www.redfin.com/FL/Palm-Coast/42-Sea-Vista-Dr-32137/home/137100857,Stellar MLS as Distributed by MLS Grid,FC296265,N,Y,29.6246179,-81.1942794
MLS Listing,,Vacant Land,83 Fellowship Dr,Palm Coast,FL,32137,77000,,,PALM COAST SEC 09,,10019,,14,,,Active,,,https://www.redfin.com/FL/Palm-Coast/83-Fellowship-Dr-32137/home/136803351,Stellar MLS as Distributed by MLS Grid,FC296286,N,Y,29.5894844,-81.2234606
MLS Listing,,Vacant Land,8 Pine Bluff Ln,Palm Coast,FL,32164,65000,,,PALM COAST SEC 26,,10411,,14,,,Active,,,https://www.redfin.com/FL/Palm-Coast/8-Pine-Bluff-Ln-32164/home/136994617,Stellar MLS as Distributed by MLS Grid,V4933336,N,Y,29.5159249,-81.2058356
MLS Listing,,Condo/Co-op,3580 S Ocean Shore Blvd #505,Flagler Beach,FL,32136,600000,3,2.0,NAUTILUS CONDO,1695,1872,1982,14,354,960,Active,,,https://www.redfin.com/FL/Flagler-Beach/3580-S-Ocean-Shore-Blvd-32136/unit-505/home/137319397,Stellar MLS as Distributed by MLS Grid,FC296135,N,Y,29.43164,-81.1052842
MLS Listing,,Vacant Land,3165A Water Oak Rd,Bunnell,FL,32110,150000,,,99-Other (See Remarks),,218236,,14,,,Active,,,https://www.redfin.com/FL/Bunnell/3165-Water-Oak-Rd-32110/home/136971730,Daytona MLS,1116437,N,Y,29.4361196,-81.4237562
MLS Listing,,Vacant Land,42 Whippoorwill Dr,Palm Coast,FL,32164,88900,,,PALM COAST SEC 23,,12500,,14,,,Active,,,https://www.redfin.com/FL/Palm-Coast/42-Whippoorwill-Dr-32164/home/136715759,Stellar MLS as Distributed by MLS Grid,FC296198,N,Y,29.5230095,-81.2318554
MLS Listing,,Vacant Land,65 Beacon Mill Ln,Palm Coast,FL,32137,75000,,,Palm Coast,,10018,,14,,,Active,,,https://www.redfin.com/FL/Palm-Coast/65-Beacon-Mill-Ln-32137/home/136953867,NEFLMLS,1258375,N,Y,29.565621,-81.237266
MLS Listing,,Single Family Residential,49 Putter Dr,Palm Coast,FL,32164,292500,2,2.0,BELLE TERRE,1600,10019,1981,14,183,,Active,,,https://www.redfin.com/FL/Palm-Coast/49-Putter-Dr-32164/home/136830637,Stellar MLS as Distributed by MLS Grid,FC296102,N,Y,29.5449979,-81.2312946
MLS Listing,,Single Family Residential,8 Palmer Ln,Palm Coast,FL,32164,429999,4,2.0,SOUTHWEST QUADRANT PH 01-04,2250,10237,1989,14,191,,Active,,,https://www.redfin.com/FL/Palm-Coast/8-Palmer-Ln-32164/home/137245925,Stellar MLS as Distributed by MLS Grid,O6158440,N,Y,29.5350877,-81.222128
MLS Listing,,Vacant Land,2 Seckel Ct,Palm Coast,FL,32164,64500,,,PALM COAST SEC 58,,13721,,14,,,Active,,,https://www.redfin.com/FL/Palm-Coast/2-Seckel-Ct-32164/home/137169666,Stellar MLS as Distributed by MLS Grid,FC296267,N,Y,29.4176017,-81.1652436
MLS Listing,,Single Family Residential,12 Ferris Ln,Palm Coast,FL,32137,289000,2,2.0,PALM HARBOR CENTER PH 01,1443,12500,1976,15,200,,Active,,,https://www.redfin.com/FL/Palm-Coast/12-Ferris-Ln-32137/home/136951930,Stellar MLS as Distributed by MLS Grid,FC296261,N,Y,29.5649901,-81.2142516
MLS Listing,,Townhouse,27 River Landing Dr,Palm Coast,FL,32137,499000,2,2.5,GRAND HAVEN,2201,3790,2004,15,227,325,Active,,,https://www.redfin.com/FL/Palm-Coast/27-River-Landing-Dr-32137/home/137029925,Stellar MLS as Distributed by MLS Grid,FC296262,N,Y,29.536773,-81.1668526
MLS Listing,,Single Family Residential,2 Buttonwell Ln,Palm Coast,FL,32137,389990,3,2.0,PALM COAST SEC 35,1888,12502,2006,15,207,,Active,,,https://www.redfin.com/FL/Palm-Coast/2-Buttonwell-Ln-32137/home/137301382,Stellar MLS as Distributed by MLS Grid,FC296181,N,Y,29.589923,-81.2542279
MLS Listing,,Single Family Residential,13 Ferndale Ln,Palm Coast,FL,32137,529000,3,2.5,FOREST GROVE BUS CENTER,2282,10019,2024,15,232,,Active,,,https://www.redfin.com/FL/Palm-Coast/13-Ferndale-Ln-32137/home/137103119,Stellar MLS as Distributed by MLS Grid,FC296168,N,Y,29.5987795,-81.2294007
MLS Listing,,Single Family Residential,24 Woodbury Dr,Palm Coast,FL,32164,529000,3,2.5,PALM COAST SEC 27 BLK 58 & 59,2282,10019,2024,15,232,,Active,,,https://www.redfin.com/FL/Palm-Coast/24-Woodbury-Dr-32164/home/137135517,Stellar MLS as Distributed by MLS Grid,FC296164,N,Y,29.5260121,-81.2557934
MLS Listing,,Single Family Residential,36 New Water Oak Dr,Palm Coast,FL,32137,899000,4,3.0,Hidden Lakes,2431,,2020,16,370,100,Active,,,https://www.redfin.com/FL/Palm-Coast/36-New-Water-Oak-Dr-32137/home/137241443,NEFLMLS,1258271,N,Y,29.5082884,-81.1867424
MLS Listing,,Vacant Land,570 Shearwood Dr,Flagler Beach,FL,32136,269500,,,CEDAR ISLAND,,102752,,16,,233,Active,,,https://www.redfin.com/FL/Flagler-Beach/570-Shearwood-Dr-32136/home/136730905,Stellar MLS as Distributed by MLS Grid,GC517650,N,Y,29.450793,-81.118001
MLS Listing,,Single Family Residential,401 County Road 140,Bunnell,FL,32110,675000,3,2.0,BUNNELL,1641,338461,2014,16,411,,Active,,,https://www.redfin.com/FL/Bunnell/401-County-Road-140-32110/home/136929996,Stellar MLS as Distributed by MLS Grid,FC296143,N,Y,29.348902,-81.317821
MLS Listing,,Single Family Residential,19 Rymsen Ln,Palm Coast,FL,32164,289900,3,2.0,PALM COAST SEC 29,1280,10019,2002,16,226,,Active,,,https://www.redfin.com/FL/Palm-Coast/19-Rymsen-Ln-32164/home/137097594,Stellar MLS as Distributed by MLS Grid,FC295978,N,Y,29.502058,-81.2256571
MLS Listing,,Single Family Residential,1104 E Magnolia St,Bunnell,FL,32110,299900,2,1.0,TOWN/BUNNELL,1369,72616,1956,16,219,,Active,,,https://www.redfin.com/FL/Bunnell/1104-E-Magnolia-St-32110/home/136945204,Stellar MLS as Distributed by MLS Grid,FC296241,N,Y,29.4741537,-81.2558282
MLS Listing,,Single Family Residential,20 Zircon Ct,Palm Coast,FL,32164,387400,4,2.0,PALM COAST SEC 63,1930,10193,2023,16,201,,Active,,,https://www.redfin.com/FL/Palm-Coast/20-Zircon-Ct-32164/home/137011870,Stellar MLS as Distributed by MLS Grid,FC296229,N,Y,29.4536966,-81.2196703
MLS Listing,,Single Family Residential,21 Marbella Ct,Palm Coast,FL,32137,734999,3,2.0,Marbella,2028,,1995,16,362,601,Active,,,https://www.redfin.com/FL/Palm-Coast/21-Marbella-Ct-32137/home/136820847,St. Augustine and St. Johns County Board of REALTORS®,237299,N,Y,29.5700355,-81.175159
MLS Listing,,Condo/Co-op,25 Marina Point Pl #25,Palm Coast,FL,32137,549000,3,2.5,MARINA COVE,1875,1745,1989,16,293,,Active,,,https://www.redfin.com/FL/Palm-Coast/25-Marina-Point-Pl-32137/unit-25/home/180030626,Stellar MLS as Distributed by MLS Grid,FC296174,N,Y,29.5784022,-81.1949661
MLS Listing,,Single Family Residential,20 Brushwood Ln,Palm Coast,FL,32137,250000,3,2.0,PALM COAST SEC 13 BRESSLER PRCL H BROOKSIDE PRCL P,1364,11979,1989,17,183,,Active,,,https://www.redfin.com/FL/Palm-Coast/20-Brushwood-Ln-32137/home/136990801,Stellar MLS as Distributed by MLS Grid,FC296120,N,Y,29.5546575,-81.2516467
MLS Listing,,Vacant Land,11 Fenimore Ln,Palm Coast,FL,32137,70000,,,PALM COAST SEC 09,,10019,,17,,,Active,,,https://www.redfin.com/FL/Palm-Coast/11-Fenimore-Ln-32137/home/137106066,Stellar MLS as Distributed by MLS Grid,FC296259,N,Y,29.593258,-81.2238228
MLS Listing,,Vacant Land,16 Pine Crest Ln,Palm Coast,FL,32164,60000,,,PALM COAST SEC 26,,10977,,17,,,Active,,,https://www.redfin.com/FL/Palm-Coast/16-Pine-Crest-Ln-32164/home/136994407,Stellar MLS as Distributed by MLS Grid,FC293872,N,Y,29.522205,-81.210273
MLS Listing,,Vacant Land,13 Princeton Ln,Palm Coast,FL,32164,60000,,,PALM COAST SEC 24,,10062,,17,,,Active,,,https://www.redfin.com/FL/Palm-Coast/13-Princeton-Ln-32164/home/137300389,Stellar MLS as Distributed by MLS Grid,FC293875,N,Y,29.5278967,-81.2090344
MLS Listing,,Vacant Land,60 Breeze Hill Ln,Palm Coast,FL,32137,64900,,,INDIAN TRAILS,,10378,,17,,,Active,,,https://www.redfin.com/FL/Palm-Coast/60-Breeze-Hill-Ln-32137/home/137161163,Stellar MLS as Distributed by MLS Grid,FC296137,N,Y,29.5588083,-81.2437302
MLS Listing,,Single Family Residential,30 White Feather Ln,Palm Coast,FL,32164,345000,3,2.0,PALM COAST WYNNFIELD SEC 23,1885,10516,2005,17,183,,Active,,,https://www.redfin.com/FL/Palm-Coast/30-White-Feather-Ln-32164/home/137289987,Stellar MLS as Distributed by MLS Grid,FC296240,N,Y,29.5184086,-81.2377063
MLS Listing,,Single Family Residential,1 Beech Pl,Palm Coast,FL,32137,420000,3,2.0,PALM COAST NORTHWEST QUADRANT,1641,29621,1998,17,256,,Active,,,https://www.redfin.com/FL/Palm-Coast/1-Beech-Pl-32137/home/137274028,Stellar MLS as Distributed by MLS Grid,FC296089,N,Y,29.5564439,-81.2283683
MLS Listing,,Single Family Residential,70 New Leatherwood Dr,Palm Coast,FL,32137,995000,4,3.5,TOSCANA,2712,21101,2023,17,367,100,Active,,,https://www.redfin.com/FL/Palm-Coast/70-New-Leatherwood-Dr-32137/home/136931534,Stellar MLS as Distributed by MLS Grid,O6158394,N,Y,29.51562,-81.1916789
MLS Listing,,Single Family Residential,30 Lynbrook Dr,Palm Coast,FL,32137,379600,3,2.0,MATANZAS WOODS,1753,12439,2023,17,217,,Active,,,https://www.redfin.com/FL/Palm-Coast/30-Lynbrook-Dr-32137/home/136943796,Stellar MLS as Distributed by MLS Grid,FC296243,N,Y,29.599978,-81.256305
MLS Listing,,Vacant Land,,Palm Coast,FL,32137,70000,,,,,10019,,17,,,Active,,,https://www.redfin.com/FL/Palm-Coast/Undisclosed-address-32137/home/137107249,Stellar MLS as Distributed by MLS Grid,FC296155,N,Y,29.5994958,-81.2600581
MLS Listing,,Single Family Residential,6 Patuxent Ln,Palm Coast,FL,32164,299000,3,2.0,BELLE TERRE,1574,10106,1984,17,190,,Active,,,https://www.redfin.com/FL/Palm-Coast/6-Patuxent-Ln-32164/home/136872351,Stellar MLS as Distributed by MLS Grid,FC296234,N,Y,29.5357484,-81.21989
MLS Listing,,Condo/Co-op,55 Riverview Bnd S #2011,Palm Coast,FL,32137,320000,2,2.0,TIDELANDS,1115,14451,2007,17,287,697,Active,,,https://www.redfin.com/FL/Palm-Coast/55-Riverview-Bnd-S-32137/unit-2011/home/137030847,Stellar MLS as Distributed by MLS Grid,FC296160,N,Y,29.5826963,-81.1943418
MLS Listing,,Single Family Residential,2300 S Flagler Ave,Flagler Beach,FL,32136,639000,2,2.0,MORNINGSIDE SUB,1278,16814,1977,18,500,,Active,,,https://www.redfin.com/FL/Flagler-Beach/2300-S-Flagler-Ave-32136/home/136721249,Stellar MLS as Distributed by MLS Grid,FC296175,N,Y,29.4522899,-81.1175605
MLS Listing,,Single Family Residential,15 Eagle Lake Dr,Flagler Beach,FL,32136,599900,4,3.0,EAGLE LAKES PH 1 SEC 1,2665,10019,2017,18,225,82,Active,December-9-2023 01:00 PM,December-9-2023 03:00 PM,https://www.redfin.com/FL/Flagler-Beach/15-Eagle-Lake-Dr-32136/home/137031964,Stellar MLS as Distributed by MLS Grid,FC296178,N,Y,29.4192457,-81.1510176
MLS Listing,,Single Family Residential,42 Edge Ln,Palm Coast,FL,32164,424900,3,2.0,EASTHAMPTON SEC 34,1868,10193,2005,18,227,,Active,,,https://www.redfin.com/FL/Palm-Coast/42-Edge-Ln-32164/home/137304198,Stellar MLS as Distributed by MLS Grid,A4585960,N,Y,29.4882753,-81.2436442
MLS Listing,,Vacant Land,2540 Sarah St,Flagler Beach,FL,32136,213900,,,ATLANTA BEACH SUB,,7500,,18,,,Active,,,https://www.redfin.com/FL/Flagler-Beach/2540-Sarah-St-32136/home/180031493,Stellar MLS as Distributed by MLS Grid,FC296232,N,Y,29.4486405,-81.1146552
MLS Listing,,Single Family Residential,5990 Mango Ave,Bunnell,FL,32110,259000,4,2.0,DAYTONA NORTH,2037,40511,2006,18,127,,Active,,,https://www.redfin.com/FL/Bunnell/5990-Mango-Ave-32110/home/137046348,Stellar MLS as Distributed by MLS Grid,V4933303,N,Y,29.4445394,-81.4134105
MLS Listing,,Single Family Residential,70 Wedgewood Ln,Palm Coast,FL,32164,425000,3,2.0,PINE LAKES,1528,10000,1989,18,278,,Active,,,https://www.redfin.com/FL/Palm-Coast/70-Wedgewood-Ln-32164/home/137290340,Stellar MLS as Distributed by MLS Grid,FC296032,N,Y,29.5462593,-81.244935
MLS Listing,,Condo/Co-op,95 Ocean Crest Way #531,Palm Coast,FL,32137,839000,3,2.5,HAMMOCK BEACH VILLAS,1859,,2005,18,451,847,Active,,,https://www.redfin.com/FL/Palm-Coast/95-Ocean-Crest-Way-32137/unit-531/home/136788921,Stellar MLS as Distributed by MLS Grid,FC296220,N,Y,29.605061,-81.1902185
MLS Listing,,Single Family Residential,123 Fenimore Ln,Palm Coast,FL,32137,249900,3,2.0,PALM COAST SEC 09,1302,10019,1984,18,192,,Active,,,https://www.redfin.com/FL/Palm-Coast/123-Fenimore-Ln-32137/home/137120523,Stellar MLS as Distributed by MLS Grid,FC296184,N,Y,29.5901678,-81.2239786
MLS Listing,,Vacant Land,22 Kaywood Pl,Palm Coast,FL,32164,67000,,,PALM COAST SEC 65,,10019,,18,,,Active,,,https://www.redfin.com/FL/Palm-Coast/22-Kaywood-Pl-32164/home/137087954,Stellar MLS as Distributed by MLS Grid,FC296144,N,Y,29.4359915,-81.2311405
MLS Listing,,Single Family Residential,4 Spring St,Palm Coast,FL,32164,427500,3,2.0,GABLES/TOWN CENTER,1806,6250,2023,18,237,,Active,,,https://www.redfin.com/FL/Palm-Coast/4-Spring-St-32164/home/183935409,Stellar MLS as Distributed by MLS Grid,FC296224,N,Y,29.4920894,-81.2027309
MLS Listing,,Single Family Residential,11 Essington Ln,Palm Coast,FL,32164,625000,4,3.0,Palm Coast,2948,,2001,18,212,,Active,,,https://www.redfin.com/FL/Palm-Coast/11-Essington-Ln-32164/home/137036068,NEFLMLS,1257899,N,Y,29.4939123,-81.2272279
MLS Listing,,Single Family Residential,35 Faircastle Ln,Palm Coast,FL,32137,325000,3,2.0,PALM COAST SEC 09,1464,10019,1999,18,222,,Active,,,https://www.redfin.com/FL/Palm-Coast/35-Faircastle-Ln-32137/home/136732173,Stellar MLS as Distributed by MLS Grid,FC296203,N,Y,29.5873665,-81.2250976
MLS Listing,,Condo/Co-op,100 Marina Bay Dr #205,Flagler Beach,FL,32136,609000,3,2.0,MARINA BAY CONDO PH 1,1368,1526,2000,18,445,854,Active,,,https://www.redfin.com/FL/Flagler-Beach/100-Marina-Bay-Dr-32136/unit-205/home/136920281,Stellar MLS as Distributed by MLS Grid,FC295892,N,Y,29.5091895,-81.1418005
MLS Listing,,Single Family Residential,1 Blairmore Pl,Palm Coast,FL,32137,279500,2,2.0,PALM COAST/BERNARD MDWS SEC 81,1587,12502,1984,18,176,,Active,,,https://www.redfin.com/FL/Palm-Coast/1-Blairmore-Pl-32137/home/137017570,Stellar MLS as Distributed by MLS Grid,V4933298,N,Y,29.5536842,-81.2077519
MLS Listing,,Single Family Residential,47 Foxhall Ln,Palm Coast,FL,32137,371059,3,2.0,PALM COAST SECTION 7,1637,10019,2023,18,227,,Active,,,https://www.redfin.com/FL/Palm-Coast/47-Foxhall-Ln-32137/home/108498932,Stellar MLS as Distributed by MLS Grid,C7483852,N,Y,29.5685471,-81.2242997
MLS Listing,,Single Family Residential,3 Pheasant Dr,Palm Coast,FL,32164,385000,3,2.0,PINE GROVE PALM COAST SEC 28,2190,10019,2006,18,176,,Active,,,https://www.redfin.com/FL/Palm-Coast/3-Pheasant-Dr-32164/home/137246427,Stellar MLS as Distributed by MLS Grid,FC296176,N,Y,29.5101761,-81.2206216
MLS Listing,,Vacant Land,10 Richelieu Ln,Palm Coast,FL,32164,67900,,,PALM COAST SEC 31,,12153,,18,,,Active,,,https://www.redfin.com/FL/Palm-Coast/10-Richelieu-Ln-32164/home/137044129,Stellar MLS as Distributed by MLS Grid,FC296215,N,Y,29.5057091,-81.2510537
MLS Listing,,Single Family Residential,385 Underwood Trl,Palm Coast,FL,32164,439900,3,2.0,PALM COAST SEC 57,2117,10019,2023,19,208,,Active,,,https://www.redfin.com/FL/Palm-Coast/385-Underwood-Trl-32164/home/136876586,Stellar MLS as Distributed by MLS Grid,FC295699,N,Y,29.4532146,-81.1763192
MLS Listing,,Single Family Residential,324 Underwood Trl,Palm Coast,FL,32164,399900,3,2.0,PALM COAST SEC 57,2117,10019,2023,19,189,,Active,,,https://www.redfin.com/FL/Palm-Coast/324-Underwood-Trl-32164/home/137187052,Stellar MLS as Distributed by MLS Grid,FC295695,N,Y,29.4534929,-81.1810083
MLS Listing,,Single Family Residential,4 Senor Pl,Palm Coast,FL,32164,444000,3,2.0,PALM COAST SEC 58,1656,10629,1997,19,268,,Active,,,https://www.redfin.com/FL/Palm-Coast/4-Senor-Pl-32164/home/136859381,Stellar MLS as Distributed by MLS Grid,FC296213,N,Y,29.440588,-81.1740393
MLS Listing,,Single Family Residential,7 Walnut Pl,Palm Coast,FL,32164,280000,3,3.0,Pine Lake,1760,,1997,19,159,,Active,,,https://www.redfin.com/FL/Palm-Coast/7-Walnut-Pl-32164/home/136821065,Daytona MLS,1116299,N,Y,29.5276496,-81.2353827
MLS Listing,,Single Family Residential,125 Oakleaf Way,Palm Coast,FL,32137,360000,3,2.0,SAWMILL CRK/PALM COAST PARK,1602,6970,2021,19,225,28,Active,,,https://www.redfin.com/FL/Palm-Coast/125-Oakleaf-Way-32137/home/172372106,Stellar MLS as Distributed by MLS Grid,FC296207,N,Y,29.6201901,-81.2833043
MLS Listing,,Single Family Residential,18 Zorro Ct,Palm Coast,FL,32164,367900,3,2.0,PALM COAST SEC 63,1563,10106,2023,19,235,,Active,,,https://www.redfin.com/FL/Palm-Coast/18-Zorro-Ct-32164/home/137073590,Stellar MLS as Distributed by MLS Grid,FC296208,N,Y,29.4526435,-81.218857
MLS Listing,,Single Family Residential,42 Oak View Cir W,Palm Coast,FL,32137,1045000,4,3.0,OCEAN HAMMOCK,2958,16638,2006,19,353,188,Active,,,https://www.redfin.com/FL/Palm-Coast/42-Oak-View-Cir-W-32137/home/136907340,Stellar MLS as Distributed by MLS Grid,FC296205,N,Y,29.5944987,-81.19178
MLS Listing,,Single Family Residential,6262 Cherry Ln,Bunnell,FL,32110,274500,4,2.0,BUNNELL,1768,44866,2023,19,155,,Active,,,https://www.redfin.com/FL/Bunnell/6262-Cherry-Ln-32110/home/136852186,Stellar MLS as Distributed by MLS Grid,NS1077684,N,Y,29.463599,-81.4182
MLS Listing,,Single Family Residential,73 Luther Dr,Palm Coast,FL,32137,330000,3,2.0,04 FAIRWAYS,1509,10454,2007,19,219,,Active,,,https://www.redfin.com/FL/Palm-Coast/73-Luther-Dr-32137/home/137301563,Stellar MLS as Distributed by MLS Grid,O6157358,N,Y,29.6029103,-81.2508723
MLS Listing,,Vacant Land,6 Commander Ln,Palm Coast,FL,32137,400000,,,PALM HARBOR,,10000,,19,,,Active,,,https://www.redfin.com/FL/Palm-Coast/6-Commander-Ct-32137/home/137124023,Stellar MLS as Distributed by MLS Grid,FC296200,N,Y,29.5859753,-81.2171095
MLS Listing,,Single Family Residential,424 Stirling Bridge Dr,Ormond Beach,FL,32174,820485,3,2.5,Plantation Bay,2720,,2023,19,302,78,Active,,,https://www.redfin.com/FL/Ormond-Beach/424-Stirling-Bridge-Dr-32174/home/183952113,Daytona MLS,1116285,N,Y,29.394808,-81.175518
MLS Listing,,Vacant Land,15 Milwaukee Ave,Palm Coast,FL,32137,186000,,,Bragg Unrec,,9147,,19,,,Active,,,https://www.redfin.com/FL/Palm-Coast/15-Milwaukee-Ave-32137/home/136889802,NEFLMLS,1257735,N,Y,29.619385,-81.202373
MLS Listing,,Vacant Land,231 Conservatory Dr,Palm Coast,FL,32137,230000,,,PALM COAST,,14026,,19,,363,Active,,,https://www.redfin.com/FL/Palm-Coast/231-Conservatory-Dr-32137/home/137334236,Stellar MLS as Distributed by MLS Grid,FC296192,N,Y,29.6061376,-81.2347056
MLS Listing,,Vacant Land,3450 N Ocean Shore Blvd,Flagler Beach,FL,32136,320000,,,HAMMOCK MOORINGS SOUTH,,15812,,19,,83,Active,,,https://www.redfin.com/FL/Flagler-Beach/3450-N-Ocean-Shore-Blvd-32136/home/137326716,Stellar MLS as Distributed by MLS Grid,FC296189,N,Y,29.544279,-81.159854
MLS Listing,,Single Family Residential,60 Perkins Ln,"Palm Coast, Florida",FL,32164,340000,4,2.0,SOUTHWEST QUADRANT PH 01-04,1665,12500,2022,19,204,,Active,,,https://www.redfin.com/FL/Palm-Coast/60-Perkins-Ln-32164/home/137163227,Stellar MLS as Distributed by MLS Grid,FC296186,N,Y,29.539093,-81.21092
MLS Listing,,Single Family Residential,28 Whittier Ln,Palm Coast,FL,32164,479000,3,2.0,PALM COAST SEC 23,2208,12248,2020,19,217,,Active,,,https://www.redfin.com/FL/Palm-Coast/28-Whittier-Ln-32164/home/136822023,Stellar MLS as Distributed by MLS Grid,FC296161,N,Y,29.5251453,-81.2274215
MLS Listing,,Vacant Land,14 Beachside Dr,Palm Coast,FL,32137,179000,,,Maritime Estates,,12632,,19,,95,Active,,,https://www.redfin.com/FL/Palm-Coast/14-Beachside-Dr-32137/home/137023106,NEFLMLS,1257708,N,Y,29.6590002,-81.2121713
MLS Listing,,Vacant Land,8 Sedgefield Path N,Palm Coast,FL,32164,69500,,,PALM COAST SEC 58,,10000,,19,,,Active,,,https://www.redfin.com/FL/Palm-Coast/8-Sedgefield-Path-N-32164/home/137182265,Stellar MLS as Distributed by MLS Grid,FC295917,N,Y,29.432551,-81.170778
MLS Listing,,Vacant Land,Potatoe Ville Rd,Hastings,FL,32145,474900,,,HASTINGS,,2894126,,19,,,Active,,,https://www.redfin.com/FL/Unknown/Potatoe-Ville-Rd-32145/home/184707831,Stellar MLS as Distributed by MLS Grid,OM668092,N,Y,29.6053,-81.4632
MLS Listing,,Single Family Residential,400 Stirling Bridge Dr,Ormond Beach,FL,32174,910000,4,3.0,Plantation Bay,2813,,2022,19,323,78,Active,,,https://www.redfin.com/FL/Ormond-Beach/400-Stirling-Bridge-Dr-32174/home/174430124,Daytona MLS,1116266,N,Y,29.393315,-81.1790992
MLS Listing,,Single Family Residential,20 Graham Trl,Palm Coast,FL,32137,529000,3,2.0,HIDDEN LAKES PH 1,1853,9017,2013,19,285,61,Active,,,https://www.redfin.com/FL/Palm-Coast/20-Graham-Trl-32137/home/136788516,Stellar MLS as Distributed by MLS Grid,FC296064,N,Y,29.5024316,-81.1851923
MLS Listing,,Single Family Residential,36 N Park Cir,Palm Coast,FL,32137,559900,3,2.0,GRAND HAVEN,2152,10856,2005,20,260,239,Active,,,https://www.redfin.com/FL/Palm-Coast/36-N-Park-Cir-32137/home/137031484,Stellar MLS as Distributed by MLS Grid,FC296171,N,Y,29.5556714,-81.1744484
MLS Listing,,Single Family Residential,212 Beechwood Ln,Palm Coast,FL,32137,439000,3,3.0,60-Palm Coast,2035,,1977,20,216,,Active,,,https://www.redfin.com/FL/Palm-Coast/212-Beechwood-Ln-32137/home/136978908,Daytona MLS,1116259,N,Y,29.5581923,-81.2313592
MLS Listing,,Single Family Residential,41 Federal Ln,Palm Coast,FL,32137,375000,3,2.0,PALM HARBOR,1258,10000,1986,20,298,,Active,,,https://www.redfin.com/FL/Palm-Coast/41-Federal-Ln-32137/home/137273437,Stellar MLS as Distributed by MLS Grid,FC296130,N,Y,29.5672662,-81.2153707
MLS Listing,,Single Family Residential,49 Pilgrim Dr,Palm Coast,FL,32164,339900,3,2.0,PALM COAST SEC 26,1721,10019,2023,20,198,,Active,,,https://www.redfin.com/FL/Palm-Coast/49-Pilgrim-Dr-32164/home/136726528,Stellar MLS as Distributed by MLS Grid,FC296133,N,Y,29.515253,-81.1999869
MLS Listing,,Single Family Residential,41 Woodworth Dr,Palm Coast,FL,32164,429900,3,2.0,PALM COAST SEC 27 BLK 58 & 59,2088,10019,1992,20,206,,Active,,,https://www.redfin.com/FL/Palm-Coast/41-Woodworth-Dr-32164/home/137043626,Stellar MLS as Distributed by MLS Grid,FC296165,N,Y,29.5442763,-81.2588095
MLS Listing,,Vacant Land,1913 N Ocean Shore Blvd,Flagler Beach,FL,32136,525000,,,SUNRISE BEACH SUB,,5434,,20,,,Active,,,https://www.redfin.com/FL/Flagler-Beach/1913-N-Ocean-Shore-Blvd-32136/home/137046783,Stellar MLS as Distributed by MLS Grid,FC296163,N,Y,29.502539,-81.138217
MLS Listing,,Single Family Residential,64 Blaine Dr,Palm Coast,FL,32137,264900,2,2.0,PALM COAST/BERNARD MDWS SEC 81,1814,10280,1979,20,146,,Active,,,https://www.redfin.com/FL/Palm-Coast/64-Blaine-Dr-32137/home/136945114,Stellar MLS as Distributed by MLS Grid,FC296031,N,Y,29.5462934,-81.2067618
MLS Listing,,Single Family Residential,138 Bird OF Paradise Dr,Palm Coast,FL,32137,355000,4,3.0,PALM COAST SEC 35,2055,10019,2021,20,173,,Active,,,https://www.redfin.com/FL/Palm-Coast/138-Bird-of-Paradise-Dr-32137/home/137008474,Stellar MLS as Distributed by MLS Grid,FC296158,N,Y,29.587284,-81.2414928
MLS Listing,,Single Family Residential,6 Prescott Ln,Palm Coast,FL,32164,325990,4,2.0,PALM COAST SECTION 24,1806,10040,2023,20,181,,Active,,,https://www.redfin.com/FL/Palm-Coast/6-Prescott-Ln-32164/home/136779037,Stellar MLS as Distributed by MLS Grid,C7483689,N,Y,29.532205,-81.213811
MLS Listing,,Condo/Co-op,200 Cedar Cv #202,Palm Coast,FL,32137,495000,3,2.5,HAMMOCK/PALM HARBOR,2501,2808,2011,20,198,700,Active,,,https://www.redfin.com/FL/Palm-Coast/200-Cedar-Cv-32137/unit-202/home/137031078,Stellar MLS as Distributed by MLS Grid,FC296022,N,Y,29.5748975,-81.1959778
MLS Listing,,Single Family Residential,18 Sanchez Ave,Palm Coast,FL,32137,449999,3,2.0,ARTESIA SUB,1362,5009,2023,20,330,,Active,,,https://www.redfin.com/FL/Palm-Coast/18-Sanchez-Ave-32137/home/137180147,Stellar MLS as Distributed by MLS Grid,FC296069,N,Y,29.592687,-81.195092
MLS Listing,,Single Family Residential,1594 Papaya St,Bunnell,FL,32110,359900,3,2.0,DAYTONA NORTH SUB,1677,49484,2002,21,215,,Active,,,https://www.redfin.com/FL/Bunnell/1594-Papaya-St-32110/home/136739338,Stellar MLS as Distributed by MLS Grid,O6154660,N,Y,29.4582515,-81.3993707
MLS Listing,,Single Family Residential,17 Kannapolis Pl,Palm Coast,FL,32164,299000,3,1.0,PALM COAST SEC 65,1008,10237,1994,21,297,,Active,,,https://www.redfin.com/FL/Palm-Coast/17-Kannapolis-Pl-32164/home/137190036,Stellar MLS as Distributed by MLS Grid,FC295988,N,Y,29.4420111,-81.2349093
MLS Listing,,Vacant Land,94 Farmsworth Dr,Palm Coast,FL,32137,85000,,,PALM COAST SEC 09,,11979,,21,,,Active,,,https://www.redfin.com/FL/Palm-Coast/94-Farmsworth-Dr-32137/home/137275081,Stellar MLS as Distributed by MLS Grid,FC296154,N,Y,29.5845271,-81.2210043
MLS Listing,,Vacant Land,92 Farmsworth Dr,Palm Coast,FL,32137,85000,,,PALM COAST SEC 09,,11979,,21,,,Active,,,https://www.redfin.com/FL/Palm-Coast/92-Farmsworth-Dr-32137/home/137273828,Stellar MLS as Distributed by MLS Grid,FC296153,N,Y,29.5843839,-81.2211954
MLS Listing,,Vacant Land,TBD Gale St Unit IV,Bunnell,FL,32145,15000,,,Flagler Estates,,54450,,21,,,Active,,,https://www.redfin.com/FL/Bunnell/TBD-Gale-ST-Unknown/unit-IV/home/188558289,St. Augustine and St. Johns County Board of REALTORS®,237173,N,Y,29.4443,-81.3003
MLS Listing,,Vacant Land,1508 S Flagler Ave,Flagler Beach,FL,32136,329900,,,FUQUAY SUB,,15001,,21,,,Active,,,https://www.redfin.com/FL/Flagler-Beach/1508-S-Flagler-Ave-32136/home/137039095,Stellar MLS as Distributed by MLS Grid,FC296146,N,Y,29.4672441,-81.1246698
MLS Listing,,Vacant Land,109 Calle Del Sur,Palm Coast,FL,32137,986880,,,HAMMOCK DUNES CLUSTERS,,14505,,21,,632,Active,,,https://www.redfin.com/FL/Palm-Coast/109-Calle-Del-Sur-32137/home/136933671,Stellar MLS as Distributed by MLS Grid,FC296034,N,Y,29.5611283,-81.16708
MLS Listing,,Single Family Residential,8 Island Estates Pkwy,,FL,32137,4250000,6,4.5,Hammock Dunes,4612,54943,2022,21,922,434,Active,,,https://www.redfin.com/FL/Palm-Coast/8-Island-Estates-Pkwy-32137/home/108498855,Beaches MLS,F10409239,N,Y,29.5606963,-81.1729842
MLS Listing,,Single Family Residential,207 Ashford Lakes Cir,Ormond Beach,FL,32174,549900,4,2.5,ASHFORD LAKES ESTATES,3411,16553,2019,21,161,89,Active,,,https://www.redfin.com/FL/Ormond-Beach/207-Ashford-Lakes-Cir-32174/home/137214884,Stellar MLS as Distributed by MLS Grid,O6156593,N,Y,29.2691235,-81.1512114
MLS Listing,,Condo/Co-op,22 Magnolia Dr #22,Ormond Beach,FL,32174,289000,2,2.0,ORMOND BEACH,1300,,1988,21,222,435,Active,,,https://www.redfin.com/FL/Ormond-Beach/22-Magnolia-Dr-S-32174/unit-22/home/187851700,Stellar MLS as Distributed by MLS Grid,NS1077433,N,Y,29.398195,-81.1595423
MLS Listing,,Vacant Land,0 Nash St,Bunnell,FL,32110,12500,,,Flagler Estates,,40510,,21,,,Active,,,https://www.redfin.com/FL/Bunnell/Nash-ST-Unknown/home/188553667,St. Augustine and St. Johns County Board of REALTORS®,237157,N,Y,29.4443,-81.3003
MLS Listing,,Single Family Residential,36 Rae Dr,Palm Coast,FL,32164,394900,3,3.0,PALM COAST SEC 30,1682,10019,2003,21,235,,Active,,,https://www.redfin.com/FL/Palm-Coast/36-Rae-Dr-32164/home/136966102,Stellar MLS as Distributed by MLS Grid,FC296139,N,Y,29.513019,-81.2347157
MLS Listing,,Single Family Residential,26 Hulett Wds Rd Unit S,Palm Coast,FL,32137,332990,4,2.0,60-Palm Coast,1862,,2023,21,179,19,Active,,,https://www.redfin.com/FL/Palm-Coast/26-Hulett-Woods-Rd-32137/unit-S/home/188553368,Daytona MLS,1116187,N,Y,29.6086214,-81.2881838
MLS Listing,,Single Family Residential,481 Stirling Bridge Dr,Ormond Beach,FL,32174,747985,4,3.0,Plantation Bay,2402,,2024,21,311,78,Active,,,https://www.redfin.com/FL/Ormond-Beach/481-Stirling-Bridge-Dr-32174/home/183952138,Daytona MLS,1116182,N,Y,29.394808,-81.175518
MLS Listing,,Vacant Land,0 Nash St,Bunnell,FL,32145,12500,,,Flagler Estates,,40510,,21,,,Active,,,https://www.redfin.com/FL/Unknown/Nash-St-32145/home/175319397,NEFLMLS,1257391,N,Y,29.605697,-81.448163
MLS Listing,,Condo/Co-op,3580 S Ocean Shore Blvd #105,Flagler Beach,FL,32136,299000,1,1.0,NAUTILUS CONDO,658,832,1982,21,454,535,Active,,,https://www.redfin.com/FL/Flagler-Beach/3580-S-Ocean-Shore-Blvd-32136/unit-105/home/137319310,Stellar MLS as Distributed by MLS Grid,FC296039,N,Y,29.43164,-81.1052842
MLS Listing,,Single Family Residential,27 Pillory Ln,Palm Coast,FL,32164,320000,3,2.0,PALM COAST SEC 26,1417,12240,2006,21,226,,Active,,,https://www.redfin.com/FL/Palm-Coast/27-Pillory-Ln-32164/home/137281555,Stellar MLS as Distributed by MLS Grid,V4933083,N,Y,29.5147609,-81.2009502
MLS Listing,,Single Family Residential,1511 S Daytona Ave,Flagler Beach,FL,32136,899000,5,3.0,FUQUAY SUB,1692,7500,2002,21,531,,Active,,,https://www.redfin.com/FL/Flagler-Beach/1511-S-Daytona-Ave-32136/home/137184866,Stellar MLS as Distributed by MLS Grid,FC296049,N,Y,29.4678208,-81.1231719
MLS Listing,,Single Family Residential,39 Wrendale Loop,Ormond Beach,FL,32174,387500,2,2.0,HUNTINGTON VILLAS PH 2-A,1603,4792,2022,21,242,401,Active,,,https://www.redfin.com/FL/Ormond-Beach/39-Wrendale-Loop-32174/home/174431395,Stellar MLS as Distributed by MLS Grid,FC295884,N,Y,29.269737,-81.160111
MLS Listing,,Single Family Residential,198 Belleaire Dr,Palm Coast,FL,32164,279900,2,2.0,PALM COAST NORTHWEST QUADRANT,1402,11979,1980,21,200,,Active,,,https://www.redfin.com/FL/Palm-Coast/198-Belleaire-Dr-32137/home/137065416,Stellar MLS as Distributed by MLS Grid,FC295802,N,Y,29.5648306,-81.2315098
MLS Listing,,Single Family Residential,9 Evansville Pl,Palm Coast,FL,32164,539900,3,2.0,PALM COAST/EASTHAMPTON SEC 34,2017,10193,2022,22,268,,Active,,,https://www.redfin.com/FL/Palm-Coast/9-Evansville-Pl-32164/home/137002345,Stellar MLS as Distributed by MLS Grid,FC296122,N,Y,29.4849817,-81.2393845
MLS Listing,,Multi-Family (5+ Unit),901 N Ocean Shore Blvd,Flagler Beach,FL,32136,2800000,11,6.0,COCHRAN PLACE SUB,5068,5009,1986,22,552,,Active,,,https://www.redfin.com/FL/Flagler-Beach/901-N-Oceanshore-Blvd-32136/home/187652706,Stellar MLS as Distributed by MLS Grid,V4933160,N,Y,29.4868333,-81.1305745
MLS Listing,,Single Family Residential,27 Atlantic Pl,Palm Coast,FL,32137,1475000,4,4.0,PALM HAMMOCK,3787,9627,2005,22,389,158,Active,,,https://www.redfin.com/FL/Palm-Coast/27-Atlantic-Pl-32137/home/137199339,Stellar MLS as Distributed by MLS Grid,FC295816,N,Y,29.5854785,-81.1804557
MLS Listing,,Condo/Co-op,35 N Ocean Palm Villa N #35,Flagler Beach,FL,32136,278000,2,2.0,OCEAN PALM VILLA II CONDO,1184,965,1979,22,235,585,Active,,,https://www.redfin.com/FL/Flagler-Beach/35-Ocean-32136/unit-35/home/175569175,Stellar MLS as Distributed by MLS Grid,FC296127,N,Y,29.427355,-81.105396
MLS Listing,,Single Family Residential,114 Pine Grove Dr,Palm Coast,FL,32164,329900,3,2.0,PALM COAST SEC 26,1424,10759,2004,22,232,,Active,,,https://www.redfin.com/FL/Palm-Coast/114-Pine-Grove-Dr-32164/home/136998323,Stellar MLS as Distributed by MLS Grid,FC296126,N,Y,29.5127605,-81.2087419
MLS Listing,,Condo/Co-op,80 Riverview Bnd S #823,Palm Coast,FL,32137,305000,3,2.0,TIDELANDS,1461,9647,2006,23,209,735,Active,,,https://www.redfin.com/FL/Palm-Coast/80-Riverview-Bnd-S-32137/unit-823/home/137048021,Stellar MLS as Distributed by MLS Grid,FC296124,N,Y,29.5828007,-81.1970164
MLS Listing,,Condo/Co-op,35 Ocean Palm Villa N,Flagler Beach,FL,32136,278000,2,2.0,50-Flagler Beach,1184,,1979,23,235,585,Active,,,https://www.redfin.com/FL/Flagler-Beach/35-Ocean-Palm-Villa-N-32136/home/137197446,Daytona MLS,1116144,N,Y,29.4273584,-81.1054063
MLS Listing,,Single Family Residential,11 Zonal Geranium Ct,Palm Coast,FL,32164,585000,4,4.0,ZEBULAHS TRAIL SEC 63 SEMINOLE,2823,10106,2006,23,207,,Active,,,https://www.redfin.com/FL/Palm-Coast/11-Zonal-Geranium-Ct-32164/home/137250116,Stellar MLS as Distributed by MLS Grid,V4933226,N,Y,29.4515146,-81.2201482
MLS Listing,,Single Family Residential,25 Ashford Lakes Dr,Ormond Beach,FL,32174,799000,3,3.0,ASHFORD LAKES ESTATES,2907,18295,2015,23,275,89,Active,,,https://www.redfin.com/FL/Ormond-Beach/25-Ashford-Lakes-Dr-32174/home/58763403,Stellar MLS as Distributed by MLS Grid,FC295770,N,Y,29.2693547,-81.1529991
MLS Listing,,Condo/Co-op,3600 S Ocean Shore Blvd #417,Flagler Beach,FL,32136,249900,1,1.0,Ocean View Manor Condo,693,,1984,23,361,485,Active,,,https://www.redfin.com/FL/Flagler-Beach/3600-S-Ocean-Shore-Blvd-32136/unit-417/home/79925642,St. Augustine and St. Johns County Board of REALTORS®,237129,N,Y,29.4304203,-81.1046854
MLS Listing,,Condo/Co-op,101 Palm Harbor Pkwy #B224,Palm Coast,FL,32137,320000,2,2.0,European Village,1125,,2005,23,284,449,Active,,,https://www.redfin.com/FL/Palm-Coast/101-Palm-Harbor-Pkwy-32137/unit-B224/home/136753019,NEFLMLS,1257246,N,Y,29.5706847,-81.1910523
MLS Listing,,Vacant Land,49 Parkview Dr,Palm Coast,FL,32164,57500,,,PALM COAST,,10023,,23,,,Active,,,https://www.redfin.com/FL/Palm-Coast/49-Parkview-Dr-32164/home/136726362,Stellar MLS as Distributed by MLS Grid,FC295584,N,Y,29.543287,-81.225343
MLS Listing,,Single Family Residential,46 Columbus Ct,Palm Coast,FL,32137,625000,3,2.0,PALM COAST SEC 04,2140,10303,1987,23,292,,Active,,,https://www.redfin.com/FL/Palm-Coast/46-Columbus-Ct-32137/home/136773749,Stellar MLS as Distributed by MLS Grid,FC295873,N,Y,29.5809432,-81.2061591
MLS Listing,,Vacant Land,6653 N Ocean Shore Blvd,Palm Coast,FL,32137,3000000,,,COQUINA BEACH SUB,,45363,,24,,,Active,,,https://www.redfin.com/FL/Palm-Coast/6653-N-Ocean-Shore-Blvd-32137/home/137077940,Stellar MLS as Distributed by MLS Grid,FC295996,N,Y,29.6445094,-81.2025216
MLS Listing,,Condo/Co-op,2 Summerwind Cir #2,Palm Coast,FL,32137,299000,2,2.0,ARBOR TRACE AT PALM COAST CONDO,1143,1483,2004,24,262,306,Active,,,https://www.redfin.com/FL/Palm-Coast/2-Summerwind-Cir-32137/unit-2/home/180038700,Stellar MLS as Distributed by MLS Grid,FC296090,N,Y,29.5591279,-81.2115163
MLS Listing,,Single Family Residential,66 Beaverdam Ln,Palm Coast,FL,32137,299000,3,2.0,INDIAN TRAILS,1412,10019,1987,24,212,,Active,,,https://www.redfin.com/FL/Palm-Coast/66-Beaverdam-Ln-32137/home/136798260,Stellar MLS as Distributed by MLS Grid,FC296062,N,Y,29.561433,-81.2317695
MLS Listing,,Single Family Residential,1608 S Daytona Ave,Flagler Beach,FL,32136,539000,2,2.0,FUQUAY SUB,1082,7681,1999,24,498,,Active,,,https://www.redfin.com/FL/Flagler-Beach/1608-S-Daytona-Ave-32136/home/137075120,Stellar MLS as Distributed by MLS Grid,FC295839,N,Y,29.4660947,-81.1229083
MLS Listing,,Single Family Residential,35 Red Clover Ln,Palm Coast,FL,32164,329900,3,2.0,PALM COAST SEC 33,2357,10019,2004,24,140,,Active,,,https://www.redfin.com/FL/Palm-Coast/35-Red-Clover-Ln-32164/home/137247926,Stellar MLS as Distributed by MLS Grid,S5094744,N,Y,29.5038725,-81.2551744
MLS Listing,,Vacant Land,23 Frederick Ln,Palm Coast,FL,32137,85000,,,PALM COAST,,11250,,24,,,Active,,,https://www.redfin.com/FL/Palm-Coast/23-Frederick-Ln-32137/home/136982829,Stellar MLS as Distributed by MLS Grid,FC296067,N,Y,29.5766609,-81.2192319
MLS Listing,,Single Family Residential,13 Farraday Ln,Palm Coast,FL,32137,599000,3,2.0,PALM HARBOR,1936,17000,1977,24,309,,Active,,,https://www.redfin.com/FL/Palm-Coast/13-Farraday-Ln-32137/home/136953145,Stellar MLS as Distributed by MLS Grid,FC296017,N,Y,29.5596479,-81.2062022
MLS Listing,,Single Family Residential,79 Seattle Trl,Palm Coast,FL,32164,389000,4,2.0,PALM COAST SEC 59,1779,10237,2021,24,219,,Active,,,https://www.redfin.com/FL/Palm-Coast/79-Seattle-Trl-32164/home/137140852,Stellar MLS as Distributed by MLS Grid,FC295881,N,Y,29.4299791,-81.1754604
MLS Listing,,Single Family Residential,9 Ryee Pl,Palm Coast,FL,32164,343990,4,2.0,PALM COAST SECTION 29,1862,10019,2023,24,185,,Active,,,https://www.redfin.com/FL/Palm-Coast/9-Ryee-Pl-32164/home/137169709,Stellar MLS as Distributed by MLS Grid,FC296108,N,Y,29.505145,-81.220606
MLS Listing,,Single Family Residential,6 Round Mill Ln,Palm Coast,FL,32164,344990,4,2.0,PALM COAST SECTION 32,1862,10019,2022,24,185,,Active,,,https://www.redfin.com/FL/Palm-Coast/6-Round-Mill-Ln-32164/home/137006022,Stellar MLS as Distributed by MLS Grid,FC296106,N,Y,29.512733,-81.243374
MLS Listing,,Single Family Residential,224 London Dr,Palm Coast,FL,32137,358900,3,2.0,MATANZAS WOODS,1734,10019,2002,24,207,,Active,,,https://www.redfin.com/FL/Palm-Coast/224-London-Dr-32137/home/136728590,Stellar MLS as Distributed by MLS Grid,FC295965,N,Y,29.6181812,-81.2742944
MLS Listing,,Townhouse,26 Redbud Rd,Palm Coast,FL,32137,294990,3,2.5,THE TRAILS,1795,19892,2023,24,164,75,Active,,,https://www.redfin.com/FL/Palm-Coast/26-Redbud-Rd-32137/home/183949003,Stellar MLS as Distributed by MLS Grid,FC293177,N,Y,29.5915874,-81.264458
MLS Listing,,Single Family Residential,35 Ryecliffe Dr,Palm Coast,FL,32164,344990,4,2.0,PALM COAST SECTION 29,1862,10019,2023,24,185,,Active,,,https://www.redfin.com/FL/Palm-Coast/35-Ryecliffe-Dr-32164/home/136990201,Stellar MLS as Distributed by MLS Grid,FC296084,N,Y,29.501146,-81.220281
MLS Listing,,Vacant Land,172 Bayside Dr,Palm Coast,FL,32137,72000,,,PALM COAST,,15313,,24,,,Active,,,https://www.redfin.com/FL/Palm-Coast/172-Bayside-Dr-32137/home/137159796,Stellar MLS as Distributed by MLS Grid,FC296097,N,Y,29.5683393,-81.2481747
MLS Listing,,Single Family Residential,33 Red Birch Ln,Palm Coast,FL,32164,344990,4,2.0,PALM COAST SECTION 33,1862,10206,2023,24,185,,Active,,,https://www.redfin.com/FL/Palm-Coast/33-Red-Birch-Ln-32164/home/136759362,Stellar MLS as Distributed by MLS Grid,FC296098,N,Y,29.509385,-81.257919
MLS Listing,,Condo/Co-op,300 Cinnamon Beach Way #251,Palm Coast,FL,32137,849000,3,3.0,OCEAN HAMMOCK,2003,13056,2005,24,424,994,Active,,,https://www.redfin.com/FL/Palm-Coast/300-Cinnamon-Beach-Way-32137/unit-251/home/137332773,Stellar MLS as Distributed by MLS Grid,FC296012,N,Y,29.5983304,-81.1848674
MLS Listing,,Vacant Land,XX Bayberry Village Rd,Bunnell,FL,32110,149000,,,BUNNELL DEV CO 12,,217800,,24,,,Active,,,https://www.redfin.com/FL/Bunnell/Bayberry-Village-Rd-32110/home/71837751,Stellar MLS as Distributed by MLS Grid,FC296004,N,Y,29.4134812,-81.18174152
MLS Listing,,Single Family Residential,20 Fanbury Ln,Palm Coast,FL,32137,389900,4,2.0,PALM HARBOR,2074,14070,2004,24,188,,Active,,,https://www.redfin.com/FL/Palm-Coast/20-Fanbury-Ln-32137/home/137059854,Stellar MLS as Distributed by MLS Grid,FC296013,N,Y,29.5767968,-81.2310364
MLS Listing,,Single Family Residential,8 Poinsettia Ln,Palm Coast,FL,32164,344990,4,2.0,PALM COAST SEC 28,1862,10206,2023,24,185,,Active,,,https://www.redfin.com/FL/Palm-Coast/8-Poinsettia-Ln-32164/home/137035453,Stellar MLS as Distributed by MLS Grid,FC296096,N,Y,29.498808,-81.215565
MLS Listing,,Vacant Land,XXX Leroy Ave,Hastings,FL,32145,10000,,,HASTINGS,,35284,,24,,,Active,,,https://www.redfin.com/FL/Unknown/Leroy-Ave-32145/home/182489732,Stellar MLS as Distributed by MLS Grid,FC296093,N,Y,29.61053991,-81.44463181
MLS Listing,,Single Family Residential,45 Pine Circle Dr,Palm Coast,FL,32164,344990,4,2.0,PALM COAST SEC 26,1862,10206,2023,24,185,,Active,,,https://www.redfin.com/FL/Palm-Coast/45-Pine-Circle-Dr-32164/home/137163411,Stellar MLS as Distributed by MLS Grid,FC296095,N,Y,29.523213,-81.211431
MLS Listing,,Condo/Co-op,200 Ocean Crest Dr #1005,Palm Coast,FL,32137,850000,3,3.0,HAMMOCK BEACH,1435,,2003,24,592,754,Active,,,https://www.redfin.com/FL/Palm-Coast/200-Ocean-Crest-Dr-32137/unit-1005/home/137174694,Stellar MLS as Distributed by MLS Grid,FC296046,N,Y,29.6043549,-81.1890752
MLS Listing,,Condo/Co-op,900 Ocean Marina Dr Unit 101,Flagler Beach,FL,32136,295000,1,1.0,OCEAN MARINA CONDO PH 2,804,823,1989,24,367,265,Active,,,https://www.redfin.com/FL/Flagler-Beach/900-Ocean-Marina-Dr-32136/unit-101/home/188531061,Stellar MLS as Distributed by MLS Grid,FC296045,N,Y,29.5082804,-81.1458035
MLS Listing,,Vacant Land,3 Cedardale Ct,Palm Coast,FL,32137,115000,,,PALM COAST,,13437,,25,,,Active,,,https://www.redfin.com/FL/Palm-Coast/3-Cedardale-Ct-32137/home/137126054,Stellar MLS as Distributed by MLS Grid,FC296083,N,Y,29.5929839,-81.2108371
MLS Listing,,Single Family Residential,17 Lloshire Path,Palm Coast,FL,32164,490000,5,2.5,PALM COAST SEC 64,2986,12502,2006,25,164,,Active,,,https://www.redfin.com/FL/Palm-Coast/17-Lloshire-Path-32164/home/136946449,Stellar MLS as Distributed by MLS Grid,A4589025,N,Y,29.4503434,-81.205169
MLS Listing,,Condo/Co-op,102 Yacht Harbor Dr #475,Palm Coast,FL,32137,459000,2,2.0,YACHT HARBOR VILLAGE,1351,13377,2006,25,340,701,Active,,,https://www.redfin.com/FL/Palm-Coast/102-Yacht-Harbor-Dr-32137/unit-475/home/137085075,Stellar MLS as Distributed by MLS Grid,FC296086,N,Y,29.57693,-81.189464
MLS Listing,,Single Family Residential,46 Parkview Dr,Palm Coast,FL,32164,349900,4,2.0,SOUTHWEST QUADRANT PH 01-04,1875,10062,2023,25,187,,Active,,,https://www.redfin.com/FL/Palm-Coast/46-Parkview-Dr-32164/home/137127318,Stellar MLS as Distributed by MLS Grid,FC295930,N,Y,29.542728,-81.225613
MLS Listing,,Single Family Residential,135 Palmwood Dr,Palm Coast,FL,32164,349900,4,2.0,SOUTHWEST QUADRANT PH 01-04,1875,9017,2023,25,187,,Active,,,https://www.redfin.com/FL/Palm-Coast/135-Palmwood-Dr-32164/home/137167460,Stellar MLS as Distributed by MLS Grid,FC295923,N,Y,29.539733,-81.225485
MLS Listing,,Vacant Land,34 Del Palma Dr,Palm Coast,FL,32137,172000,,,MARINA DEL PALMA,,6250,,25,,298,Active,,,https://www.redfin.com/FL/Palm-Coast/34-Del-Palma-Dr-32137/home/160478951,Stellar MLS as Distributed by MLS Grid,O6156341,N,Y,29.500364,-81.156316
MLS Listing,,Single Family Residential,15 Ponderosa Ln,Palm Coast,FL,32164,349000,4,2.0,PALM COAST SEC 28,1875,12502,2023,25,186,,Active,,,https://www.redfin.com/FL/Palm-Coast/15-Ponderosa-Ln-32164/home/136717026,Stellar MLS as Distributed by MLS Grid,FC295921,N,Y,29.5096431,-81.2130639
MLS Listing,,Single Family Residential,6 Potterville Ln,Palm Coast,FL,32164,349000,4,2.0,PALM COAST SEC 28,1875,10019,2023,25,186,,Active,,,https://www.redfin.com/FL/Palm-Coast/6-Potterville-Ln-32164/home/137231335,Stellar MLS as Distributed by MLS Grid,FC295891,N,Y,29.50641,-81.219505
MLS Listing,,Vacant Land,35 Farnell Ln,Palm Coast,FL,32137,82000,,,PALM COAST SEC 09,,10411,,25,,,Active,,,https://www.redfin.com/FL/Palm-Coast/35-Farnell-Ln-32137/home/137144517,Stellar MLS as Distributed by MLS Grid,FC296073,N,Y,29.5853799,-81.2211998
MLS Listing,,Vacant Land,33 Farnell Ln,Palm Coast,FL,32137,82000,,,PALM COAST SEC 09,,10498,,25,,,Active,,,https://www.redfin.com/FL/Palm-Coast/33-Farnell-Ln-32137/home/137125006,Stellar MLS as Distributed by MLS Grid,FC296072,N,Y,29.5855923,-81.2212632
MLS Listing,,Vacant Land,4 Bowman Pl,Palm Coast,FL,32137,69000,,,BELLE TERRE SEC 17,,11718,,25,,,Active,,,https://www.redfin.com/FL/Palm-Coast/4-Bowman-Pl-32137/home/136960721,Stellar MLS as Distributed by MLS Grid,FC296079,N,Y,29.5645956,-81.227739
MLS Listing,,Condo/Co-op,5 Greenbriar Ct #5,Palm Coast,FL,32137,259900,2,2.0,PALM COAST FAIRWAYS CONDO,1006,1056,1980,25,258,433,Active,,,https://www.redfin.com/FL/Palm-Coast/5-Greenbriar-Ct-32137/unit-5/home/180014087,Stellar MLS as Distributed by MLS Grid,FC296074,N,Y,29.5643266,-81.1951606
MLS Listing,,Single Family Residential,31 Lumber Jack Trl,Palm Coast,FL,32137,423990,4,3.0,SAWMILL BRANCH,2363,5000,2023,25,179,19,Active,,,https://www.redfin.com/FL/Palm-Coast/31-Lumber-Jack-Trl-32137/home/188516352,Stellar MLS as Distributed by MLS Grid,FC296077,N,Y,29.6093078,-81.2853448
MLS Listing,,Single Family Residential,30 Rolling Fern Dr,Palm Coast,FL,32164,369000,3,2.0,LEHIGH WOODS,1535,10168,2005,25,240,,Active,,,https://www.redfin.com/FL/Palm-Coast/30-Rolling-Fern-Dr-32164/home/137035975,Stellar MLS as Distributed by MLS Grid,FC296048,N,Y,29.5224167,-81.2602936
MLS Listing,,Vacant Land,24 Cottonwood Trl,Palm Coast,FL,32137,229000,,,ARMAND BEACH ESTATES,,10000,,25,,41,Active,,,https://www.redfin.com/FL/Palm-Coast/24-Cottonwood-Trl-32137/home/136902318,Stellar MLS as Distributed by MLS Grid,T3485276,N,Y,29.62042,-81.1966177
MLS Listing,,Single Family Residential,13 Creek Ct,Palm Coast,FL,32137,749900,3,2.0,PALM COAST SEC 15,2132,8756,1988,25,352,,Active,,,https://www.redfin.com/FL/Palm-Coast/13-Creek-Ct-32137/home/137194042,Stellar MLS as Distributed by MLS Grid,V4933168,N,Y,29.5999688,-81.207838
MLS Listing,,Single Family Residential,14 Wainmont Pl,Palm Coast,FL,32164,424400,3,2.0,PALM COAST SEC 19,1571,12763,1989,25,270,,Active,,,https://www.redfin.com/FL/Palm-Coast/14-Wainmont-Pl-32164/home/137153932,Stellar MLS as Distributed by MLS Grid,FC296000,N,Y,29.53223,-81.2288632
MLS Listing,,Single Family Residential,33 Lumber Jack Trl,Palm Coast,FL,32137,377990,4,2.0,SAWMILL BRANCH,2115,6000,2023,25,179,19,Active,,,https://www.redfin.com/FL/Palm-Coast/33-Lumber-Jack-Trl-32137/home/188515386,Stellar MLS as Distributed by MLS Grid,FC296075,N,Y,29.6091406,-81.2854263
MLS Listing,,Condo/Co-op,2450 N Ocean Shore Blvd #216,Flagler Beach,FL,32136,843500,3,3.0,OCEANSIDE/BEVERLY BEACH CONDO,1919,8519,2007,25,440,900,Active,,,https://www.redfin.com/FL/Flagler-Beach/2450-N-Ocean-Shore-Blvd-32136/unit-216/home/137223262,Stellar MLS as Distributed by MLS Grid,FC296030,N,Y,29.5102846,-81.1423987
MLS Listing,,Single Family Residential,11 Crossview Ln,Palm Coast,FL,32137,624300,3,2.0,PALM COAST SEC 14,2113,15682,1985,25,295,,Active,,,https://www.redfin.com/FL/Palm-Coast/11-Crossview-Ln-32137/home/136817018,Stellar MLS as Distributed by MLS Grid,FC296060,N,Y,29.5928682,-81.2057717
MLS Listing,,Single Family Residential,71 Bainbridge Ln,Palm Coast,FL,32137,323000,3,2.0,BAYSIDE PRCL C,1804,10019,1992,25,179,,Active,,,https://www.redfin.com/FL/Palm-Coast/71-Bainbridge-Ln-32137/home/136714236,Stellar MLS as Distributed by MLS Grid,FC295562,N,Y,29.5725683,-81.2445477
MLS Listing,,Single Family Residential,13 Blairmore Pl,Palm Coast,FL,32137,245000,2,2.0,PALM COAST/BERNARD MDWS SEC 81,1081,10106,1985,25,227,,Active,,,https://www.redfin.com/FL/Palm-Coast/13-Blairmore-Pl-32137/home/136880709,Stellar MLS as Distributed by MLS Grid,FC296061,N,Y,29.5533283,-81.2084836
MLS Listing,,Vacant Land,12 Radius Pl,Palm Coast,FL,32164,66999,,,PALM COAST SEC 30,,13504,,25,,,Active,,,https://www.redfin.com/FL/Palm-Coast/12-Radius-Pl-32164/home/136827652,Stellar MLS as Distributed by MLS Grid,A4588707,N,Y,29.5158289,-81.2302167
MLS Listing,,Single Family Residential,45 Londonderry Dr,Palm Coast,FL,32137,675000,5,3.0,PALM COAST MAP LAKEVIEW SEC 37,3335,10019,2001,25,202,,Active,,,https://www.redfin.com/FL/Palm-Coast/45-Londonderry-Dr-32137/home/136849408,Stellar MLS as Distributed by MLS Grid,FC295847,N,Y,29.60764,-81.2755631
MLS Listing,,Condo/Co-op,85 Avenue DE LA Mer #502,Palm Coast,FL,32137,1275000,3,2.5,TUSCANY HAMMOCK DUNES,2110,25156,2006,25,604,1886,Active,,,https://www.redfin.com/FL/Palm-Coast/85-Avenue-de-la-Mer-32137/unit-502/home/136934547,Stellar MLS as Distributed by MLS Grid,FC295926,N,Y,29.5735244,-81.1728032
MLS Listing,,Single Family Residential,2731 Sunset Inlet Dr,Flagler Beach,FL,32136,749500,3,2.5,SUNSET INLET SUB,1882,3093,2014,25,398,325,Active,,,https://www.redfin.com/FL/Beverly-Beach/2731-Sunset-Inlet-Dr-32136/home/137048278,Stellar MLS as Distributed by MLS Grid,FC295986,N,Y,29.516984,-81.146251
MLS Listing,,Single Family Residential,679 Elk River Dr,Ormond Beach,FL,32174,549900,3,2.0,Plantation Bay,2304,,2010,25,239,234,Active,,,https://www.redfin.com/FL/Ormond-Beach/679-Elk-River-Dr-32174/home/59902691,Daytona MLS,1116033,N,Y,29.3800102,-81.1701202
MLS Listing,,Single Family Residential,6 Waver Pl,Palm Coast,FL,32164,315000,3,2.0,PALM COAST SEC 19,1547,10454,2001,25,204,,Active,,,https://www.redfin.com/FL/Palm-Coast/6-Waver-Pl-32164/home/137129109,Stellar MLS as Distributed by MLS Grid,FC295968,N,Y,29.5320923,-81.2263031
MLS Listing,,Single Family Residential,23 Montauk Ln,Palm Coast,FL,32164,429900,4,2.0,HAMPTONS,2075,10759,1994,25,207,102,Active,,,https://www.redfin.com/FL/Palm-Coast/23-Montauk-Ln-32164/home/136891147,Stellar MLS as Distributed by MLS Grid,G5075292,N,Y,29.5358288,-81.2340057
MLS Listing,,Single Family Residential,39 Turtle Ridge Dr,Flagler Beach,FL,32136,695000,4,4.0,EAGLE LAKES PH 1 SEC 1,3457,10019,2017,25,201,73,Active,,,https://www.redfin.com/FL/Flagler-Beach/39-Turtle-Ridge-Dr-32136/home/137101909,Stellar MLS as Distributed by MLS Grid,FC296026,N,Y,29.4183864,-81.1516207
MLS Listing,,Single Family Residential,2031 S Central Ave,Flagler Beach,FL,32136,999400,3,2.5,FUQUAY SUB,2429,5000,2023,26,411,,Active,,,https://www.redfin.com/FL/Flagler-Beach/2031-S-Central-Ave-32136/home/136921892,Stellar MLS as Distributed by MLS Grid,FC296059,N,Y,29.458689,-81.1175279
MLS Listing,,Vacant Land,17 Powder Ln,Palm Coast,FL,32164,59900,,,PALM COAST SEC 28,,10019,,26,,,Active,,,https://www.redfin.com/FL/Palm-Coast/17-Powder-Ln-32164/home/136839248,Stellar MLS as Distributed by MLS Grid,FC296058,N,Y,29.5039977,-81.2143403
MLS Listing,,Single Family Residential,70 Westfield Ln,Palm Coast,FL,32164,405000,3,2.0,PALM COAST,1719,,1991,26,236,,Active,,,https://www.redfin.com/FL/Palm-Coast/70-Westfield-Ln-32164/home/136770058,Stellar MLS as Distributed by MLS Grid,NS1075315,N,Y,29.5330391,-81.2441605
MLS Listing,,Vacant Land,50 Ulysses Trl,Palm Coast,FL,32164,58900,,,PALM COAST SEC 57,,10019,,26,,,Active,,,https://www.redfin.com/FL/Palm-Coast/50-Ulysses-Trl-32164/home/136969756,Stellar MLS as Distributed by MLS Grid,FC296056,N,Y,29.4547113,-81.1816748
MLS Listing,,Vacant Land,70 Wellwater Dr,Palm Coast,FL,32164,59900,,,PALM COAST SEC 21,,8320,,26,,,Active,,,https://www.redfin.com/FL/Palm-Coast/70-Wellwater-Dr-32164/home/137084303,Stellar MLS as Distributed by MLS Grid,FC296054,N,Y,29.5480122,-81.2512058
MLS Listing,,Vacant Land,15 Sea Spiral Path,Palm Coast,FL,32164,72000,,,PALM COAST SEC 59,,12502,,26,,,Active,,,https://www.redfin.com/FL/Palm-Coast/15-Sea-Spiral-Path-32164/home/136900183,Stellar MLS as Distributed by MLS Grid,FC296051,N,Y,29.4279938,-81.1856704
MLS Listing,,Single Family Residential,15 Ruth Dr,Palm Coast,FL,32164,377777,4,2.0,Palm Coast,2250,,2005,26,168,,Active,,,https://www.redfin.com/FL/Palm-Coast/15-Ruth-Dr-32164/home/137112680,NEFLMLS,1256769,N,Y,29.5144204,-81.2450425
MLS Listing,,Single Family Residential,2120 S Central Ave,Flagler Beach,FL,32136,799000,3,2.5,FUQUAY SUB,2150,7500,1990,26,372,,Active,,,https://www.redfin.com/FL/Flagler-Beach/2120-S-Central-Ave-32136/home/136870682,Stellar MLS as Distributed by MLS Grid,FC296028,N,Y,29.457269,-81.1173881
MLS Listing,,Single Family Residential,3 Clement Ct,Palm Coast,FL,32137,599000,4,3.0,PALM COAST SEC 16,1972,15682,1989,26,304,,Active,,,https://www.redfin.com/FL/Palm-Coast/3-Clement-Ct-32137/home/137150508,Stellar MLS as Distributed by MLS Grid,FC295831,N,Y,29.5995906,-81.223682
MLS Listing,,Multi-Family (2-4 Unit),33 Pony Express Dr Unit A&B,Palm Coast,FL,32164,459900,6,4.0,PAM COAST SEC 28,2952,10324,1989,26,156,,Active,,,https://www.redfin.com/FL/Palm-Coast/33-Pony-Express-Dr-32164/unit-A-B/home/188373937,Stellar MLS as Distributed by MLS Grid,FC296041,N,Y,29.5111675,-81.2138261
MLS Listing,,Vacant Land,16 Zodiac Pl,Palm Coast,FL,32164,87500,,,Quail Hollow,,10018,,26,,,Active,,,https://www.redfin.com/FL/Palm-Coast/16-Zodiac-Pl-32164/home/137144950,NEFLMLS,1256734,N,Y,29.4472291,-81.2208817
MLS Listing,,Single Family Residential,402 Wingspan Dr,Ormond Beach,FL,32174,874900,4,3.0,PLANTATION BAY 2A-F UN 4,3106,12981,2022,26,282,78,Active,,,https://www.redfin.com/FL/Ormond-Beach/402-Wingspan-Dr-32174/home/136731199,Stellar MLS as Distributed by MLS Grid,FC296035,N,Y,29.3769852,-81.1631861
MLS Listing,,Single Family Residential,9 Burnet Pl,Palm Coast,FL,32137,325000,3,2.0,PALM COAST SEC 35,1731,10193,1997,26,188,,Active,,,https://www.redfin.com/FL/Palm-Coast/9-Burnet-Pl-32137/home/137009240,Stellar MLS as Distributed by MLS Grid,FC296018,N,Y,29.5810412,-81.2551314
MLS Listing,,Single Family Residential,38 Pershing Ln,Palm Coast,FL,32164,344900,4,2.0,SOUTHWEST QUADRANT PH 01-04,1607,10019,2023,26,215,,Active,,,https://www.redfin.com/FL/Palm-Coast/38-Pershing-Ln-32164/home/136819289,Stellar MLS as Distributed by MLS Grid,OM667580,N,Y,29.537924,-81.211355
MLS Listing,,Single Family Residential,10 Campbell Ct,Palm Coast,FL,32137,599900,3,2.0,PALM COAST SEC 03 PALM HARBOR OFFICE PARK,1896,13618,1973,26,316,,Active,,,https://www.redfin.com/FL/Palm-Coast/10-Campbell-Ct-32137/home/137141053,Stellar MLS as Distributed by MLS Grid,FC295909,N,Y,29.5706119,-81.2062022
MLS Listing,,Single Family Residential,5 Crazy Horse Ct,Palm Coast,FL,32137,779900,3,2.5,PALM COAST SEC 15,2367,8756,1987,26,329,,Active,,,https://www.redfin.com/FL/Palm-Coast/5-Crazy-Horse-Ct-32137/home/136732889,Stellar MLS as Distributed by MLS Grid,O6152084,N,Y,29.5976373,-81.209571
MLS Listing,,Vacant Land,13 Sea Spiral Path,Palm Coast,FL,32164,72000,,,PALM COAST SEC 59,,10019,,26,,,Active,,,https://www.redfin.com/FL/Palm-Coast/13-Sea-Spiral-Path-32164/home/136738217,Stellar MLS as Distributed by MLS Grid,FC296029,N,Y,29.4279208,-81.1859406
MLS Listing,,Single Family Residential,34 Price Ln,Palm Coast,FL,32164,324000,4,2.0,PALM COAST SEC 24,1650,10019,2021,27,196,,Active,,,https://www.redfin.com/FL/Palm-Coast/34-Price-Ln-32164/home/136992396,Stellar MLS as Distributed by MLS Grid,A4588691,N,Y,29.528787,-81.2057287
MLS Listing,,Single Family Residential,90 S Riverwalk Dr,Palm Coast,FL,32137,745000,3,2.5,PALM COAST PLANTATION UN 1B,2485,15638,2003,27,300,208,Active,,,https://www.redfin.com/FL/Palm-Coast/90-S-Riverwalk-Dr-32137/home/137082700,Stellar MLS as Distributed by MLS Grid,FC295980,N,Y,29.5159273,-81.1522884
MLS Listing,,Single Family Residential,4 Beech Pl,Palm Coast,FL,32137,527000,3,2.0,PALM COAST,2698,14090,1980,27,195,,Active,,,https://www.redfin.com/FL/Palm-Coast/4-Beech-Pl-32137/home/137281450,Stellar MLS as Distributed by MLS Grid,FC296020,N,Y,29.5558483,-81.2281962
MLS Listing,,Single Family Residential,22 Piedmont Dr,Palm Coast,FL,32164,339900,3,2.0,PALM COAST SEC 26,1721,10629,2023,27,198,,Active,,,https://www.redfin.com/FL/Palm-Coast/22-Piedmont-Dr-32164/home/137061095,Stellar MLS as Distributed by MLS Grid,FC296010,N,Y,29.510058,-81.20668
MLS Listing,,Single Family Residential,10 Pinelynn Ln,Palm Coast,FL,32164,449900,4,2.0,PALM COAST SEC 26,2459,21021,2000,27,183,,Active,,,https://www.redfin.com/FL/Palm-Coast/10-Pinelynn-Ln-32164/home/136819929,Stellar MLS as Distributed by MLS Grid,FC296016,N,Y,29.5193904,-81.2155213
MLS Listing,,Single Family Residential,11 Pepperdine Dr,Palm Coast,FL,32164,265000,3,2.0,PINE GROVE SEC 25,1522,8015,2005,27,174,,Active,,,https://www.redfin.com/FL/Palm-Coast/11-Pepperdine-Dr-32164/home/136832037,Stellar MLS as Distributed by MLS Grid,FC295858,N,Y,29.5446806,-81.2224293
MLS Listing,,Single Family Residential,76 Roxboro Dr,Palm Coast,FL,32164,344900,4,2.0,PALM COAST SEC 32,1607,10019,2023,27,215,,Active,,,https://www.redfin.com/FL/Palm-Coast/76-Roxboro-Dr-32164/home/137068925,Stellar MLS as Distributed by MLS Grid,FC296007,N,Y,29.512888,-81.24997
MLS Listing,,Single Family Residential,47 Barkwood Ln,Palm Coast,FL,32137,294900,3,2.0,BAYSIDE PRCL C,1478,10019,1997,27,200,,Active,,,https://www.redfin.com/FL/Palm-Coast/47-Barkwood-Ln-32137/home/136714309,Stellar MLS as Distributed by MLS Grid,FC295957,N,Y,29.5741359,-81.2451501
MLS Listing,,Single Family Residential,61 Wentworth Ln,Palm Coast,FL,32164,445000,4,2.0,PALM COAST SEC 21,2137,10280,1993,27,208,,Active,,,https://www.redfin.com/FL/Palm-Coast/61-Wentworth-Ln-32164/home/137243806,Stellar MLS as Distributed by MLS Grid,FC295974,N,Y,29.5509031,-81.247538
MLS Listing,,Vacant Land,xxxx Olsen St,Bunnell,FL,32110-0000,10000,,,Flagler Estates,,40510,,27,,,Active,,,https://www.redfin.com/FL/Bunnell/Olsen-ST-Unknown/home/188473981,St. Augustine and St. Johns County Board of REALTORS®,237019,N,Y,29.603254208275,-81.4405454187393
MLS Listing,,Single Family Residential,38 Louisville Dr,Palm Coast,FL,32137,379900,3,2.0,MATANZA WOODS,1674,11195,2018,27,227,,Active,,,https://www.redfin.com/FL/Palm-Coast/38-Louisville-Dr-32137/home/137248369,Stellar MLS as Distributed by MLS Grid,FC295950,N,Y,29.6024646,-81.2665738
MLS Listing,,Single Family Residential,25 Ryecroft Ln,Palm Coast,FL,32164,305000,3,2.0,NOT IN SUBDIVISION,1264,11195,1999,28,241,,Active,,,https://www.redfin.com/FL/Palm-Coast/25-Ryecroft-Ln-32164/home/137247620,Stellar MLS as Distributed by MLS Grid,FC295998,N,Y,29.4992739,-81.2212888
MLS Listing,,Vacant Land,296 Yacht Harbor Dr,Palm Coast,FL,32137,349000,,,HARBOR VILLAGE MARINA,,4800,,28,,145,Active,,,https://www.redfin.com/FL/Palm-Coast/296-Yacht-Harbor-Dr-32137/home/137209067,Stellar MLS as Distributed by MLS Grid,O6155252,N,Y,29.582725,-81.1922046
MLS Listing,,Single Family Residential,26 Edith Ln,Palm Coast,FL,32164,499000,3,2.0,CYPRESS KNOLL,1815,10000,2001,28,275,,Active,,,https://www.redfin.com/FL/Palm-Coast/26-Edith-Ln-32164/home/137263597,Stellar MLS as Distributed by MLS Grid,FC295913,N,Y,29.4830894,-81.2461397
MLS Listing,,Single Family Residential,40 Perthshire Ln,Palm Coast,FL,32164,349000,3,2.0,SOUTHWEST QUADRANT PH 01-04,1909,22825,1996,28,183,,Active,December-10-2023 01:00 PM,December-10-2023 04:00 PM,https://www.redfin.com/FL/Palm-Coast/40-Perthshire-Ln-32164/home/137149326,Stellar MLS as Distributed by MLS Grid,FC295985,N,Y,29.5415542,-81.2139072
MLS Listing,,Vacant Land,90 Ryan Dr,Palm Coast,FL,32164,73900,,,PALM COAST SEC 29,,14941,,28,,,Active,,,https://www.redfin.com/FL/Palm-Coast/90-Ryan-Dr-32164/home/136959425,Stellar MLS as Distributed by MLS Grid,FC295981,N,Y,29.5021963,-81.2305346
MLS Listing,,Single Family Residential,8 Prestwick Ln,Palm Coast,FL,32164,400400,4,2.0,PALM COAST SEC 24,2265,10019,2024,28,177,,Active,,,https://www.redfin.com/FL/Palm-Coast/8-Prestwick-Ln-32164/home/136877068,Stellar MLS as Distributed by MLS Grid,FC295920,N,Y,29.535644,-81.2101293
MLS Listing,,Single Family Residential,36 Pineapple Dr,Palm Coast,FL,32164,344990,4,2.0,PALM COAST SEC 26,1862,10206,2023,28,185,,Active,,,https://www.redfin.com/FL/Palm-Coast/36-Pineapple-Dr-32164/home/137299933,Stellar MLS as Distributed by MLS Grid,FC295967,N,Y,29.514043,-81.206091
MLS Listing,,Single Family Residential,62 Perrotti Ln,Palm Coast,FL,32164,344990,4,2.0,PALM COAST SEC 25,1862,10206,2023,28,185,,Active,,,https://www.redfin.com/FL/Palm-Coast/62-Perrotti-Ln-32164/home/137109165,Stellar MLS as Distributed by MLS Grid,FC295966,N,Y,29.539576,-81.211853
MLS Listing,,Vacant Land,Kelly St,Hastings,FL,32145,15000,,,FLAGLER ESTATES,,84460,,28,,,Active,,,https://www.redfin.com/FL/Hastings/Unknown-32145/home/136875324,Stellar MLS as Distributed by MLS Grid,FC295931,N,Y,29.611944,-81.449868
