SALE TYPE,SOLD DATE,PROPERTY TYPE,ADDRESS,CITY,STATE OR PROVINCE,ZIP OR POSTAL CODE,PRICE,BEDS,BATHS,LOCATION,SQUARE FEET,LOT SIZE,YEAR BUILT,DAYS ON MARKET,$/SQUARE FEET,HOA/MONTH,STATUS,NEXT OPEN HOUSE START TIME,NEXT OPEN HOUSE END TIME,URL (SEE https://www.redfin.com/buy-a-home/comparative-market-analysis FOR INFO ON PRICING),SOURCE,MLS#,FAVORITE,INTERESTED,LATITUDE,LONGITUDE
"In accordance with local MLS rules, some MLS listings are not included in the download"
MLS Listing,,Single Family Residential,1831 Hawks View Dr,Ruskin,FL,33570,319900,3,2.0,HAWKS POINT,1482,6465,2015,3,216,83,Active,,,https://www.redfin.com/FL/Ruskin/1831-Hawks-View-Dr-33570/home/101881007,Stellar MLS as Distributed by MLS Grid,T3488891,N,Y,27.7308651,-82.4097335
MLS Listing,,Single Family Residential,7166 Samuel Ivy Dr,Tampa,FL,33619,389900,3,2.0,TOUCHSTONE,1561,5723,2019,3,250,14,Active,,,https://www.redfin.com/FL/Tampa/7166-Samuel-Ivy-Dr-33619/home/173176315,Stellar MLS as Distributed by MLS Grid,T3488868,N,Y,27.9115464,-82.3756787
MLS Listing,,Single Family Residential,1225 Chevy Chase Dr,Sun City Center,FL,33573,259900,2,2.0,DEL WEBBS SUN CITY FLORIDA UN,1546,2520,1963,3,168,147,Active,,,https://www.redfin.com/FL/Sun-City-Center/1225-Chevy-Chase-Dr-33573/home/47177437,Stellar MLS as Distributed by MLS Grid,T3488696,N,Y,27.7180368,-82.3553793
MLS Listing,,Single Family Residential,3918 Whisper Grove Ct,Valrico,FL,33594,575000,3,2.0,VALRICO GROVES,2512,11813,2001,3,229,83,Active,,,https://www.redfin.com/FL/Valrico/3918-Whisper-Grove-Ct-33594/home/47367814,Stellar MLS as Distributed by MLS Grid,T3488455,N,Y,27.9211392,-82.2332501
MLS Listing,,Single Family Residential,3806 E Osborne Ave,Tampa,FL,33610,325000,4,2.0,OSBORNE OAKS UNIT ONE,1408,4957,2005,6,231,,Active,,,https://www.redfin.com/FL/Tampa/3806-E-Osborne-Ave-33610/home/47014210,Stellar MLS as Distributed by MLS Grid,T3488379,N,Y,27.9890043,-82.4167202
MLS Listing,,Single Family Residential,3022 Christophers Watch Ln,Ruskin,FL,33570,1199900,3,3.5,ANTIGUA COVE PH 1,2362,9521,2021,16,508,299,Active,,,https://www.redfin.com/FL/Ruskin/3022-Christophers-Watch-Ln-33570/home/47042647,Stellar MLS as Distributed by MLS Grid,T3486890,N,Y,27.7264428,-82.4706757
MLS Listing,,Single Family Residential,913 Nutmeg Spice Pl,Ruskin,FL,33570,396900,5,2.5,BAYOU PASS PH 3B,2415,4858,2020,25,164,80,Active,,,https://www.redfin.com/FL/Ruskin/913-Nutmeg-Spice-Pl-33570/home/173875138,Stellar MLS as Distributed by MLS Grid,T3484046,N,Y,27.7102009,-82.4074467
MLS Listing,,Vacant Land,10910 Brooksnest Ct,Lithia,FL,33547,250000,,,HAWK CREEK RESERVE,,45149,,31,,,Active,,,https://www.redfin.com/FL/Lithia/10910-Brooksnest-Ct-33547/home/47051865,Stellar MLS as Distributed by MLS Grid,T3483673,N,Y,27.841684,-82.14821
MLS Listing,,Single Family Residential,317 Benson St,Valrico,FL,33594,319900,3,2.0,BRANDON BROOK PH II,1347,6000,1992,31,237,34,Active,,,https://www.redfin.com/FL/Valrico/317-Benson-St-33594/home/47204526,Stellar MLS as Distributed by MLS Grid,T3483038,N,Y,27.9435947,-82.2531616
MLS Listing,,Condo/Co-op,1264 E 113th Ave Unit J204,Tampa,FL,33612,122000,1,1.0,UNIVERSITY OAKWOODS VII A CONDO,476,,1984,32,256,119,Active,,,https://www.redfin.com/FL/Tampa/1264-E-113th-Ave-33612/unit-J204/home/47305294,Stellar MLS as Distributed by MLS Grid,T3482164,N,Y,28.0513518,-82.4459301
MLS Listing,,Single Family Residential,1002 W LA Salle St,Tampa,FL,33607,1250000,4,2.0,MUNROS & CLEWISS ADD,2524,14250,1950,38,495,,Active,,,https://www.redfin.com/FL/Tampa/1002-W-La-Salle-St-33607/home/47334084,Stellar MLS as Distributed by MLS Grid,T3482391,N,Y,27.9546227,-82.4697904
MLS Listing,,Single Family Residential,13747 Artesa Bell Dr,Riverview,FL,33579,539900,4,3.0,SOUTH FORK UNIT 11,2263,11521,2010,58,239,23,Active,,,https://www.redfin.com/FL/Riverview/13747-Artesa-Bell-Dr-33579/home/47034759,Stellar MLS as Distributed by MLS Grid,T3467794,N,Y,27.782585,-82.3113148
MLS Listing,,Single Family Residential,10480 Lucaya Dr,Tampa,FL,33647,489000,3,2.5,HERITAGE ISLES PH 3D,1803,6403,2004,66,271,3,Active,,,https://www.redfin.com/FL/Tampa/10480-Lucaya-Dr-33647/home/47382004,Stellar MLS as Distributed by MLS Grid,T3475737,N,Y,28.1551883,-82.3086644
MLS Listing,,Single Family Residential,2514 W Douglas St,Tampa,FL,33607,599999,3,2.5,WINTON PARK,1998,5150,2017,73,300,,Active,,,https://www.redfin.com/FL/Tampa/2514-W-Douglas-St-33607/home/123825691,Stellar MLS as Distributed by MLS Grid,T3472856,N,Y,27.9730952,-82.4857457
MLS Listing,,Single Family Residential,8619 Grand Alberato Rd,Tampa,FL,33647,605500,2,2.5,ESPLANADE OF TAMPA PH 2B,2100,7028,2018,115,288,352,Active,,,https://www.redfin.com/FL/Tampa/8619-Grand-Alberato-Rd-33647/home/144345589,Stellar MLS as Distributed by MLS Grid,T3465505,N,Y,28.1569157,-82.3634548
MLS Listing,,Vacant Land,1207 Bayshore Blvd,Tampa,FL,33606,2999900,,,MORRISON GROVE SUBDIVISION,,9243,,1,,,Active,,,https://www.redfin.com/FL/Tampa/1207-Bayshore-Blvd-33606/home/182290075,Stellar MLS as Distributed by MLS Grid,T3407771,N,Y,27.9327907,-82.4724022
MLS Listing,,Single Family Residential,12706 N Ola Ave,Tampa,FL,33612,630000,4,2.0,BOUCHARD SUBDIVISION,1589,7800,2022,1,396,,Active,,,https://www.redfin.com/FL/Tampa/12706-N-Ola-Ave-33612/home/47125899,Stellar MLS as Distributed by MLS Grid,T3489659,N,Y,28.0626029,-82.463704
MLS Listing,,Single Family Residential,4517 Paper Mulberry Pl,Riverview,FL,33578,370000,3,2.0,MAGNOLIA PARK NORTHEAST PRCL,1551,5940,2013,1,239,178,Active,,,https://www.redfin.com/FL/Riverview/4517-Paper-Mulberry-Pl-33578/home/47063371,Stellar MLS as Distributed by MLS Grid,O6161469,N,Y,27.9067214,-82.3510168
MLS Listing,,Single Family Residential,1912 E Annona Ave,Tampa,FL,33612,319900,4,1.0,TAMPA OVERLOOK,1200,7300,1955,1,267,,Active,,,https://www.redfin.com/FL/Tampa/1912-E-Annona-Ave-33612/home/47306496,Stellar MLS as Distributed by MLS Grid,O6161578,N,Y,28.0409599,-82.4363642
MLS Listing,,Single Family Residential,7420 E Chelsea St,Tampa,FL,33610,419000,5,3.0,UNPLATTED,1632,13750,1967,1,257,,Active,,,https://www.redfin.com/FL/Tampa/7420-E-Chelsea-St-33610/home/47158675,Stellar MLS as Distributed by MLS Grid,T3489255,N,Y,27.9854729,-82.3711029
MLS Listing,,Single Family Residential,2116 Seaman Rd,Tampa,FL,33612,399000,3,2.0,TAMPAS NORTH SIDE CNTRY CL,1342,17280,1958,1,297,,Active,,,https://www.redfin.com/FL/Tampa/2116-Seaman-Rd-33612/home/47125731,Stellar MLS as Distributed by MLS Grid,U8222980,N,Y,28.0605472,-82.4809234
MLS Listing,,Single Family Residential,522 Golf And Sea Blvd,Apollo Beach,FL,33572,450000,5,3.0,APOLLO BEACH UNIT FOUR,2294,7700,1977,1,196,,Active,,,https://www.redfin.com/FL/Apollo-Beach/522-Golf-and-Sea-Blvd-33572/home/47363004,Stellar MLS as Distributed by MLS Grid,T3489618,N,Y,27.7649441,-82.4059263
MLS Listing,,Single Family Residential,1009 Wynnmere Walk Ave,Ruskin,FL,33570,449000,5,2.5,WYNNMERE WEST PH 2 & 3,2500,5500,2019,1,180,15,Active,December-9-2023 10:00 AM,December-9-2023 01:00 PM,https://www.redfin.com/FL/Ruskin/1009-Wynnmere-Walk-Ave-33570/home/110282227,Stellar MLS as Distributed by MLS Grid,T3489490,N,Y,27.733614,-82.4220763
MLS Listing,,Single Family Residential,1736 Pacific Dunes Dr,Sun City Center,FL,33573,479900,2,2.5,SUN CITY CENTER UNIT 274 & 2,2365,9674,2017,1,203,460,Active,,,https://www.redfin.com/FL/Sun-City-Center/1736-Pacific-Dunes-Dr-33573/home/108204422,Stellar MLS as Distributed by MLS Grid,T3489336,N,Y,27.7011848,-82.3471175
MLS Listing,,Single Family Residential,12710 Lovers Ln,Riverview,FL,33579,359999,3,2.0,TROPICAL ACRES SOUTH UNIT 4,1320,41818,1986,1,273,,Active,,,https://www.redfin.com/FL/Riverview/12710-Lovers-Ln-33579/home/47229031,Stellar MLS as Distributed by MLS Grid,T3489617,N,Y,27.8097134,-82.2742634
MLS Listing,,Single Family Residential,656 Chipper Dr,Sun City Center,FL,33573,345000,2,2.0,SUN CITY CENTER UNIT 274 & 2,1568,5957,2015,1,220,305,Active,,,https://www.redfin.com/FL/Sun-City-Center/656-Chipper-Dr-33573/home/108246982,Stellar MLS as Distributed by MLS Grid,T3489238,N,Y,27.703617,-82.3437351
MLS Listing,,Single Family Residential,7842 Carriage Pointe Dr,Gibsonton,FL,33534,405900,4,2.5,CARRIAGE POINTE,2050,4800,2006,1,198,25,Active,,,https://www.redfin.com/FL/Gibsonton/7842-Carriage-Pointe-Dr-33534/home/47013967,Stellar MLS as Distributed by MLS Grid,T3489559,N,Y,27.8298366,-82.3645459
MLS Listing,,Townhouse,644 Chipper Dr,Sun City Center,FL,33573,410000,3,2.0,SUN CITY CENTER UNIT 274 & 275,1568,2221,2015,1,261,255,Active,,,https://www.redfin.com/FL/Sun-City-Center/644-Chipper-Dr-33573/home/108246704,Stellar MLS as Distributed by MLS Grid,T3489600,N,Y,27.7042233,-82.3441969
MLS Listing,,Single Family Residential,3806 W Wallace Ave,Tampa,FL,33611,564900,3,2.0,GANDY MANOR ADD,1774,7500,1954,1,318,,Active,,,https://www.redfin.com/FL/Tampa/3806-W-Wallace-Ave-33611/home/47293744,Stellar MLS as Distributed by MLS Grid,T3489441,N,Y,27.8851388,-82.5071884
MLS Listing,,Single Family Residential,6305 Florida Cir E,Apollo Beach,FL,33572,340000,3,2.0,APOLLO BEACH UNIT ONE PT ONE,1478,8925,1974,2,230,,Active,,,https://www.redfin.com/FL/Apollo-Beach/6305-Florida-Cir-E-33572/home/47171623,Stellar MLS as Distributed by MLS Grid,A4591283,N,Y,27.7696089,-82.4025149
MLS Listing,,Single Family Residential,5011 Carrollwood Meadows Dr,Tampa,FL,33625,520000,3,2.0,CARROLLWOOD MEADOWS UNIT 04,1531,12403,1981,2,340,,Active,,,https://www.redfin.com/FL/Tampa/5011-Carrollwood-Meadows-Dr-33625/home/47119413,Stellar MLS as Distributed by MLS Grid,T3489584,N,Y,28.0761751,-82.5473913
MLS Listing,,Single Family Residential,3902 Drawdy Rd,Plant City,FL,33567,580000,5,3.0,UNPLATTED,2873,57064,1979,2,202,,Active,,,https://www.redfin.com/FL/Plant-City/3902-Drawdy-Rd-33567/home/47036981,Stellar MLS as Distributed by MLS Grid,T3489590,N,Y,27.9621302,-82.1534939
MLS Listing,,Single Family Residential,10011 Davis St,Gibsonton,FL,33534,450000,3,1.5,GIBSONTON ON THE BAY 6TH ADD,1448,61230,1939,2,311,,Active,,,https://www.redfin.com/FL/Gibsonton/10011-Davis-St-33534/home/47167082,Stellar MLS as Distributed by MLS Grid,T3489260,N,Y,27.8505577,-82.3769497
MLS Listing,,Vacant Land,13716 Glen Harwell Rd,Dover,FL,33527,550000,,,UNPLATTED,,273121,,2,,,Active,,,https://www.redfin.com/FL/Dover/13716-Glen-Harwell-Rd-33527/home/54593899,Stellar MLS as Distributed by MLS Grid,T3489571,N,Y,28.026569,-82.207464
MLS Listing,,Single Family Residential,10611 Lakeside Vista Dr,Riverview,FL,33569,345000,3,2.0,LAKESIDE TR A1,1335,7425,2003,2,258,23,Active,,,https://www.redfin.com/FL/Riverview/10611-Lakeside-Vista-Dr-33569/home/46980523,Stellar MLS as Distributed by MLS Grid,T3489144,N,Y,27.8383814,-82.3239719
MLS Listing,,Vacant Land,2911 E 20th Ave,Tampa,FL,33605,75000,,,GREENVILLE SUB 3,,5150,,2,,,Active,,,https://www.redfin.com/FL/Tampa/2911-E-20th-Ave-33605/home/47341566,Stellar MLS as Distributed by MLS Grid,T3489462,N,Y,27.9695185,-82.4271341
MLS Listing,,Single Family Residential,3934 King Dr,Brandon,FL,33511,365000,3,2.0,FOUR WINDS ESTATES UNIT SIX,1128,5100,1985,2,324,,Active,,,https://www.redfin.com/FL/Brandon/3934-King-Dr-33511/home/47218712,Stellar MLS as Distributed by MLS Grid,T3489241,N,Y,27.881617,-82.2907389
MLS Listing,,Single Family Residential,3311 E Ellicott St,Tampa,FL,33610,244900,2,1.0,BELLMONT HEIGHTS,772,7078,1940,2,317,,Active,,,https://www.redfin.com/FL/Tampa/3311-E-Ellicott-St-33610/home/47316374,Stellar MLS as Distributed by MLS Grid,T3486666,N,Y,27.9904233,-82.4225961
MLS Listing,,Single Family Residential,2206 Cornell Dr,Riverview,FL,33569,549900,3,2.0,IVY ESTATES UNIT NO 2,2001,11830,1979,2,275,,Active,December-9-2023 11:00 AM,December-9-2023 02:00 PM,https://www.redfin.com/FL/Riverview/2206-Cornell-Dr-33578/home/47217935,Stellar MLS as Distributed by MLS Grid,T3487730,N,Y,27.8924304,-82.3076042
MLS Listing,,Single Family Residential,11920 Timberhill Dr,Riverview,FL,33569,620000,4,3.0,RIVERGLEN,2665,10000,1999,2,233,33,Active,,,https://www.redfin.com/FL/Riverview/11920-Timberhill-Dr-33569/home/47225595,Stellar MLS as Distributed by MLS Grid,T3489564,N,Y,27.8633805,-82.3010518
MLS Listing,,Townhouse,6958 Marble Fawn Pl,Riverview,FL,33578,299500,3,2.5,ST CHARLES PLACE PHASE 6,1824,1790,2007,2,164,336,Active,,,https://www.redfin.com/FL/Riverview/6958-Marble-Fawn-Pl-33578/home/47038771,Stellar MLS as Distributed by MLS Grid,T3489523,N,Y,27.879612,-82.3227724
MLS Listing,,Single Family Residential,,Tampa,FL,33603,549000,2,2.0,,1380,7800,1925,2,398,,Active,,,https://www.redfin.com/FL/Tampa/Undisclosed-address-33603/home/47324977,Stellar MLS as Distributed by MLS Grid,T3489569,N,Y,27.9752238,-82.4689506
MLS Listing,,Single Family Residential,3707 W San Pedro St,Tampa,FL,33629,779000,3,3.0,VIRGINIA PARK,1959,6000,1945,2,398,,Active,,,https://www.redfin.com/FL/Tampa/3707-W-San-Pedro-St-33629/home/47283445,Stellar MLS as Distributed by MLS Grid,T3489055,N,Y,27.9178615,-82.5047816
MLS Listing,,Single Family Residential,7210 N Habana Ave,Tampa,FL,33614,1099990,5,3.0,GROVE PARK ESTATES UNIT 5,3109,20832,1971,2,354,,Active,,,https://www.redfin.com/FL/Tampa/7210-N-Habana-Ave-33614/home/47134277,Stellar MLS as Distributed by MLS Grid,T3488752,N,Y,28.0149414,-82.4887701
MLS Listing,,Condo/Co-op,6914 Lake Place Ct,Tampa,FL,33634,299990,3,2.5,LAKE PLACE A CONDO,1393,2241,1985,2,215,520,Active,,,https://www.redfin.com/FL/Tampa/6914-Lake-Place-Ct-33634/home/47083344,Stellar MLS as Distributed by MLS Grid,T3489545,N,Y,28.0312802,-82.5571109
MLS Listing,,Single Family Residential,12008 Entrance Way,Riverview,FL,33579,215000,2,2.0,TROPICAL ACRES SOUTH UNIT 3,840,60548,1983,2,256,,Active,,,https://www.redfin.com/FL/Riverview/12008-Entrance-Way-33579/home/47228640,Stellar MLS as Distributed by MLS Grid,T3489519,N,Y,27.8077216,-82.2880831
MLS Listing,,Single Family Residential,18902 Edinborough Way,Tampa,FL,33647,499900,3,2.0,PEBBLE CREEK VILLAGE 8,1871,9200,1989,2,267,50,Active,,,https://www.redfin.com/FL/Tampa/18902-Edinborough-Way-33647/home/47183371,Stellar MLS as Distributed by MLS Grid,T3489288,N,Y,28.1529283,-82.3434984
MLS Listing,,Single Family Residential,9911 High Meadow Ave,Thonotosassa,FL,33592,345000,3,2.0,PINE RIDGE ESTATES,1512,20800,2002,2,228,14,Active,,,https://www.redfin.com/FL/Thonotosassa/9911-High-Meadow-Ave-33592/home/47363990,Stellar MLS as Distributed by MLS Grid,T3489552,N,Y,28.0820625,-82.3212159
MLS Listing,,Single Family Residential,8823 Stillwaters Landing Dr,Riverview,FL,33578,999900,3,3.0,STILL WATERS LANDING,3008,32508,1999,2,332,120,Active,,,https://www.redfin.com/FL/Riverview/8823-Stillwaters-Landing-Dr-33578/home/47167754,Stellar MLS as Distributed by MLS Grid,T3489395,N,Y,27.8615338,-82.356166
MLS Listing,,Single Family Residential,7015 Ponderosa Dr,Tampa,FL,33637,254900,3,1.0,TEMPLE PARK UNIT 1,816,6400,1959,2,312,,Active,,,https://www.redfin.com/FL/Tampa/7015-Ponderosa-Dr-33637/home/47153697,Stellar MLS as Distributed by MLS Grid,T3489543,N,Y,28.0304282,-82.3750009
MLS Listing,,Single Family Residential,6004 Tampa Shores Blvd,Tampa,FL,33615,715000,3,2.0,TAMPA SHORES INC 1 UNIT 2,1505,7400,1963,2,475,,Active,,,https://www.redfin.com/FL/Tampa/6004-Tampa-Shores-Blvd-33615/home/47089815,Stellar MLS as Distributed by MLS Grid,T3489505,N,Y,28.0043836,-82.6063527
MLS Listing,,Single Family Residential,9209 Camino Villa Blvd,Tampa,FL,33635,449900,4,2.0,PEBBLEBROOK,1768,5000,1989,2,254,,Active,,,https://www.redfin.com/FL/Tampa/9209-Camino-Villa-Blvd-33635/home/47080933,Stellar MLS as Distributed by MLS Grid,T3489538,N,Y,28.0335329,-82.5920477
MLS Listing,,Condo/Co-op,12315 Touchton Dr #94,Tampa,FL,33617,150000,2,1.5,OAK BRIDGE RUN A CONDO,1012,540,1979,2,148,415,Active,,,https://www.redfin.com/FL/Tampa/12315-Touchton-Dr-33617/unit-94/home/47152081,Stellar MLS as Distributed by MLS Grid,T3488826,N,Y,28.0599548,-82.3919503
MLS Listing,,Single Family Residential,4601 W Hawthorne Rd,Tampa,FL,33611,499900,3,2.0,GUERNSEY ESTATES,1300,7700,1957,2,385,,Active,,,https://www.redfin.com/FL/Tampa/4601-W-Hawthorne-Rd-33611/home/47291467,Stellar MLS as Distributed by MLS Grid,T3489270,N,Y,27.894439,-82.522949
MLS Listing,,Townhouse,2440 Lake Woodberry Cir,Brandon,FL,33510,230000,2,1.5,REGENCY KEY TWNHMS,1110,744,2001,2,207,400,Active,,,https://www.redfin.com/FL/Brandon/2440-Lake-Woodberry-Cir-33510/home/47376057,Stellar MLS as Distributed by MLS Grid,T3489443,N,Y,27.950627,-82.3215308
MLS Listing,,Condo/Co-op,7631 Dolonita Dr #7631,Tampa,FL,33615,224900,3,2.0,THE GREENS OF TOWNN COUNTRY,1432,747,1971,2,157,405,Active,,,https://www.redfin.com/FL/Tampa/7631-Dolonita-Dr-33615/unit-7631/home/188811189,Stellar MLS as Distributed by MLS Grid,T3489236,N,Y,28.017825,-82.56495
MLS Listing,,Single Family Residential,,Tampa,FL,33615,390000,4,2.0,,1455,7800,1973,2,268,,Active,,,https://www.redfin.com/FL/Tampa/Undisclosed-address-33615/home/47082078,Stellar MLS as Distributed by MLS Grid,T3488061,N,Y,28.0311581,-82.5733353
MLS Listing,,Vacant Land,6111 Lagomar Ln,Apollo Beach,FL,33572,750000,,,LAGOMAR SUB,,10642,,2,,266,Active,,,https://www.redfin.com/FL/Apollo-Beach/6111-Lagomar-Ln-33572/home/46978584,Stellar MLS as Distributed by MLS Grid,T3488802,N,Y,27.776697,-82.429282
MLS Listing,,Townhouse,8421 Laurelon Pl,Temple Terrace,FL,33637,200000,2,1.5,LAURELON VILLAGE OF MEADOWOOD,1190,4,1986,2,168,481,Active,,,https://www.redfin.com/FL/Temple-Terrace/8421-Laurelon-Pl-33637/home/47154347,Stellar MLS as Distributed by MLS Grid,T3489366,N,Y,28.0266247,-82.3680422
MLS Listing,,Single Family Residential,2123 W Saint Conrad St,Tampa,FL,33607,400000,3,2.5,BOUTON & SKINNERS ADD,1665,4750,1955,2,240,,Active,,,https://www.redfin.com/FL/Tampa/2123-W-Saint-Conrad-St-33607/home/47333846,Stellar MLS as Distributed by MLS Grid,T3489512,N,Y,27.9639616,-82.4814024
MLS Listing,,Single Family Residential,945 Ocean Spray Dr,Ruskin,FL,33570,365000,4,2.0,SHELL COVE PH 1,1846,6029,2021,2,198,7,Active,,,https://www.redfin.com/FL/Ruskin/945-Ocean-Spray-Dr-33570/home/173874709,Stellar MLS as Distributed by MLS Grid,T3488538,N,Y,27.7215867,-82.4457185
MLS Listing,,Single Family Residential,10607 Pictorial Park Dr,Tampa,FL,33647,500000,4,2.5,EASTON PARK PH 3,2920,5750,2013,3,171,277,Active,,,https://www.redfin.com/FL/Tampa/10607-Pictorial-Park-Dr-33647/home/47056551,Stellar MLS as Distributed by MLS Grid,T3488319,N,Y,28.1627803,-82.2781243
MLS Listing,,Single Family Residential,10917 Observatory Way,Tampa,FL,33647,499999,4,2.0,EASTON PARK PH 1,2056,6502,2009,3,243,65,Active,,,https://www.redfin.com/FL/Tampa/10917-Observatory-Way-33647/home/47047273,Stellar MLS as Distributed by MLS Grid,T3489437,N,Y,28.1579945,-82.2787081
MLS Listing,,Single Family Residential,7706 Citronella Ct,Tampa,FL,33625,345000,3,2.0,CITRUS POINTE UNIT 1,1126,4590,1985,3,306,52,Active,December-10-2023 01:00 AM,December-10-2023 03:00 PM,https://www.redfin.com/FL/Tampa/7706-Citronella-Ct-33625/home/47072646,Stellar MLS as Distributed by MLS Grid,T3486619,N,Y,28.0752524,-82.5748139
MLS Listing,,Single Family Residential,11309 Lady Fern Pl,Riverview,FL,33569,379900,4,2.5,MOSS LANDING PHASE 2,1918,7866,2007,3,198,58,Active,,,https://www.redfin.com/FL/Riverview/11309-Lady-Fern-Pl-33569/home/47037116,Stellar MLS as Distributed by MLS Grid,T3489507,N,Y,27.8358885,-82.3128252
MLS Listing,,Townhouse,10213 Westpark Preserve Blvd,Tampa,FL,33625,399000,3,2.5,WESTPARK PRESERVE,1750,,2008,3,228,470,Active,,,https://www.redfin.com/FL/Tampa/10213-Westpark-Preserve-Blvd-33625/home/47039909,Stellar MLS as Distributed by MLS Grid,U8222900,N,Y,28.0451391,-82.5565813
MLS Listing,,Condo/Co-op,2203 Preservation Dr #1,Plant City,FL,33566,389900,3,2.5,THE PRESERVE A CONDO,2083,2276,1993,3,187,688,Active,,,https://www.redfin.com/FL/Plant-City/2203-Preservation-Dr-33566/unit-1/home/188802041,Stellar MLS as Distributed by MLS Grid,T3488416,N,Y,27.9935526,-82.1418368
MLS Listing,,Single Family Residential,8210 N 13th St,Tampa,FL,33604,279990,3,1.0,SULPHUR SPGS ADD,995,5000,1930,3,281,,Active,,,https://www.redfin.com/FL/Tampa/8210-N-13th-St-33604/home/47308316,Stellar MLS as Distributed by MLS Grid,T3489498,N,Y,28.0232537,-82.4467342
MLS Listing,,Single Family Residential,409 Cactus Rd,Seffner,FL,33584,409000,4,2.0,HUDSON ESTATES,1548,13500,1975,3,264,,Active,,,https://www.redfin.com/FL/Seffner/409-Cactus-Rd-33584/home/47198985,Stellar MLS as Distributed by MLS Grid,T3488798,N,Y,27.9668002,-82.2696386
MLS Listing,,Single Family Residential,1405 Rushgrove Cir,Dover,FL,33527,480000,4,2.5,RIDGE CREST SUB UNIT 3,3181,6600,2010,3,151,35,Active,,,https://www.redfin.com/FL/Dover/1405-Rushgrove-Cir-33527/home/47047647,Stellar MLS as Distributed by MLS Grid,W7860120,N,Y,27.9700608,-82.2601505
MLS Listing,,Single Family Residential,12821 Scarlet Star Dr,Riverview,FL,33579,420000,4,2.0,TRIPLE CRK PH 4 VILLAGE I,1848,6000,2020,3,227,5,Active,,,https://www.redfin.com/FL/Riverview/12821-Scarlet-Star-Dr-33579/home/170553697,Stellar MLS as Distributed by MLS Grid,T3489243,N,Y,27.8026318,-82.2664561
MLS Listing,,Townhouse,126 Sawtooth Dr,Valrico,FL,33594,270000,2,1.5,OAKWOOD TERRACE TWNHMS PHAS,1315,1232,2006,3,205,190,Active,,,https://www.redfin.com/FL/Valrico/126-Sawtooth-Dr-33594/home/47035887,Stellar MLS as Distributed by MLS Grid,T3489482,N,Y,27.9369047,-82.2353505
MLS Listing,,Single Family Residential,12631 Hobson Simmons Rd,Lithia,FL,33547,850000,3,2.0,UNPLATTED,1344,263538,1985,3,632,,Active,,,https://www.redfin.com/FL/Lithia/12631-Hobson-Simmons-Rd-33547/home/54621283,Stellar MLS as Distributed by MLS Grid,T3489080,N,Y,27.811287,-82.2243419
MLS Listing,,Single Family Residential,1024 E Caracas St #1,Tampa,FL,33603,599000,3,2.5,DEMOREST,1781,3900,2023,3,336,,Active,,,https://www.redfin.com/FL/Tampa/1024-E-Caracas-St-33603/unit-1/home/188801066,Stellar MLS as Distributed by MLS Grid,T3488271,N,Y,27.9922593,-82.4482153
MLS Listing,,Single Family Residential,9730 Bay Colony Dr,Riverview,FL,33578,529900,4,3.0,LAKE ST CHARLES UNIT 9,2391,6820,2003,3,222,10,Active,,,https://www.redfin.com/FL/Riverview/9730-Bay-Colony-Dr-33578/home/47365757,Stellar MLS as Distributed by MLS Grid,T3488822,N,Y,27.8760388,-82.3387885
MLS Listing,,Condo/Co-op,203 Poinsettia Pine Ct #202,Tampa,FL,33612,165000,2,1.0,RENAISSANCE VILLAS CONDO,899,848,1975,3,184,360,Active,,,https://www.redfin.com/FL/Tampa/203-Poinsettia-Pine-Ct-33612/unit-202/home/47020648,Stellar MLS as Distributed by MLS Grid,O6159659,N,Y,28.0614324,-82.4581184
MLS Listing,,Single Family Residential,5509 N Taliaferro Ave,Tampa,FL,33604,420000,3,2.0,EAST SUWANEE HEIGHTS,1372,5936,1922,3,306,,Active,,,https://www.redfin.com/FL/Tampa/5509-N-Taliaferro-Ave-33604/home/47322385,Stellar MLS as Distributed by MLS Grid,U8221892,N,Y,27.9977725,-82.4530402
MLS Listing,,Townhouse,5106 Sylvester Loop,Tampa,FL,33610,300000,2,2.5,REGO PALMS,1588,1544,2020,3,189,281,Active,,,https://www.redfin.com/FL/Tampa/5106-Sylvester-Loop-33610/home/168047737,Stellar MLS as Distributed by MLS Grid,T3487891,N,Y,27.99166,-82.3159276
MLS Listing,,Single Family Residential,1244 Coolmont Dr,Brandon,FL,33511,220000,2,1.0,HEATHER LAKES UNIT XVI,840,4356,1984,3,262,,Active,,,https://www.redfin.com/FL/Brandon/1244-Coolmont-Dr-33511/home/47209748,Stellar MLS as Distributed by MLS Grid,T3488911,N,Y,27.9169194,-82.3158542
MLS Listing,,Condo/Co-op,9209 Tudor Dr Unit C101,Tampa,FL,33615,170000,1,1.0,TUDOR CAY CONDO,760,2,1980,3,224,302,Active,,,https://www.redfin.com/FL/Tampa/9209-Tudor-Dr-33615/unit-C101/home/47091735,Stellar MLS as Distributed by MLS Grid,U8222816,N,Y,27.9990654,-82.5894533
MLS Listing,,Single Family Residential,16005 Sonoma Grove Cir,Tampa,FL,33647,549990,3,2.5,K-BAR RANCH PCL E,2327,6500,2021,3,236,68,Active,,,https://www.redfin.com/FL/Tampa/16005-Sonoma-Grove-Cir-33647/home/177796052,Stellar MLS as Distributed by MLS Grid,U8222609,N,Y,28.1515781,-82.2784213
MLS Listing,,Single Family Residential,5413 Riverhills Dr,Temple Terrace,FL,33617,495000,3,2.0,RIVERHILLS PARK UNIT 1,1809,13504,1981,3,274,,Active,,,https://www.redfin.com/FL/Temple-Terrace/5413-Riverhills-Dr-33617/home/47348916,Stellar MLS as Distributed by MLS Grid,T3488986,N,Y,28.0255234,-82.3955884
MLS Listing,,Condo/Co-op,11795 Raintree Dr,Temple Terrace,FL,33617,179900,2,1.5,RAINTREE MANOR HOMES CONDOMINI,1104,2,1980,3,163,789,Active,,,https://www.redfin.com/FL/Tampa/11795-Raintree-Dr-33617/home/47153005,Stellar MLS as Distributed by MLS Grid,T3489447,N,Y,28.0561819,-82.3832375
MLS Listing,,Single Family Residential,3811 S Lynwood Ave,Tampa,FL,33611,1775000,6,4.5,LYNWOOD,3625,6600,2015,3,490,,Active,,,https://www.redfin.com/FL/Tampa/3811-S-Lynwood-Ave-33611/home/47288427,Stellar MLS as Distributed by MLS Grid,T3489351,N,Y,27.906668,-82.4997136
MLS Listing,,Single Family Residential,3814 W Leila Ave,Tampa,FL,33616,350000,4,2.0,GANDY MANOR ADD,1175,7500,1954,3,298,,Active,,,https://www.redfin.com/FL/Tampa/3814-W-Leila-Ave-33616/home/47293499,Stellar MLS as Distributed by MLS Grid,U8222821,N,Y,27.884459,-82.5080764
MLS Listing,,Condo/Co-op,700 S Harbour Island Blvd #144,Tampa,FL,33602,625000,2,1.0,PARKCREST HARBOUR ISLAND CONDO,967,,2005,3,646,455,Active,,,https://www.redfin.com/FL/Tampa/700-S-Harbour-Island-Blvd-33602/unit-144/home/47012081,Stellar MLS as Distributed by MLS Grid,T3488897,N,Y,27.9386347,-82.4533789
MLS Listing,,Condo/Co-op,11702 Raintree Village Blvd Unit C,Temple Terrace,FL,33617,189900,2,2.0,RAINTREE VILLAGE CONDO N,960,2,1985,3,198,560,Active,,,https://www.redfin.com/FL/Temple-Terrace/11702-Raintree-Village-Blvd-33617/unit-C/home/47346301,Stellar MLS as Distributed by MLS Grid,T3489374,N,Y,28.0554149,-82.3888813
MLS Listing,,Single Family Residential,4704 Jacks Point Ct,Lutz,FL,33558,874900,5,3.0,VAN DYKE ESTATES,3126,47916,2002,3,280,58,Active,,,https://www.redfin.com/FL/Lutz/4704-Jacks-Point-Ct-33558/home/47379096,Stellar MLS as Distributed by MLS Grid,T3489072,N,Y,28.12322,-82.5202232
MLS Listing,,Single Family Residential,2829 Coastal Range Way,Lutz,FL,33559,1800000,4,4.5,SANCTUARY ON LIVINGSTONE PH,4455,47044,2018,3,404,113,Active,,,https://www.redfin.com/FL/Lutz/2829-Coastal-Range-Way-33559/home/46995268,Stellar MLS as Distributed by MLS Grid,T3489225,N,Y,28.1644324,-82.4235158
MLS Listing,,Condo/Co-op,1209 E Cumberland Ave #804,Tampa,FL,33602,845000,2,2.5,TOWERS OF CHANNELSIDE CONDOMIN,1363,,2007,3,620,1167,Active,,,https://www.redfin.com/FL/Tampa/1209-E-Cumberland-Ave-33602/unit-804/home/47058982,Stellar MLS as Distributed by MLS Grid,T3489415,N,Y,27.9447822,-82.4478382
MLS Listing,,Single Family Residential,12033 Abbywood Ln,Tampa,FL,33626,529000,3,2.5,WESTCHASE SEC 211,1900,5226,1999,3,278,256,Active,,,https://www.redfin.com/FL/Tampa/12033-Abbywood-Ln-33626/home/47078324,Stellar MLS as Distributed by MLS Grid,T3489262,N,Y,28.0540642,-82.6228719
MLS Listing,,Townhouse,2009 Greenwood Valley Dr,Plant City,FL,33563,270000,3,3.0,WALDEN WOODS REP,1572,882,2008,3,172,419,Active,,,https://www.redfin.com/FL/Plant-City/2009-Greenwood-Valley-Dr-33563/home/47051834,Stellar MLS as Distributed by MLS Grid,L4941075,N,Y,27.9938052,-82.1165176
MLS Listing,,Single Family Residential,1221 E DR Martin Luther King JR Blvd,Tampa,FL,33603,190000,1,1.0,UNPLATTED,708,6750,1920,3,268,,Active,,,https://www.redfin.com/FL/Tampa/1221-E-Dr-Martin-Luther-King-Jr-Blvd-33603/home/47329685,Stellar MLS as Distributed by MLS Grid,T3488355,N,Y,27.9812981,-82.4453177
MLS Listing,,Single Family Residential,1706 E Poinsettia Ave,Tampa,FL,33612,275000,3,2.0,Not on List,1435,5750,1994,3,192,,Active,,,https://www.redfin.com/FL/Tampa/1706-E-Poinsettia-Ave-33612/home/47306596,RACC,828485,N,Y,28.0421936,-82.439625
MLS Listing,,Single Family Residential,5325 Lake Siena Dr,Wimauma,FL,33598,750000,4,3.5,RIVERRANCH PRESERVE,3734,49225,2006,3,201,189,Active,,,https://www.redfin.com/FL/Wimauma/5325-Lake-Siena-Dr-33598/home/47016432,Stellar MLS as Distributed by MLS Grid,T3486321,N,Y,27.6531134,-82.3265793
MLS Listing,,Single Family Residential,6528 Steeplechase Dr,Tampa,FL,33625,700000,5,4.0,CUMBERLAND MANORS PH 2,2114,9450,1990,3,331,41,Active,,,https://www.redfin.com/FL/Tampa/6528-Steeplechase-Dr-33625/home/47070371,Stellar MLS as Distributed by MLS Grid,T3488948,N,Y,28.0934655,-82.5667473
MLS Listing,,Single Family Residential,122 Falling Water Dr,Brandon,FL,33511,839000,4,3.0,STONEWOOD SUB,2956,20558,2008,3,284,117,Active,,,https://www.redfin.com/FL/Brandon/122-Falling-Water-Dr-33511/home/47032805,Stellar MLS as Distributed by MLS Grid,T3486785,N,Y,27.890166,-82.2886664
MLS Listing,,Multi-Family (2-4 Unit),8209 N 12th St,Tampa,FL,33604,520000,7,5.0,SULPHUR SPGS ADD,2322,10000,1930,3,224,,Active,,,https://www.redfin.com/FL/Tampa/8209-N-12th-St-33604/home/47308300,Stellar MLS as Distributed by MLS Grid,U8222820,N,Y,28.0231359,-82.4470728
MLS Listing,,Single Family Residential,11212 Casa Loma Dr,Riverview,FL,33569,360000,1,1.0,CARMANS CASA DEL RIO,704,2550,1938,3,511,,Active,,,https://www.redfin.com/FL/Riverview/11212-Casa-Loma-Dr-33569/home/47223750,Stellar MLS as Distributed by MLS Grid,T3489167,N,Y,27.8658222,-82.316679
MLS Listing,,Single Family Residential,340 Mystic Falls Dr,Apollo Beach,FL,33572,324000,2,2.0,SOUTHSHORE FALLS PH 3D-PART,1393,5114,2014,3,233,340,Active,,,https://www.redfin.com/FL/Apollo-Beach/340-Mystic-Falls-Dr-33572/home/56259827,Stellar MLS as Distributed by MLS Grid,T3489412,N,Y,27.7577291,-82.4096898
MLS Listing,,Single Family Residential,6434 Rubia Cir,Apollo Beach,FL,33572,1495000,4,4.5,ANDALUCIA,3759,13000,2022,3,398,266,Active,,,https://www.redfin.com/FL/Apollo-Beach/6434-Rubia-Cir-33572/home/47169791,Stellar MLS as Distributed by MLS Grid,T3488626,N,Y,27.7798712,-82.4269874
MLS Listing,,Single Family Residential,148 Barrington Dr,Brandon,FL,33511,599000,5,3.0,BARRINGTON OAKS EAST,2896,15660,1985,3,207,141,Active,,,https://www.redfin.com/FL/Brandon/148-Barrington-Dr-33511/home/47211326,Stellar MLS as Distributed by MLS Grid,T3489178,N,Y,27.9225221,-82.2852939
MLS Listing,,Single Family Residential,1106 Oxbow Rd,Wimauma,FL,33598,400000,2,3.0,SUNDANCE UNIT 2,1531,137214,1985,3,261,19,Active,,,https://www.redfin.com/FL/Wimauma/1106-Oxbow-Rd-33598/home/47181889,Stellar MLS as Distributed by MLS Grid,T3489408,N,Y,27.6496988,-82.3922846
MLS Listing,,Single Family Residential,6315 Roadstead Ct,Apollo Beach,FL,33572,599241,4,2.5,WATERSET WOLF CREEK PHASES A,2550,6000,2023,3,235,15,Active,,,https://www.redfin.com/FL/Apollo-Beach/6315-Roadstead-Ct-33572/home/183052247,Stellar MLS as Distributed by MLS Grid,U8222553,N,Y,27.7554328,-82.3875994
MLS Listing,,Townhouse,10933 Black Swan Ct,Seffner,FL,33584,245000,2,1.5,TOWNHOMES OF LAKEVIEW VILLAGE,1140,900,2006,3,215,230,Active,,,https://www.redfin.com/FL/Seffner/10933-Black-Swan-Ct-33584/home/47018135,Stellar MLS as Distributed by MLS Grid,T3489362,N,Y,27.9772259,-82.3176034
MLS Listing,,Single Family Residential,6393 Roadstead Ct,Apollo Beach,FL,33572,571130,4,3.0,WATERSET WOLF CREEK,2500,8720,2023,3,228,7,Active,,,https://www.redfin.com/FL/Apollo-Beach/6393-Roadstead-Ct-33572/home/183052252,Stellar MLS as Distributed by MLS Grid,U8222565,N,Y,27.7552278,-82.3859408
MLS Listing,,Single Family Residential,5622 Sunset Falls Dr,Apollo Beach,FL,33572,389000,2,2.0,SOUTHSHORE FALLS PH 2,1631,4224,2010,3,239,340,Active,,,https://www.redfin.com/FL/Apollo-Beach/5622-Sunset-Falls-Dr-33572/home/46998362,Stellar MLS as Distributed by MLS Grid,T3489345,N,Y,27.7570323,-82.410284
MLS Listing,,Single Family Residential,1319 Vance Rd,Plant City,FL,33566,215000,4,2.0,UNPLATTED,1954,54886,1962,3,110,,Active,,,https://www.redfin.com/FL/Plant-City/1319-Vance-Rd-33566/home/47239664,Stellar MLS as Distributed by MLS Grid,T3489303,N,Y,28.0018764,-82.1809605
MLS Listing,,Single Family Residential,114 Ashbrook Dr,Brandon,FL,33511,399000,3,2.0,CRESTWOOD ESTATES,1638,13580,1965,3,244,,Active,,,https://www.redfin.com/FL/Brandon/114-Ashbrook-Dr-33511/home/47214545,Stellar MLS as Distributed by MLS Grid,T3488947,N,Y,27.9053461,-82.2878544
MLS Listing,,Single Family Residential,1307 Vance Rd,Plant City,FL,33566,125000,2,1.0,UNPLATTED,576,33541,1972,3,217,,Active,,,https://www.redfin.com/FL/Plant-City/1307-Vance-Rd-33566/home/47239626,Stellar MLS as Distributed by MLS Grid,T3489281,N,Y,28.0017046,-82.1808698
MLS Listing,,Townhouse,13084 Stillmont Pl,Tampa,FL,33624,412390,2,2.5,D0B | STILLMONT TOWNHOMES,1451,1742,2024,3,284,372,Active,,,https://www.redfin.com/FL/Greater-Northdale/13084-Stillmont-Pl-33624/home/188561041,Stellar MLS as Distributed by MLS Grid,T3489392,N,Y,28.0669707,-82.5259641
MLS Listing,,Single Family Residential,305 Lime Tree Rd,Tampa,FL,33619,350000,3,2.0,ADAMO ACRES SUB UNIT 2,1168,7952,1959,3,300,,Active,,,https://www.redfin.com/FL/Tampa/305-Lime-Tree-Rd-33619/home/47161259,Stellar MLS as Distributed by MLS Grid,T3489227,N,Y,27.94735,-82.3725011
MLS Listing,,Single Family Residential,13031 David Baker Rd,Riverview,FL,33579,625500,3,3.0,D0D | CEDARBROOK PHASES 4 AND 5,2684,7200,2023,3,233,8,Active,,,https://www.redfin.com/FL/Riverview/13031-David-Baker-Rd-33579/home/186922446,Stellar MLS as Distributed by MLS Grid,T3489249,N,Y,27.8210561,-82.2710831
MLS Listing,,Single Family Residential,3904 W Bay Vista Ave,Tampa,FL,33611,625000,3,2.0,FAIRLAWN ESTATES 1ST ADD,1728,8976,1951,3,362,,Active,,,https://www.redfin.com/FL/Tampa/3904-W-Bay-Vista-Ave-33611/home/47289028,Stellar MLS as Distributed by MLS Grid,U8222424,N,Y,27.9058305,-82.5086261
MLS Listing,,Vacant Land,905 E 26th Ave,Tampa,FL,33605,129000,,,BELVEDERE PLACE,,6825,,3,,,Active,,,https://www.redfin.com/FL/Tampa/905-E-26th-Ave-33605/home/47340247,Stellar MLS as Distributed by MLS Grid,T3489380,N,Y,27.974021,-82.4507433
MLS Listing,,Single Family Residential,14525 Mirasol Manor Ct,Tampa,FL,33626,625000,3,2.0,WATERCHASE PH 1,1794,5996,2005,3,348,326,Active,,,https://www.redfin.com/FL/Tampa/14525-Mirasol-Manor-Ct-33626/home/47378174,Stellar MLS as Distributed by MLS Grid,T3487302,N,Y,28.0810809,-82.6194191
MLS Listing,,Single Family Residential,12648 Hayes Clan Rd,Riverview,FL,33579,652920,5,3.5,CEDARBROOK PHASE 6,3617,9100,2024,3,181,8,Active,,,https://www.redfin.com/FL/Riverview/12648-Hayes-Clan-Rd-33579/home/186476287,Stellar MLS as Distributed by MLS Grid,T3489250,N,Y,27.8184621,-82.2754803
MLS Listing,,Single Family Residential,4135 Amber Ridge Ln,Valrico,FL,33594,399900,3,2.0,COPPER RIDGE TR C,1402,7700,1997,3,285,29,Active,,,https://www.redfin.com/FL/Valrico/4135-Amber-Ridge-Ln-33594/home/47242789,Stellar MLS as Distributed by MLS Grid,U8222493,N,Y,27.9253184,-82.2282475
MLS Listing,,Single Family Residential,12685 Hayes Clan Rd,Riverview,FL,33579,599560,3,2.5,CEDARBROOK PHASE 6,2298,10593,2024,3,261,8,Active,,,https://www.redfin.com/FL/Riverview/12685-Hayes-Clan-Rd-33579/home/187111463,Stellar MLS as Distributed by MLS Grid,T3489256,N,Y,27.817974,-82.2747339
MLS Listing,,Single Family Residential,2707 Colewood Ln,Dover,FL,33527,549900,4,3.0,Martin's Gardens,3361,9100,2014,3,164,115,Active,,,https://www.redfin.com/FL/Dover/2707-Colewood-Ln-33527/home/59426731,Beaches MLS,RX-10939897,N,Y,27.9067014,-82.2091247
MLS Listing,,Single Family Residential,1132 Mcdaniel St #42,Sun City Center,FL,33573,305000,2,2.0,OXFORD II CONDO,1562,2400,1997,3,195,741,Active,,,https://www.redfin.com/FL/Sun-City-Center/1132-McDaniel-St-33573/unit-42/home/47180776,Stellar MLS as Distributed by MLS Grid,U8222794,N,Y,27.692925,-82.3708401
MLS Listing,,Single Family Residential,703 Tilbury Ct,Sun City Center,FL,33573,305000,2,2.0,SOUTHAMPTON II CONDO,1587,2399,1999,3,192,685,Active,,,https://www.redfin.com/FL/Sun-City-Center/703-Tilbury-Ct-33573/home/47358969,Stellar MLS as Distributed by MLS Grid,U8222801,N,Y,27.6970708,-82.3701895
MLS Listing,,Townhouse,9694 Sweetwell Pl,Riverview,FL,33569,345000,3,2.5,CALUSA CRK,1777,2395,2020,3,194,200,Active,,,https://www.redfin.com/FL/Riverview/9694-Sweetwell-Pl-33569/home/173881904,Stellar MLS as Distributed by MLS Grid,T3489148,N,Y,27.857915,-82.321812
MLS Listing,,Single Family Residential,4021 Capri Coast Dr,Plant City,FL,33565,355340,4,2.0,N. PARK ISLE,1817,6000,2024,3,196,8,Active,,,https://www.redfin.com/FL/Plant-City/4021-Capri-Coast-Dr-33565/home/188787123,Stellar MLS as Distributed by MLS Grid,T3489367,N,Y,28.0621227,-82.1085253
MLS Listing,,Single Family Residential,17519 Mallard Ct,Lutz,FL,33559,674000,4,3.0,HOUNDS RUN,2609,40710,1987,3,258,50,Active,,,https://www.redfin.com/FL/Lutz/17519-Mallard-Ct-33559/home/47144812,Stellar MLS as Distributed by MLS Grid,T3489332,N,Y,28.1276644,-82.4270086
MLS Listing,,Vacant Land,State Road 674,Lithia,FL,33547,350000,,,LITHIA,,381585,,3,,,Active,,,https://www.redfin.com/FL/Lithia/Unknown-33547/home/188786008,Stellar MLS as Distributed by MLS Grid,T3489365,N,Y,27.70141546,-82.1693411
MLS Listing,,Single Family Residential,4025 Capri Coast Dr,Plant City,FL,33565,335235,3,2.0,N. PARK ISLE,1556,6000,2024,3,215,8,Active,,,https://www.redfin.com/FL/Plant-City/4025-Capri-Coast-Dr-33565/home/188785974,Stellar MLS as Distributed by MLS Grid,T3489364,N,Y,28.0622616,-82.1084037
MLS Listing,,Single Family Residential,4026 Capri Coast Dr,Plant City,FL,33565,444825,6,3.0,N. PARK ISLE,3326,6000,2024,3,134,8,Active,,,https://www.redfin.com/FL/Plant-City/4026-Capri-Coast-Dr-33565/home/188785963,Stellar MLS as Distributed by MLS Grid,T3489358,N,Y,28.0621951,-82.1080327
MLS Listing,,Single Family Residential,4013 Capri Coast Dr,Plant City,FL,33565,368600,4,2.0,N. PARK ISLE,1936,6000,2024,3,190,8,Active,,,https://www.redfin.com/FL/Plant-City/4013-Capri-Coast-Dr-33565/home/188785955,Stellar MLS as Distributed by MLS Grid,T3489357,N,Y,28.0619425,-82.1088526
MLS Listing,,Single Family Residential,818 Golf Island Dr,Apollo Beach,FL,33572,1690000,3,3.0,APOLLO BEACH UNIT SIX,2448,12375,2000,3,690,,Active,,,https://www.redfin.com/FL/Apollo-Beach/818-Golf-Island-Dr-33572/home/47170545,Stellar MLS as Distributed by MLS Grid,T3486198,N,Y,27.7652574,-82.4182869
MLS Listing,,Single Family Residential,3620 Natural Trace St,Plant City,FL,33565,377600,4,2.0,N. PARK ISLE,1936,6000,2024,3,195,8,Active,,,https://www.redfin.com/FL/Plant-City/3620-Natural-Trace-St-33565/home/188785847,Stellar MLS as Distributed by MLS Grid,T3489354,N,Y,28.0544961,-82.1078028
MLS Listing,,Single Family Residential,1009 Deerpath Ave,Brandon,FL,33510,349700,4,2.0,EVERINA HOMES 5TH ADD,1768,8100,1962,3,198,,Active,,,https://www.redfin.com/FL/Brandon/1009-Deerpath-Ave-33510/home/47198349,Stellar MLS as Distributed by MLS Grid,U8222811,N,Y,27.9559638,-82.2799061
MLS Listing,,Single Family Residential,1743 Blue Orchid Ave,Plant City,FL,33565,423505,4,2.5,N. PARK ISLE,2443,7200,2024,3,173,8,Active,,,https://www.redfin.com/FL/Plant-City/1743-Blue-Orchid-Ave-33565/home/188785826,Stellar MLS as Distributed by MLS Grid,T3489352,N,Y,28.0655547,-82.1083396
MLS Listing,,Single Family Residential,4061 Capri Coast Dr,Plant City,FL,33565,408035,4,2.0,N. PARK ISLE,2278,7200,2024,3,179,8,Active,,,https://www.redfin.com/FL/Plant-City/4061-Capri-Coast-Dr-33565/home/188785825,Stellar MLS as Distributed by MLS Grid,T3489350,N,Y,28.0649978,-82.1082349
MLS Listing,,Single Family Residential,3601 W Oklahoma Ave,Tampa,FL,33611,699000,3,3.0,GANDY BLVD PARK 3RD ADD,1448,6045,1958,3,483,,Active,,,https://www.redfin.com/FL/Tampa/3601-W-Oklahoma-Ave-33611/home/47293576,Stellar MLS as Distributed by MLS Grid,T3488998,N,Y,27.8841917,-82.5023253
MLS Listing,,Vacant Land,State Road 674,Lithia,FL,33547,275000,,,LITHIA,,228254,,3,,,Active,,,https://www.redfin.com/FL/Lithia/Unknown-33547/home/188785729,Stellar MLS as Distributed by MLS Grid,T3489344,N,Y,27.70367513,-82.16885883
MLS Listing,,Single Family Residential,7611 Four Pines Rd,Plant City,FL,33565,700000,2,2.0,UNPLATTED,3100,108464,1978,3,226,,Active,,,https://www.redfin.com/FL/Plant-City/7611-Four-Pines-Rd-33565/home/47235531,Stellar MLS as Distributed by MLS Grid,L4941041,N,Y,28.0867068,-82.2282348
MLS Listing,,Single Family Residential,1112 Seagrape Dr,Ruskin,FL,33570,917765,3,2.5,SOUTHSHORE YACHT CLUB,2403,5277,2024,3,382,285,Active,,,https://www.redfin.com/FL/Ruskin/1112-Seagrape-Dr-33570/home/188785509,Stellar MLS as Distributed by MLS Grid,T3489335,N,Y,27.7310229,-82.4664827
MLS Listing,,Single Family Residential,16584 Delia St,Wimauma,FL,33598,609900,5,3.5,CREEK PRESERVE PH 2 3 & 4,3346,8936,2022,3,182,12,Active,,,https://www.redfin.com/FL/Wimauma/16584-Delia-St-33598/home/177788505,Stellar MLS as Distributed by MLS Grid,T3488395,N,Y,27.7266877,-82.3125231
MLS Listing,,Single Family Residential,6318 Cottonwood Ln,Apollo Beach,FL,33572,869900,4,2.0,APOLLO BEACH UNIT 13 PT 1 RE,1930,9750,1974,3,451,,Active,,,https://www.redfin.com/FL/Apollo-Beach/6318-Cottonwood-Ln-33572/home/47170814,Stellar MLS as Distributed by MLS Grid,T3489328,N,Y,27.7746821,-82.4236852
MLS Listing,,Single Family Residential,11012 Golden Silence Dr,Riverview,FL,33579,399900,3,2.0,SOUTH FORK UNIT 4,1939,4200,2004,3,206,30,Active,,,https://www.redfin.com/FL/Riverview/11012-Golden-Silence-Dr-33579/home/46992793,Stellar MLS as Distributed by MLS Grid,T3489314,N,Y,27.7863072,-82.3228561
MLS Listing,,Vacant Land,State Road 674,Lithia,FL,33547,275000,,,LITHIA,,228254,,3,,,Active,,,https://www.redfin.com/FL/Lithia/Unknown-33547/home/188785347,Stellar MLS as Distributed by MLS Grid,T3489318,N,Y,27.70373853,-82.16987648
MLS Listing,,Single Family Residential,12526 Cardiff Dr,Tampa,FL,33625,409900,4,2.5,LOGAN GATE VILLAGE PH 3 UN3,1700,8300,1984,3,241,,Active,,,https://www.redfin.com/FL/Tampa/12526-Cardiff-Dr-33625/home/47074881,Stellar MLS as Distributed by MLS Grid,U8222038,N,Y,28.0572688,-82.5626039
MLS Listing,,Single Family Residential,11623 Ivy Flower Loop,Riverview,FL,33578,382500,4,2.0,SYMMES GROVE SUB,1940,7717,2003,3,197,40,Active,,,https://www.redfin.com/FL/Riverview/11623-Ivy-Flower-Loop-33578/home/46981357,Stellar MLS as Distributed by MLS Grid,T3489082,N,Y,27.8317432,-82.3422166
MLS Listing,,Condo/Co-op,3801 S Lake Dr #246,Tampa,FL,33614,169900,2,2.0,WHISPER LAKE A CONDO,1077,1139,1973,3,158,588,Active,,,https://www.redfin.com/FL/Tampa/3801-S-Lake-Dr-33614/unit-246/home/47132938,Stellar MLS as Distributed by MLS Grid,T3488552,N,Y,28.030292,-82.507611
MLS Listing,,Townhouse,5008 Chatham Gate Dr,Riverview,FL,33578,299900,3,2.5,VALHALLA PH 1-2,1644,1386,2006,3,182,471,Active,,,https://www.redfin.com/FL/Riverview/5008-Chatham-Gate-Dr-33578/home/47000303,Stellar MLS as Distributed by MLS Grid,T3489143,N,Y,27.9018011,-82.339223
MLS Listing,,Single Family Residential,3915 W Leona St,Tampa,FL,33629,1950000,4,4.5,VIRGINIA TERRACE,3755,7800,2021,3,519,,Active,,,https://www.redfin.com/FL/Tampa/3915-W-Leona-St-33629/home/47285136,Stellar MLS as Distributed by MLS Grid,U8222722,N,Y,27.9150694,-82.5093521
MLS Listing,,Single Family Residential,1318 Waikiki Way,Tampa,FL,33619,370000,4,2.0,CLAIR MEL CITY UNIT 4,1508,7236,1959,3,245,,Active,,,https://www.redfin.com/FL/Tampa/1318-Waikiki-Way-33619/home/47162028,Stellar MLS as Distributed by MLS Grid,T3488873,N,Y,27.935019,-82.3658489
MLS Listing,,Single Family Residential,5708 N Central Ave,Tampa,FL,33604,725000,3,3.0,SUWANEE HEIGHTS,1776,7952,1926,3,408,,Active,,,https://www.redfin.com/FL/Tampa/5708-N-Central-Ave-33604/home/47322566,Stellar MLS as Distributed by MLS Grid,T3488709,N,Y,27.9994212,-82.4556673
MLS Listing,,Townhouse,11048 Black Swan Ct,Seffner,FL,33584,250000,2,1.5,NEW TWNHMS OF LAKEVIEW VILL,1140,860,2006,3,219,231,Active,,,https://www.redfin.com/FL/Seffner/11048-Black-Swan-Ct-33584/home/47030944,Stellar MLS as Distributed by MLS Grid,T3489289,N,Y,27.9774838,-82.3154915
MLS Listing,,Single Family Residential,3309 W Burke St,Tampa,FL,33614,449900,4,2.0,IDLE GROVE PARK UNIT 1 CORR,1614,6800,1972,3,279,,Active,,,https://www.redfin.com/FL/Tampa/3309-W-Burke-St-33614/home/47140261,Stellar MLS as Distributed by MLS Grid,T3489269,N,Y,28.0025117,-82.4976521
MLS Listing,,Single Family Residential,15804 Serenity Cir,Tampa,FL,33647,488000,3,2.0,TAMPA PALMS UNIT 4B REP OF,2221,8000,1991,3,220,224,Active,,,https://www.redfin.com/FL/Tampa/15804-Serenity-Cir-33647/home/47148793,Stellar MLS as Distributed by MLS Grid,U8222664,N,Y,28.0954748,-82.3863209
MLS Listing,,Townhouse,10159 Pink Palmata Ct,Riverview,FL,33578,289900,3,2.5,VENTURA BAY TWNHMS,1622,1620,2008,3,179,440,Active,,,https://www.redfin.com/FL/Riverview/10159-Pink-Palmata-Ct-33578/home/47048357,Stellar MLS as Distributed by MLS Grid,W7860082,N,Y,27.8965212,-82.3328983
MLS Listing,,Condo/Co-op,1904 Canterbury Ln #27,Sun City Center,FL,33573,168000,2,2.0,CAMBRIDGE M CONDO REV,984,960,1978,3,171,601,Active,,,https://www.redfin.com/FL/Sun-City-Center/1904-Canterbury-Ln-33573/unit-27/home/47177074,Stellar MLS as Distributed by MLS Grid,T3486628,N,Y,27.7060634,-82.3677943
MLS Listing,,Single Family Residential,10410 Fly Fishing St,Riverview,FL,33569,469000,4,3.5,BOYETTE CREEK PH 1,3004,5500,2004,3,156,20,Active,,,https://www.redfin.com/FL/Riverview/10410-Fly-Fishing-St-33569/home/46980447,Stellar MLS as Distributed by MLS Grid,A4588445,N,Y,27.8459543,-82.266087
MLS Listing,,Single Family Residential,8309 Clermont St,Tampa,FL,33637,300000,3,2.0,RIVERDALE SUB PH 2,1244,5000,1986,3,241,,Active,,,https://www.redfin.com/FL/Tampa/8309-Clermont-St-33637/home/47155267,Stellar MLS as Distributed by MLS Grid,T3484650,N,Y,28.0221895,-82.3665243
MLS Listing,,Single Family Residential,11385 Cocoa Beach Dr,Riverview,FL,33569,385000,4,3.5,RIVERCREST PH 2 PRCL N,2171,4440,2006,3,177,12,Active,,,https://www.redfin.com/FL/Riverview/11385-Cocoa-Beach-Dr-33569/home/47008205,Stellar MLS as Distributed by MLS Grid,L4941047,N,Y,27.8353832,-82.3175561
MLS Listing,,Single Family Residential,15719 Starling Water Dr,Lithia,FL,33547,614900,5,3.0,FISHHAWK RANCH PH 2 TR 1,3123,8474,2010,3,197,5,Active,,,https://www.redfin.com/FL/Lithia/15719-Starling-Water-Dr-33547/home/47051343,Stellar MLS as Distributed by MLS Grid,O6160330,N,Y,27.85504,-82.2221956
MLS Listing,,Single Family Residential,19809 Wellington Manor Blvd,Lutz,FL,33549,1250000,4,3.0,WELLINGTON MANOR PH 2,3467,19283,2004,3,361,149,Active,,,https://www.redfin.com/FL/Lutz/19809-Wellington-Manor-Blvd-33549/home/46985955,Stellar MLS as Distributed by MLS Grid,T3489119,N,Y,28.1690809,-82.4430943
MLS Listing,,Single Family Residential,10926 Flint Estates Dr,Thonotosassa,FL,33592,1400000,4,4.5,FLINT LAKE ESTATES SUB,5830,30498,2010,3,240,124,Active,,,https://www.redfin.com/FL/Thonotosassa/10926-Flint-Estates-Dr-33592/home/47047564,Stellar MLS as Distributed by MLS Grid,T3485376,N,Y,28.0611795,-82.2879876
MLS Listing,,Condo/Co-op,,Tampa,FL,33613,164900,2,2.0,,912,2,1986,3,181,358,Active,,,https://www.redfin.com/FL/Tampa/Undisclosed-address-33613/home/47149360,Stellar MLS as Distributed by MLS Grid,T3488768,N,Y,28.0824563,-82.4169108
MLS Listing,,Condo/Co-op,4725 Christa Ct #329,Tampa,FL,33614,229999,2,2.0,HABANA PARK A CONDO,1050,1050,1971,3,219,230,Active,,,https://www.redfin.com/FL/Tampa/4725-Christa-Ct-33614/unit-329/home/47269068,Stellar MLS as Distributed by MLS Grid,T3488617,N,Y,27.9866399,-82.486987
MLS Listing,,Single Family Residential,911 W Fribley St,Tampa,FL,33603,1400000,4,3.5,BUFFALO HEIGHTS,2414,6000,2022,4,580,,Active,,,https://www.redfin.com/FL/Tampa/911-W-Fribley-St-33603/home/47324997,Stellar MLS as Distributed by MLS Grid,T3489259,N,Y,27.9747978,-82.4728007
MLS Listing,,Single Family Residential,17318 Hubers Ct,Odessa,FL,33556,669900,4,3.0,CANTERBURY,2788,13104,1995,4,240,24,Active,,,https://www.redfin.com/FL/Odessa/17318-Hubers-Ct-33556/home/47066928,Stellar MLS as Distributed by MLS Grid,O6160497,N,Y,28.1229068,-82.574666
MLS Listing,,Single Family Residential,9256 Watolla Dr,Thonotosassa,FL,33592,385000,4,2.0,JEFFERSON ESTATES,1846,6826,2019,4,209,88,Active,,,https://www.redfin.com/FL/Thonotosassa/9256-Watolla-Dr-33592/home/148358961,Stellar MLS as Distributed by MLS Grid,T3489116,N,Y,28.0502594,-82.3417345
MLS Listing,,Single Family Residential,847 Rocky Mountain Ct,Valrico,FL,33594,370000,3,2.0,COPPER RIDGE TR B2,1855,6642,2000,4,199,29,Active,December-9-2023 12:00 PM,December-9-2023 03:00 PM,https://www.redfin.com/FL/Valrico/847-Rocky-Mountain-Ct-33594/home/47373666,Stellar MLS as Distributed by MLS Grid,T3488711,N,Y,27.9278812,-82.2221421
MLS Listing,,Single Family Residential,405 Erie Ave,Tampa,FL,33606,2500000,5,4.5,BYARS THOMPSON ADD DAVIS,3782,6300,2020,4,661,,Active,,,https://www.redfin.com/FL/Tampa/405-Erie-Ave-33606/home/47345027,Stellar MLS as Distributed by MLS Grid,T3489246,N,Y,27.9230078,-82.4573297
MLS Listing,,Single Family Residential,7911 Lovegren Ln,Gibsonton,FL,33534,410000,2,3.0,FLORIDA GARDEN LANDS REV M,1510,20955,1961,4,272,,Active,,,https://www.redfin.com/FL/Gibsonton/7911-Lovegren-Ln-33534/home/47168099,Stellar MLS as Distributed by MLS Grid,T3488429,N,Y,27.8384923,-82.3661455
MLS Listing,,Single Family Residential,768 Sunlit Coral St,Ruskin,FL,33570,325000,3,2.0,SHELL COVE PH 1,1372,5000,2022,4,237,7,Active,,,https://www.redfin.com/FL/Ruskin/768-Sunlit-Coral-St-33570/home/173874452,Stellar MLS as Distributed by MLS Grid,A4590566,N,Y,27.725355,-82.4502999
MLS Listing,,Condo/Co-op,777 N Ashley Dr #3207,Tampa,FL,33602,560000,1,1.0,SKYPOINT A CONDO,696,4,2007,4,805,432,Active,,,https://www.redfin.com/FL/Tampa/777-N-Ashley-Dr-33602/unit-3207/home/47059016,Stellar MLS as Distributed by MLS Grid,T3488799,N,Y,27.9497593,-82.4606166
MLS Listing,,Single Family Residential,305 Blackrock Ln,Apollo Beach,FL,33572,550000,3,2.0,MIRABAY PRCL 8,1932,4823,2021,4,285,11,Active,,,https://www.redfin.com/FL/Apollo-Beach/305-Blackrock-Ln-33572/home/173872568,Stellar MLS as Distributed by MLS Grid,T3487938,N,Y,27.748809,-82.4205733
MLS Listing,,Single Family Residential,3121 W Knights Ave,Tampa,FL,33611,1599000,4,4.5,GREGGS SUB OF BLOCKS 4,3050,6750,2000,4,524,,Active,,,https://www.redfin.com/FL/Tampa/3121-W-Knights-Ave-33611/home/47368070,Stellar MLS as Distributed by MLS Grid,T3488189,N,Y,27.9044142,-82.4959815
MLS Listing,,Single Family Residential,4508 W Beachway Dr,Tampa,FL,33609,1200000,3,2.0,BEACH PARK,2351,8288,1926,4,510,,Active,,,https://www.redfin.com/FL/Tampa/4508-W-Beachway-Dr-33609/home/47273796,Stellar MLS as Distributed by MLS Grid,T3489075,N,Y,27.9332974,-82.5213318
MLS Listing,,Single Family Residential,5303 E 127th Ave,Temple Terrace,FL,33617,449000,3,2.0,TEMPLE TERRACES,2191,14904,1983,4,205,,Active,,,https://www.redfin.com/FL/Temple-Terrace/5303-E-127th-Ave-33617/home/47151628,Stellar MLS as Distributed by MLS Grid,U8221510,N,Y,28.0616124,-82.3949842
MLS Listing,,Single Family Residential,9825 Gretna Green Dr,Tampa,FL,33626,885000,4,2.5,WESTCHASE SEC 305 & 306A,2615,7467,1999,4,338,30,Active,,,https://www.redfin.com/FL/Tampa/9825-Gretna-Green-Dr-33626/home/47077672,Stellar MLS as Distributed by MLS Grid,T3488587,N,Y,28.0436876,-82.6127368
MLS Listing,,Single Family Residential,1108 Soaring Osprey Way,Valrico,FL,33594,345000,3,2.0,COPPER RIDGE TR G1,1424,5000,2001,4,242,29,Active,,,https://www.redfin.com/FL/Valrico/1108-Soaring-Osprey-Way-33594/home/47385426,Stellar MLS as Distributed by MLS Grid,T3489028,N,Y,27.9229811,-82.2207762
MLS Listing,,Single Family Residential,16822 Whisper Elm St,Wimauma,FL,33598,375000,2,2.0,FOREST BROOKE ACTIVE ADULT PH,1683,5999,2020,4,223,405,Active,,,https://www.redfin.com/FL/Wimauma/16822-Whisper-Elm-St-33598/home/170454465,Stellar MLS as Distributed by MLS Grid,T3489222,N,Y,27.706163,-82.3194351
MLS Listing,,Single Family Residential,6901 N Brevard Ave,Tampa,FL,33604,450000,3,3.0,HILLSBOROUGH RIVER ESTATES,1578,10000,1950,4,285,,Active,,,https://www.redfin.com/FL/Tampa/6901-N-Brevard-Ave-33604/home/47263835,Stellar MLS as Distributed by MLS Grid,T3488658,N,Y,28.0109113,-82.4662427
MLS Listing,,Single Family Residential,5156 S Renellie Dr,Tampa,FL,33611,749800,4,2.5,ZAPICOS RESUB,2262,5000,2016,4,331,,Active,,,https://www.redfin.com/FL/Tampa/5156-S-Renellie-Dr-33611/home/47293234,Stellar MLS as Distributed by MLS Grid,T3488983,N,Y,27.8895483,-82.52456
MLS Listing,,Single Family Residential,17015 Yellow Pine St,Wimauma,FL,33598,389000,5,2.5,SUNSHINE VILLAGE PH 3B,2264,4125,2020,4,172,90,Active,December-9-2023 11:00 AM,December-9-2023 02:00 PM,https://www.redfin.com/FL/Wimauma/17015-Yellow-Pine-St-33598/home/169264178,Stellar MLS as Distributed by MLS Grid,T3488510,N,Y,27.6992969,-82.338513
MLS Listing,,Single Family Residential,10103 Kingsbridge Ave,Tampa,FL,33626,675000,4,3.0,WESTCHASE SEC 377,2408,9999,1998,4,280,30,Active,,,https://www.redfin.com/FL/Tampa/10103-Kingsbridge-Ave-33626/home/47076804,Stellar MLS as Distributed by MLS Grid,T3489074,N,Y,28.0527778,-82.5981292
MLS Listing,,Single Family Residential,5911 S Elkins Ave,Tampa,FL,33611,775000,3,2.5,OAK SHADOWS,1694,5000,1994,4,457,,Active,,,https://www.redfin.com/FL/Tampa/5911-S-Elkins-Ave-33611/home/47295587,Stellar MLS as Distributed by MLS Grid,T3488712,N,Y,27.8828057,-82.4887807
MLS Listing,,Single Family Residential,19912 Wyndmill Cir,Odessa,FL,33556,400000,4,2.0,WYNDHAM LAKES PH 2,1996,7700,1998,4,200,37,Active,,,https://www.redfin.com/FL/Odessa/19912-Wyndmill-Cir-33556/home/47065476,Stellar MLS as Distributed by MLS Grid,T3488725,N,Y,28.1712995,-82.5804111
MLS Listing,,Single Family Residential,2226 E 109th Ave,Tampa,FL,33612,270000,4,2.0,SHERWOOD HEIGHTS UNIT 1,1136,6000,1963,4,238,,Active,,,https://www.redfin.com/FL/Tampa/2226-E-109th-Ave-33612/home/47302286,Stellar MLS as Distributed by MLS Grid,U8222679,N,Y,28.0474686,-82.4322076
MLS Listing,,Vacant Land,15302 Apache Dr,Thonotosassa,FL,33592,449000,,,UNPLATTED,,67980,,4,,,Active,,,https://www.redfin.com/FL/Thonotosassa/15302-Apache-Dr-33592/home/54591813,Stellar MLS as Distributed by MLS Grid,T3489211,N,Y,28.1348665,-82.2873725
MLS Listing,,Single Family Residential,11703 Taylor Rd,Thonotosassa,FL,33592,2400000,5,6.0,LAGO WHISPERS,7760,234248,2002,4,309,,Active,,,https://www.redfin.com/FL/Thonotosassa/11703-Taylor-Rd-33592/home/47382393,Stellar MLS as Distributed by MLS Grid,O6160492,N,Y,28.0545635,-82.286715
MLS Listing,,Townhouse,4607 Limerick Dr,Tampa,FL,33610,259999,3,2.5,PALMETTO COVE,1529,1298,2008,4,170,668,Active,,,https://www.redfin.com/FL/Tampa/4607-Limerick-Dr-33610/home/47047447,Stellar MLS as Distributed by MLS Grid,T3488816,N,Y,27.9873319,-82.3127896
MLS Listing,,Single Family Residential,12017 Cedarfield Dr,Riverview,FL,33579,346000,3,2.0,MEADOWBROOKE AT SUMMERFIELD UN,1500,8560,2004,4,231,41,Active,,,https://www.redfin.com/FL/Riverview/12017-Cedarfield-Dr-33579/home/46982433,Stellar MLS as Distributed by MLS Grid,T3489217,N,Y,27.7903661,-82.3108214
MLS Listing,,Single Family Residential,129 Melanie Ln,Brandon,FL,33510,275000,3,1.0,MELANIE MANOR SUB,1050,8280,1965,4,262,,Active,,,https://www.redfin.com/FL/Brandon/129-Melanie-Ln-33510/home/47200184,Stellar MLS as Distributed by MLS Grid,L4941035,N,Y,27.9612242,-82.2877543
MLS Listing,,Single Family Residential,1717 Pacific Dunes Dr,Sun City Center,FL,33573,589900,2,2.5,SUN CITY CENTER UNIT 274 & 2,2357,9284,2015,4,250,236,Active,,,https://www.redfin.com/FL/Sun-City-Center/1717-Pacific-Dunes-Dr-33573/home/108204322,Stellar MLS as Distributed by MLS Grid,T3488684,N,Y,27.7027815,-82.3467573
MLS Listing,,Single Family Residential,1303 Rustlewood Dr,Brandon,FL,33510,575000,4,3.0,BRANDONWOOD SUB UNIT N,2508,20988,1971,4,229,8,Active,,,https://www.redfin.com/FL/Brandon/1303-Rustlewood-Dr-33510/home/47201210,Stellar MLS as Distributed by MLS Grid,T3488473,N,Y,27.9603058,-82.3194478
MLS Listing,,Townhouse,12552 Castle Hill Dr,Tampa,FL,33624,270000,2,2.5,HAMPTON PARK TWNHMS UN 2,1376,934,1989,4,196,300,Active,,,https://www.redfin.com/FL/Tampa/12552-Castle-Hill-Dr-33624/home/47121147,Stellar MLS as Distributed by MLS Grid,T3488382,N,Y,28.0606158,-82.53453
MLS Listing,,Townhouse,13082 Stillmont Pl,Tampa,FL,33624,415140,2,2.5,D0B | STILLMONT TOWNHOMES,1451,1742,2024,4,286,372,Active,,,https://www.redfin.com/FL/Tampa/13082-Stillmont-Pl-33624/home/188561093,Stellar MLS as Distributed by MLS Grid,T3489208,N,Y,28.0669477,-82.5259523
MLS Listing,,Single Family Residential,3448 Shady Sunrise Loop,Plant City,FL,33565,364990,4,2.5,FARM AT VARREA,2305,4824,2024,4,158,125,Active,,,https://www.redfin.com/FL/Plant-City/3448-Shady-Grove-Ln-33565/home/188607714,Stellar MLS as Distributed by MLS Grid,T3489213,N,Y,28.0585609,-82.0984558
MLS Listing,,Single Family Residential,3409 Grassy Knoll Ct,Plant City,FL,33565,313215,3,2.5,FARM AT VARREA,1560,5134,2024,4,201,125,Active,,,https://www.redfin.com/FL/Plant-City/3409-Grassy-Knoll-CT-33565/home/188544861,Stellar MLS as Distributed by MLS Grid,T3489206,N,Y,28.065330505371094,-82.08038330078125
MLS Listing,,Townhouse,13086 Stillmont Pl,Tampa,FL,33624,441250,3,2.5,D0B | STILLMONT TOWNHOMES,1762,1742,2024,4,250,372,Active,,,https://www.redfin.com/FL/Tampa/13086-Stillmont-Pl-33624/home/188561011,Stellar MLS as Distributed by MLS Grid,T3489202,N,Y,28.0669936,-82.5259509
MLS Listing,,Single Family Residential,1309 E Crawford St,Tampa,FL,33604,575000,5,3.0,CRAWFORD PLACE,2284,14700,1950,4,252,,Active,,,https://www.redfin.com/FL/Tampa/1309-E-Crawford-St-33604/home/47327208,Stellar MLS as Distributed by MLS Grid,T3488870,N,Y,28.0131563,-82.4441948
MLS Listing,,Townhouse,13080 Stillmont Pl,Tampa,FL,33624,443750,3,2.5,D0B | STILLMONT TOWNHOMES,1762,1742,2024,4,252,372,Active,,,https://www.redfin.com/FL/Greater-Northdale/13080-Stillmont-Pl-33624/home/187829228,Stellar MLS as Distributed by MLS Grid,T3489198,N,Y,28.065929,-82.526111
MLS Listing,,Single Family Residential,1009 Otter Mill Way,Sun City Center,FL,33573,350000,2,2.0,OXFORD I A CONDOMINIUM PHASE 1 UNIT 14,1590,2400,1994,4,220,700,Active,,,https://www.redfin.com/FL/Sun-City-Center/1009-Otter-Mill-Way-33573/home/47180639,Stellar MLS as Distributed by MLS Grid,A4590983,N,Y,27.6944146,-82.3728863
MLS Listing,,Condo/Co-op,777 N Ashley Dr #810,Tampa,FL,33602,560000,1,1.0,SKYPOINT A CONDO,846,2,2007,4,662,650,Active,,,https://www.redfin.com/FL/Tampa/777-N-Ashley-Dr-33602/unit-810/home/47058427,Stellar MLS as Distributed by MLS Grid,T3489088,N,Y,27.9497593,-82.4606166
MLS Listing,,Townhouse,4748 Legendary Oaks St,Tampa,FL,33610,359900,3,2.5,CP & WILLIAMS TWNHMS,1758,2079,2021,4,205,150,Active,,,https://www.redfin.com/FL/Tampa/4748-Legendary-Oaks-St-33610/home/173879364,Stellar MLS as Distributed by MLS Grid,FC296433,N,Y,27.9898667,-82.3170199
MLS Listing,,Single Family Residential,505 E Hugh St,Tampa,FL,33603,325000,3,1.0,CENTRAL PARK BLKS 1 2 4 TO 12,1040,5000,1925,4,313,,Active,,,https://www.redfin.com/FL/Tampa/505-E-Hugh-St-33603/home/47337396,Stellar MLS as Distributed by MLS Grid,U8222687,N,Y,27.9714018,-82.4548176
MLS Listing,,Single Family Residential,11627 Cambium Crown Dr,Riverview,FL,33569,384900,3,2.0,BOYETTE PARK PH 1E/2A/2B/3,1537,4800,2020,4,250,364,Active,,,https://www.redfin.com/FL/Riverview/11627-Cambium-Crown-Dr-33569/home/170402518,Stellar MLS as Distributed by MLS Grid,T3489091,N,Y,27.8508407,-82.3058965
MLS Listing,,Single Family Residential,156 Eagle Summit Dr,Ruskin,FL,33570,370000,4,2.0,RIVER BEND WEST SUB,1715,6050,2022,4,216,32,Active,,,https://www.redfin.com/FL/Ruskin/156-Eagle-Summit-Dr-33570/home/173876434,Stellar MLS as Distributed by MLS Grid,W7860001,N,Y,27.6971089,-82.4340995
MLS Listing,,Single Family Residential,225 Star Shell Dr,Apollo Beach,FL,33572,399000,3,2.0,HARBOUR ISLES PHASE 2A/2B/2C,2024,9855,2011,4,197,8,Active,,,https://www.redfin.com/FL/Apollo-Beach/225-Star-Shell-Dr-33572/home/47045370,Stellar MLS as Distributed by MLS Grid,T3489100,N,Y,27.7386301,-82.4127387
MLS Listing,,Single Family Residential,101 Silver Falls Dr,Apollo Beach,FL,33572,415000,2,2.0,SOUTHSHORE FALLS PH 1,1933,6678,2006,4,215,341,Active,,,https://www.redfin.com/FL/Apollo-Beach/101-Silver-Falls-Dr-33572/home/46997790,Stellar MLS as Distributed by MLS Grid,T3488432,N,Y,27.760585,-82.4003348
MLS Listing,,Single Family Residential,15717 Starling Dale Ln,Lithia,FL,33547,499000,4,2.0,FISHHAWK RANCH PH 2 TR 1 / STARLING,2313,7295,2010,4,216,10,Active,,,https://www.redfin.com/FL/Lithia/15717-Starling-Dale-Ln-33547/home/47051763,Stellar MLS as Distributed by MLS Grid,T3489097,N,Y,27.8558529,-82.2220303
MLS Listing,,Single Family Residential,10401 N 26th St,Tampa,FL,33612,375500,3,2.0,MCRAE MYERS BOARDMAN SUBDIVISI,1208,7656,1965,4,311,,Active,,,https://www.redfin.com/FL/Tampa/10401-N-26th-St-33612/home/47301557,Stellar MLS as Distributed by MLS Grid,T3488760,N,Y,28.0437585,-82.430226
MLS Listing,,Vacant Land,8405 Jackson Springs Rd,Tampa,FL,33615,239990,,,ROCKY RIVER SITES 2,,33275,,4,,,Active,,,https://www.redfin.com/FL/Tampa/8405-Jackson-Springs-Rd-33615/home/47091998,Stellar MLS as Distributed by MLS Grid,G5075742,N,Y,28.007473,-82.579774
MLS Listing,,Single Family Residential,5517 Winding Brook Ln,Valrico,FL,33596,974900,4,4.0,TWIN LAKES PARCELS F & G,4700,81022,2005,4,207,84,Active,,,https://www.redfin.com/FL/Valrico/5517-Winding-Brook-Ln-33596/home/47373551,Stellar MLS as Distributed by MLS Grid,O6155405,N,Y,27.8995086,-82.2037546
MLS Listing,,Single Family Residential,4600 Horton Rd,Plant City,FL,33567,315000,3,1.0,UNPLATTED,1156,14810,1971,4,272,,Active,,,https://www.redfin.com/FL/Plant-City/4600-Horton-Rd-33567/home/47256882,Stellar MLS as Distributed by MLS Grid,T3486268,N,Y,27.9523279,-82.080057
MLS Listing,,Single Family Residential,104 Apache Ln,Seffner,FL,33584,265000,3,2.0,HAMILTON PLACE SUB,2394,11880,1968,4,111,,Active,,,https://www.redfin.com/FL/Seffner/104-Apache-Ln-33584/home/47191280,Stellar MLS as Distributed by MLS Grid,A4591042,N,Y,27.9941143,-82.2771273
MLS Listing,,Townhouse,8990 Indigo Trail Loop,Riverview,FL,33578,359900,3,2.5,EAGLE PALM PH 4B,1785,2636,2017,4,202,212,Active,,,https://www.redfin.com/FL/Riverview/8990-Indigo-Trail-Loop-33578/home/144709331,Stellar MLS as Distributed by MLS Grid,T3488975,N,Y,27.8783546,-82.3522934
MLS Listing,,Single Family Residential,4012 W Montgomery Ter,Tampa,FL,33616,435000,3,2.0,BAY BREEZE,1416,6825,1958,4,307,,Active,,,https://www.redfin.com/FL/Tampa/4012-W-Montgomery-Ter-33616/home/47298588,Stellar MLS as Distributed by MLS Grid,U8222675,N,Y,27.8774608,-82.5120301
MLS Listing,,Single Family Residential,1222 S Wiggins Rd,Plant City,FL,33566,244990,3,2.0,UNPLATTED,1040,32670,1956,4,236,,Active,,,https://www.redfin.com/FL/Plant-City/1222-S-Wiggins-Rd-33566/home/47255151,Stellar MLS as Distributed by MLS Grid,T3489035,N,Y,28.0033302,-82.0675478
MLS Listing,,Single Family Residential,6304 N 13th St,Tampa,FL,33604,599000,3,2.5,MILLER-MCCARTHY SUB,2186,9740,2016,4,274,,Active,,,https://www.redfin.com/FL/Tampa/6304-N-13th-St-33604/home/110285137,Stellar MLS as Distributed by MLS Grid,T3488616,N,Y,28.0057197,-82.4453105
MLS Listing,,Single Family Residential,3623 Alafia Creek St,Plant City,FL,33567,525000,4,3.0,LITTLE ALAFIA CREEK ESTATES,2637,26136,2006,4,199,13,Active,,,https://www.redfin.com/FL/Plant-City/3623-Alafia-Creek-St-33567/home/47010043,Stellar MLS as Distributed by MLS Grid,L4940979,N,Y,27.9646986,-82.1351949
MLS Listing,,Single Family Residential,6828 Monarch Park Dr,Apollo Beach,FL,33572,389000,4,2.0,COVINGTON PARK PH 2B 2C 3C,2037,5500,2004,4,191,10,Active,,,https://www.redfin.com/FL/Apollo-Beach/6828-Monarch-Park-Dr-33572/home/46977864,Stellar MLS as Distributed by MLS Grid,OM668363,N,Y,27.784348,-82.3627768
MLS Listing,,Single Family Residential,17238 Holly Well Ave,Wimauma,FL,33598,324280,2,2.0,SOUTHSHORE BAY,1628,,2024,4,199,216,Active,,,https://www.redfin.com/FL/Wimauma/17238-Holly-Well-Ave-33598/home/188772920,Stellar MLS as Distributed by MLS Grid,T3489106,N,Y,27.6938171,-82.3191857
MLS Listing,,Condo/Co-op,7167 E Bank Dr #2002,Tampa,FL,33617,159000,2,1.5,WATERSIDE CONDO I,864,2,1986,4,184,449,Active,,,https://www.redfin.com/FL/Tampa/7167-E-Bank-Dr-33617/unit-2002/home/184865433,Stellar MLS as Distributed by MLS Grid,T3488733,N,Y,28.012376,-82.4112923
MLS Listing,,Single Family Residential,12937 Terrace Springs Dr,Temple Terrace,FL,33637,432997,4,2.5,HIDDEN OAKS AT TEMPLE TERRACE,2057,9194,2006,4,210,50,Active,,,https://www.redfin.com/FL/Temple-Terrace/12937-Terrace-Springs-Dr-33637/home/47013761,Stellar MLS as Distributed by MLS Grid,T3489040,N,Y,28.0622286,-82.3640287
MLS Listing,,Single Family Residential,10308 Boyette Creek Blvd,Riverview,FL,33569,415000,4,2.5,BOYETTE CREEK PH 1,2250,6952,2004,4,184,21,Active,,,https://www.redfin.com/FL/Riverview/10308-Boyette-Creek-Blvd-33569/home/46980499,Stellar MLS as Distributed by MLS Grid,T3489104,N,Y,27.8474374,-82.266912
MLS Listing,,Single Family Residential,6802 Valrie Ln,Riverview,FL,33569,749900,4,2.5,RIVERVIEW,1570,92176,1981,4,478,,Active,,,https://www.redfin.com/FL/Riverview/6802-Valrie-Ln-33569/home/47217821,Stellar MLS as Distributed by MLS Grid,T3489045,N,Y,27.8835518,-82.3007309
MLS Listing,,Single Family Residential,10424 N Oklawaha Ave,Tampa,FL,33617,450000,3,2.0,TERRACE PARK UNIT 4,1888,7000,2000,4,238,,Active,,,https://www.redfin.com/FL/Tampa/10424-N-Oklawaha-Ave-33617/home/47301815,Stellar MLS as Distributed by MLS Grid,T3488746,N,Y,28.0452739,-82.4070064
MLS Listing,,Single Family Residential,16113 Brecon Palms Pl,Tampa,FL,33647,775000,4,3.5,BUCKINGHAM AT TAMPA PALMS,3082,12640,2004,4,251,66,Active,,,https://www.redfin.com/FL/Tampa/16113-Brecon-Palms-Pl-33647/home/46977727,Stellar MLS as Distributed by MLS Grid,T3487893,N,Y,28.1060309,-82.3728216
MLS Listing,,Condo/Co-op,1408 Leland Dr #53,Sun City Center,FL,33573,254900,2,2.0,LANCASTER II CONDO,1529,2080,1988,4,167,671,Active,,,https://www.redfin.com/FL/Sun-City-Center/1408-Leland-Dr-33573/unit-53/home/171771067,Stellar MLS as Distributed by MLS Grid,T3488705,N,Y,27.7020193,-82.3821063
MLS Listing,,Single Family Residential,9618 Pine Ridge Ave,Riverview,FL,33578,299900,3,1.5,RIVERVIEW CREST UNIT 1,1750,10001,1961,4,171,,Active,,,https://www.redfin.com/FL/Riverview/9618-Pine-Ridge-Ave-33578/home/47224783,Stellar MLS as Distributed by MLS Grid,T3488346,N,Y,27.8573623,-82.3281692
MLS Listing,,Single Family Residential,1305 Brentwood Hills Blvd,Brandon,FL,33511,449900,4,3.0,BRENTWOOD HILLS TRCT F UN 1,2234,7700,1997,4,201,55,Active,,,https://www.redfin.com/FL/Brandon/1305-Brentwood-Hills-Blvd-33511/home/47206055,Stellar MLS as Distributed by MLS Grid,T3487786,N,Y,27.9259237,-82.2640357
MLS Listing,,Single Family Residential,4905 Headland Hills Ave,Tampa,FL,33625,490000,3,2.0,CARROLLWOOD MEADOWS UNIT V,1443,8030,1983,4,340,,Active,,,https://www.redfin.com/FL/Tampa/4905-Headland-Hills-Ave-33625/home/47119477,Stellar MLS as Distributed by MLS Grid,T3489065,N,Y,28.0778658,-82.5424782
MLS Listing,,Single Family Residential,2104 E Ellicott St,Tampa,FL,33610,450000,3,2.0,PEDDY & HACKNEY SUB,1564,5400,2021,4,288,,Active,,,https://www.redfin.com/FL/Tampa/2104-E-Ellicott-St-33610/home/47317906,Stellar MLS as Distributed by MLS Grid,T3488896,N,Y,27.9911545,-82.43647
MLS Listing,,Single Family Residential,4915 W San Jose St,Tampa,FL,33629,1100000,3,3.0,SUNSET CAMP,2579,10000,1970,4,427,,Active,December-6-2023 11:00 AM,December-6-2023 01:30 PM,https://www.redfin.com/FL/Tampa/4915-W-San-Jose-St-33629/home/47280881,Stellar MLS as Distributed by MLS Grid,T3488814,N,Y,27.9232627,-82.5279903
MLS Listing,,Condo/Co-op,2451 New Haven Cir #73,Sun City Center,FL,33573,224900,2,2.0,NANTUCKET III CONDO,1125,1727,1996,4,200,656,Active,,,https://www.redfin.com/FL/Sun-City-Center/2451-New-Haven-Cir-33573/unit-73/home/188763470,Stellar MLS as Distributed by MLS Grid,T3488193,N,Y,27.693809,-82.383241
MLS Listing,,Condo/Co-op,17114 Carrington Park Dr #215,Tampa,FL,33647,219900,2,2.0,JADE AT TAMPA PALMS A CONDOMIN,1144,2,1996,4,192,337,Active,,,https://www.redfin.com/FL/Tampa/17114-Carrington-Park-Dr-33647/unit-215/home/47042852,Stellar MLS as Distributed by MLS Grid,U8222624,N,Y,28.1170608,-82.382372
MLS Listing,,Single Family Residential,3105 N 15th St,Tampa,FL,33605,377400,3,2.0,LA CARBAYERA,1204,4802,1994,4,313,,Active,,,https://www.redfin.com/FL/Tampa/3105-N-15th-St-33605/home/47340670,Stellar MLS as Distributed by MLS Grid,U8221828,N,Y,27.9716059,-82.442798
MLS Listing,,Single Family Residential,8205 Pennywell Pl,Tampa,FL,33615,399000,3,2.0,TIMBERLANE SUB UNIT 7B,1441,4898,1984,4,277,,Active,,,https://www.redfin.com/FL/Tampa/8205-Pennywell-Pl-33615/home/47088641,Stellar MLS as Distributed by MLS Grid,O6159330,N,Y,28.0246694,-82.5912875
MLS Listing,,Single Family Residential,10143 Newminster Loop,Ruskin,FL,33573,355000,3,2.0,BELMONT,1609,5019,2016,4,221,14,Active,,,https://www.redfin.com/FL/Ruskin/10143-Newminster-Loop-33573/home/64128596,Stellar MLS as Distributed by MLS Grid,U8222469,N,Y,27.7632703,-82.3405691
MLS Listing,,Single Family Residential,13912 Hayward Pl,Tampa,FL,33618,529900,3,2.0,CARROLLWOOD STONELEIGH,1900,6498,1979,4,279,50,Active,,,https://www.redfin.com/FL/Tampa/13912-Hayward-Pl-33618/home/47118181,Stellar MLS as Distributed by MLS Grid,T3488292,N,Y,28.0712315,-82.5083724
MLS Listing,,Single Family Residential,13520 Copper Head Dr,Riverview,FL,33569,468000,4,2.5,BOYETTE CREEK PH 1,3555,5500,2003,4,132,21,Active,,,https://www.redfin.com/FL/Riverview/13520-Copper-Head-Dr-33569/home/46980003,Stellar MLS as Distributed by MLS Grid,T3488892,N,Y,27.8493765,-82.2674242
MLS Listing,,Single Family Residential,11609 E Old Hillsborough Ave,Seffner,FL,33584,296000,3,1.0,UNPLATTED,1092,8342,1954,4,271,,Active,,,https://www.redfin.com/FL/Seffner/11609-E-Old-Hillsborough-Ave-33584/home/47192659,Stellar MLS as Distributed by MLS Grid,T3489014,N,Y,27.995834,-82.3033208
MLS Listing,,Single Family Residential,708 Kingston Ct,Apollo Beach,FL,33572,930000,5,4.0,APOLLO BEACH UNIT TWO,1931,12500,1989,5,482,,Active,,,https://www.redfin.com/FL/Apollo-Beach/708-Kingston-Ct-33572/home/47171125,Stellar MLS as Distributed by MLS Grid,T3489032,N,Y,27.7694547,-82.413365
MLS Listing,,Single Family Residential,4115 W Platt St,Tampa,FL,33609,750000,3,2.0,ANADELL SUBDIVISION,1740,8775,1959,5,431,,Active,,,https://www.redfin.com/FL/Tampa/4115-W-Platt-St-33609/home/47275031,Stellar MLS as Distributed by MLS Grid,U8222466,N,Y,27.9423937,-82.5133595
MLS Listing,,Single Family Residential,2626 E Genesee St,Tampa,FL,33610,331900,3,1.5,ENGLEWOOD,1512,5000,1994,5,220,,Active,,,https://www.redfin.com/FL/Tampa/2626-E-Genesee-St-33610/home/47317231,Stellar MLS as Distributed by MLS Grid,T3489029,N,Y,27.98465,-82.4286529
MLS Listing,,Single Family Residential,943 Seminole Sky Dr,Ruskin,FL,33570,345000,3,2.5,BAHIA LAKES PH 1,1979,4998,2011,5,174,85,Active,,,https://www.redfin.com/FL/Ruskin/943-Seminole-Sky-Dr-33570/home/47045856,Stellar MLS as Distributed by MLS Grid,S5095547,N,Y,27.7310298,-82.4485118
MLS Listing,,Single Family Residential,404 E Hanlon St,Tampa,FL,33604,269900,2,1.0,KRAUSES SUB,672,5238,1948,5,402,,Active,,,https://www.redfin.com/FL/Tampa/404-E-Hanlon-St-33604/home/47320135,Stellar MLS as Distributed by MLS Grid,T3485485,N,Y,28.0192162,-82.4560025
MLS Listing,,Single Family Residential,306 Barstow Ct,Sun City Center,FL,33573,278900,2,2.0,SUN CITY CENTER UNIT 35,1326,13861,1988,5,210,33,Active,,,https://www.redfin.com/FL/Sun-City-Center/306-Barstow-Ct-33573/home/47232910,Stellar MLS as Distributed by MLS Grid,T3488978,N,Y,27.7099197,-82.3362663
MLS Listing,,Townhouse,1413 Summergate Dr,Valrico,FL,33594,250000,3,2.5,SUMMER GATE TWNHMS,1536,2008,2006,5,163,270,Active,,,https://www.redfin.com/FL/Valrico/1413-Summergate-Dr-33594/home/47015594,Stellar MLS as Distributed by MLS Grid,U8222462,N,Y,27.9409604,-82.2626302
MLS Listing,,Single Family Residential,5827 Meadowpark Pl,Lithia,FL,33547,355000,3,2.0,FISHHAWK RANCH PH 2 PRCL,1254,4600,1999,5,283,10,Active,,,https://www.redfin.com/FL/Lithia/5827-Meadowpark-Pl-33547/home/47253152,Stellar MLS as Distributed by MLS Grid,T3489007,N,Y,27.8462915,-82.2303529
MLS Listing,,Single Family Residential,306 Benson St,Valrico,FL,33594,325000,3,2.0,BRANDON BROOK PH II,1064,4500,1992,5,305,34,Active,,,https://www.redfin.com/FL/Valrico/306-Benson-St-33594/home/47204384,Stellar MLS as Distributed by MLS Grid,T3488954,N,Y,27.9427992,-82.2535982
MLS Listing,,Single Family Residential,3430 Knoxville Pl,Plant City,FL,33566,555000,4,2.0,WIGGINS ESTATES,2350,43560,2015,5,236,83,Active,,,https://www.redfin.com/FL/Plant-City/3430-Knoxville-Pl-33566/home/47065124,Stellar MLS as Distributed by MLS Grid,T3488300,N,Y,27.9771515,-82.0608455
MLS Listing,,Single Family Residential,4404 W Wallace Ave,Tampa,FL,33611,565000,3,2.0,GANDY GARDENS 2,1500,6528,1955,5,377,,Active,,,https://www.redfin.com/FL/Tampa/4404-W-Wallace-Ave-33611/home/47292308,Stellar MLS as Distributed by MLS Grid,T3488568,N,Y,27.8850107,-82.5190699
MLS Listing,,Single Family Residential,16119 Amethyst Key Dr,Wimauma,FL,33598,330000,2,2.0,VALENCIA LAKES,1321,4301,2009,5,250,621,Active,,,https://www.redfin.com/FL/Wimauma/16119-Amethyst-Key-Dr-33598/home/47060616,Stellar MLS as Distributed by MLS Grid,T3487250,N,Y,27.729094,-82.329687
MLS Listing,,Single Family Residential,6225 Hidden Branch Dr,Apollo Beach,FL,33572,929990,3,3.0,WATERSET,3481,27974,2023,5,267,7,Active,,,https://www.redfin.com/FL/Apollo-Beach/6225-Hidden-Branch-Dr-33572/home/188755420,Stellar MLS as Distributed by MLS Grid,T3488977,N,Y,27.7523919,-82.3876312
MLS Listing,,Single Family Residential,15713 Warbler Pl,Tampa,FL,33624,425000,3,2.0,COUNTRY PLACE UNIT 3 B,1545,13027,1980,5,275,12,Active,,,https://www.redfin.com/FL/Tampa/15713-Warbler-Pl-33624/home/47110320,Stellar MLS as Distributed by MLS Grid,T3488299,N,Y,28.0939125,-82.5283285
MLS Listing,,Single Family Residential,1803 Breth Ct,Sun City Center,FL,33573,280000,2,2.0,CYPRESSVIEW PH I UNIT 2,1227,3445,1988,5,228,118,Active,,,https://www.redfin.com/FL/Sun-City-Center/1803-Breth-Ct-33573/home/47172563,Stellar MLS as Distributed by MLS Grid,T3488790,N,Y,27.7318816,-82.3554248
MLS Listing,,Vacant Land,3205 N 24th St,Tampa,FL,33605,65000,,,ROBSON & LOWMAN SUB,,3375,,5,,,Active,,,https://www.redfin.com/FL/Tampa/3205-E-24th-Ave-33605/home/47331767,Stellar MLS as Distributed by MLS Grid,T3488722,N,Y,27.9724266,-82.4244191
MLS Listing,,Vacant Land,3203 N 24th St,Tampa,FL,33605,65000,,,ROBSON & LOWMAN SUB,,3420,,5,,,Active,,,https://www.redfin.com/FL/Tampa/3203-E-24th-Ave-33605/home/47331770,Stellar MLS as Distributed by MLS Grid,T3488723,N,Y,27.9724725,-82.4245458
MLS Listing,,Single Family Residential,11903 Steppingstone Blvd,Tampa,FL,33635,510000,3,2.0,COUNTRYWAY PRCL B TRCT 21 PH 2,1677,9000,1990,5,304,43,Active,,,https://www.redfin.com/FL/Tampa/11903-Steppingstone-Blvd-33635/home/47079398,Stellar MLS as Distributed by MLS Grid,U8222384,N,Y,28.0372276,-82.620905
MLS Listing,,Single Family Residential,16710 Magnolia Reserve Pl,Wimauma,FL,33598,449900,5,2.5,SUNSHINE VILLAGE PH 1A-1/1,2923,5737,2016,5,154,83,Active,,,https://www.redfin.com/FL/Wimauma/16710-Magnolia-Reserve-Pl-33598/home/103758164,Stellar MLS as Distributed by MLS Grid,T3488761,N,Y,27.7060259,-82.3333837
MLS Listing,,Vacant Land,2404 Cassell St,Tampa,FL,33605,70000,,,RANDALLS REV MAP OF BLK,,4000,,5,,,Active,,,https://www.redfin.com/FL/Tampa/2404-Cassell-St-33605/home/47331150,Stellar MLS as Distributed by MLS Grid,T3488724,N,Y,27.9768185,-82.4325746
MLS Listing,,Single Family Residential,2821 Marconi St,Tampa,FL,33605,309900,2,1.0,EAST TAMPA BLOCKS 1 TO 40,1175,4750,1918,5,264,,Active,,,https://www.redfin.com/FL/Tampa/2821-Marconi-St-33605/home/47342026,Stellar MLS as Distributed by MLS Grid,T3488957,N,Y,27.9499016,-82.4269239
MLS Listing,,Single Family Residential,1217 E Lambright St,Tampa,FL,33604,363000,3,2.0,OAK KNOLL SUB,1005,7020,1950,5,361,,Active,,,https://www.redfin.com/FL/Tampa/1217-E-Lambright-St-33604/home/47328404,Stellar MLS as Distributed by MLS Grid,T3488940,N,Y,28.0063553,-82.4453799
MLS Listing,,Single Family Residential,4456 Eternal Prince Dr,Sun City Center,FL,33573,345000,3,2.0,CYPRESS CREEK,1540,5610,2020,5,224,76,Active,,,https://www.redfin.com/FL/Sun-City-Center/4456-Eternal-Prince-Dr-33573/home/172661185,Stellar MLS as Distributed by MLS Grid,T3488928,N,Y,27.747387,-82.3542377
MLS Listing,,Single Family Residential,718 Somerstone Dr,Valrico,FL,33594,379900,3,2.0,SOMERSET TR C,1436,6177,2001,5,265,53,Active,,,https://www.redfin.com/FL/Valrico/718-Somerstone-Dr-33594/home/47384959,Stellar MLS as Distributed by MLS Grid,U8220892,N,Y,27.9478263,-82.2290539
MLS Listing,,Single Family Residential,211 W Gladys St,Tampa,FL,33602,375000,2,1.0,ROSEBURY PARK,1111,5684,1927,5,338,,Active,,,https://www.redfin.com/FL/Tampa/211-W-Gladys-St-33602/home/47336860,Stellar MLS as Distributed by MLS Grid,O6160121,N,Y,27.9685526,-82.4634078
MLS Listing,,Townhouse,6769 Breezy Palm Dr,Riverview,FL,33578,330000,3,2.5,EAGLE PALM PH 1,1864,935,2006,5,177,305,Active,,,https://www.redfin.com/FL/Riverview/6769-Breezy-Palm-Dr-33578/home/47027558,Stellar MLS as Distributed by MLS Grid,T3488811,N,Y,27.8823538,-82.3569484
MLS Listing,,Single Family Residential,3719 Smith Ryals Rd,Plant City,FL,33567,1475000,6,7.0,UNPLATTED,4067,104980,2020,5,363,,Active,,,https://www.redfin.com/FL/Plant-City/3719-Smith-Ryals-Rd-33567/home/148365821,Stellar MLS as Distributed by MLS Grid,L4940998,N,Y,27.962166,-82.0890759
MLS Listing,,Vacant Land,S Oak St,Seffner,FL,33584,39900,,,UNPLATTED,,7600,,5,,,Active,,,https://www.redfin.com/FL/Seffner/S-Oak-St-33584/home/54696613,Stellar MLS as Distributed by MLS Grid,O6160490,N,Y,27.976342,-82.293063
MLS Listing,,Single Family Residential,3910 E Ellicott St,Tampa,FL,33610,230000,2,1.0,MAR CHA LONG,950,10880,1953,5,242,,Active,,,https://www.redfin.com/FL/Tampa/3910-E-Ellicott-St-33610/home/47315727,Stellar MLS as Distributed by MLS Grid,U8220971,N,Y,27.9908328,-82.4153653
MLS Listing,,Townhouse,15845 Fishhawk View Dr,Lithia,FL,33547,265000,2,2.5,FISHHAWK RANCH TWNHMS PH,1248,1446,2007,5,212,179,Active,,,https://www.redfin.com/FL/Lithia/15845-Fishhawk-View-Dr-33547/home/47009032,Stellar MLS as Distributed by MLS Grid,T3487931,N,Y,27.8514286,-82.219243
MLS Listing,,Single Family Residential,11747 Albatross Ln,Riverview,FL,33569,409500,3,2.0,ESTUARY PH 5,1753,7705,2015,5,234,55,Active,,,https://www.redfin.com/FL/Riverview/11747-Albatross-Ln-33569/home/91503770,Stellar MLS as Distributed by MLS Grid,T3487311,N,Y,27.8265229,-82.3026635
MLS Listing,,Condo/Co-op,5602 Pinnacle Heights Cir #302,Tampa,FL,33624,198900,1,1.0,THE PINNACLE AT CARROLLWOOD A,734,2,1998,5,271,199,Active,,,https://www.redfin.com/FL/Tampa/5602-Pinnacle-Heights-Cir-33624/unit-302/home/47019910,Stellar MLS as Distributed by MLS Grid,U8222423,N,Y,28.0663138,-82.5403543
MLS Listing,,Ranch,12213 US Highway 301 S,Riverview,FL,33578,1500000,2,1.0,ELKTON,1440,413820,1987,5,1042,,Active,,,https://www.redfin.com/FL/Riverview/12213-US-Highway-301-S-33578/home/47228869,Stellar MLS as Distributed by MLS Grid,T3488886,N,Y,27.8198067,-82.3316029
MLS Listing,,Single Family Residential,5117 Coopers Hawk Ct,Valrico,FL,33596,689000,4,3.0,TWIN LAKES,3148,17687,2003,5,219,84,Active,,,https://www.redfin.com/FL/Valrico/5117-Coopers-Hawk-Ct-33596/home/47385654,Stellar MLS as Distributed by MLS Grid,T3488579,N,Y,27.9031128,-82.2100609
MLS Listing,,Condo/Co-op,5701 Bowen Daniel Dr #1206,Tampa,FL,33616,2540000,4,4.0,"WESTSHORE YACHT CLUB, AQUA TOWER 1",2666,,2024,5,953,2195,Active,,,https://www.redfin.com/FL/Tampa/5701-Bowen-Daniel-Dr-33616/unit-1206/home/188753258,Stellar MLS as Distributed by MLS Grid,T3488846,N,Y,27.8857866,-82.5291563
MLS Listing,,Single Family Residential,2909 W Coachman Ave,Tampa,FL,33611,2950000,5,5.5,BAYSHORE BEAUTIFUL SUB,4875,8370,2024,5,605,,Active,,,https://www.redfin.com/FL/Tampa/2909-W-Coachman-Ave-33611/home/47288797,Stellar MLS as Distributed by MLS Grid,T3488840,N,Y,27.8973239,-82.4911176
MLS Listing,,Condo/Co-op,5701 Bowen Daniel Dr #1602,Tampa,FL,33616,2050000,2,2.5,"WESTSHORE YACHT CLUB, AQUA TOWER 1",2344,,2024,5,875,2251,Active,,,https://www.redfin.com/FL/Tampa/5701-Bowen-Daniel-Dr-33616/unit-1602/home/188753253,Stellar MLS as Distributed by MLS Grid,T3488854,N,Y,27.8857866,-82.5291563
MLS Listing,,Single Family Residential,1705 Olympia Rd,Tampa,FL,33619,355000,4,3.0,DELANEY CREEK ESTATES,1495,7222,1997,5,237,,Active,,,https://www.redfin.com/FL/Tampa/1705-Olympia-Rd-33619/home/47162431,Stellar MLS as Distributed by MLS Grid,T3488753,N,Y,27.9315412,-82.3580942
MLS Listing,,Condo/Co-op,5701 Bowen Daniel Dr #1404,Tampa,FL,33616,2100000,3,3.5,"WESTSHORE YACHT CLUB, AQUA TOWER 1",2411,,2024,5,871,2134,Active,,,https://www.redfin.com/FL/Tampa/5701-Bowen-Daniel-Dr-33616/unit-1404/home/188753215,Stellar MLS as Distributed by MLS Grid,U8222537,N,Y,27.8857866,-82.5291563
MLS Listing,,Condo/Co-op,3301 Bayshore Blvd Unit 503D,Tampa,FL,33629,875000,3,3.0,MONTE CARLO TOWERS A CONDOMINI,1996,2,1984,5,438,1286,Active,,,https://www.redfin.com/FL/Tampa/3301-Bayshore-Blvd-33629/unit-503D/home/47286931,Stellar MLS as Distributed by MLS Grid,T3488731,N,Y,27.9164349,-82.4921786
MLS Listing,,Condo/Co-op,5701 Bowen Daniel Dr #801,Tampa,FL,33616,2400000,4,4.0,"WESTSHORE YACHT CLUB, AQUA TOWER 1",2666,,2024,5,900,2195,Active,,,https://www.redfin.com/FL/Tampa/5701-Bowen-Daniel-Dr-33616/unit-801/home/185923434,Stellar MLS as Distributed by MLS Grid,U8222533,N,Y,27.8857866,-82.5291563
MLS Listing,,Single Family Residential,5628 Paddock Trail Dr,Tampa,FL,33624,500000,3,2.0,PADDOCK TRAIL,1733,5500,1998,5,289,37,Active,,,https://www.redfin.com/FL/Tampa/5628-Paddock-Trail-Dr-33624/home/47120911,Stellar MLS as Distributed by MLS Grid,T3488695,N,Y,28.0642181,-82.5384834
MLS Listing,,Single Family Residential,1936 Hawks View Dr,Ruskin,FL,33570,329900,4,2.5,HAWKS POINT PH 1C-2 & 1D,1798,4586,2015,5,183,89,Active,,,https://www.redfin.com/FL/Ruskin/1936-Hawks-View-Dr-33570/home/70318794,Stellar MLS as Distributed by MLS Grid,T3488785,N,Y,27.7320399,-82.4101887
MLS Listing,,Condo/Co-op,5701 Bowen Daniel Dr #703,Tampa,FL,33616,1800000,3,3.5,"WESTSHORE YACHT CLUB, AQUA TOWER 1",2411,,2024,5,747,2268,Active,,,https://www.redfin.com/FL/Tampa/5701-Bowen-Daniel-Dr-33616/unit-703/home/188752994,Stellar MLS as Distributed by MLS Grid,T3488839,N,Y,27.8857866,-82.5291563
MLS Listing,,Condo/Co-op,5701 Bowen Daniel Dr #505,Tampa,FL,33616,1500000,2,2.5,"WESTSHORE YACHT CLUB, AQUA TOWER 1",2344,,2024,5,640,2116,Active,,,https://www.redfin.com/FL/Tampa/5701-Bowen-Daniel-Dr-33616/unit-505/home/185778834,Stellar MLS as Distributed by MLS Grid,U8222527,N,Y,27.8857866,-82.5291563
MLS Listing,,Single Family Residential,5619 Glencrest Blvd,Tampa,FL,33625,650000,5,3.0,BELLE GLEN,2983,14507,1997,5,218,75,Active,,,https://www.redfin.com/FL/Tampa/5619-Glencrest-Blvd-33625/home/47109246,Stellar MLS as Distributed by MLS Grid,T3486632,N,Y,28.1040129,-82.5463698
MLS Listing,,Condo/Co-op,5701 Bowen Daniel Dr #302,Tampa,FL,33616,1450000,2,2.5,"WESTSHORE YACHT CLUB, AQUA TOWER 1",2344,,2024,5,619,2251,Active,,,https://www.redfin.com/FL/Tampa/5701-Bowen-Daniel-Dr-33616/unit-302/home/188752901,Stellar MLS as Distributed by MLS Grid,T3488829,N,Y,27.8857866,-82.5291563
MLS Listing,,Single Family Residential,13129 Monach Isles Dr,Riverview,FL,33579,455000,5,2.5,TRIPLE CREEK PH 3 VILLAGE K,2810,5500,2020,5,162,5,Active,,,https://www.redfin.com/FL/Riverview/13129-Monach-Isles-Dr-33579/home/148359524,Stellar MLS as Distributed by MLS Grid,U8222521,N,Y,27.8000779,-82.2728632
MLS Listing,,Single Family Residential,7330 Paradiso Dr,Apollo Beach,FL,33572,625000,4,3.0,WATERSET PH 5A-1,2707,10021,2019,5,231,7,Active,,,https://www.redfin.com/FL/Apollo-Beach/7330-Paradiso-Dr-33572/home/147937270,Stellar MLS as Distributed by MLS Grid,T3488673,N,Y,27.7622055,-82.3744077
MLS Listing,,Townhouse,3405 W Swann Ave #1,Tampa,FL,33609,729999,3,3.5,SWANN AVE TWNHMS,2322,1027,2006,5,314,760,Active,,,https://www.redfin.com/FL/Tampa/3405-W-Swann-Ave-33609/unit-1/home/47022508,Stellar MLS as Distributed by MLS Grid,T3487170,N,Y,27.937877,-82.4999318
MLS Listing,,Single Family Residential,17126 Rainbow Ter,Odessa,FL,33556,650000,3,2.0,RAINBOW TERRACE,2352,37462,1975,5,276,,Active,,,https://www.redfin.com/FL/Odessa/17126-Rainbow-Ter-33556/home/47067231,Stellar MLS as Distributed by MLS Grid,T3488227,N,Y,28.1212989,-82.5982981
MLS Listing,,Townhouse,3121 Bayshore Oaks Dr,Tampa,FL,33611,480000,3,3.0,BAYSHORE WEST TWNHMS PH,1844,1328,2002,5,260,609,Active,,,https://www.redfin.com/FL/Tampa/3121-Bayshore-Oaks-Dr-33611/home/46984386,Stellar MLS as Distributed by MLS Grid,T3488508,N,Y,27.8845015,-82.4948501
MLS Listing,,Single Family Residential,18833 Maisons Dr,Lutz,FL,33558,499900,4,2.0,CHEVAL WEST VILLAGE 5B PH 1,2004,6750,2003,5,249,10,Active,,,https://www.redfin.com/FL/Lutz/18833-Maisons-Dr-33558/home/47370622,Stellar MLS as Distributed by MLS Grid,T3488668,N,Y,28.1430631,-82.5428691
MLS Listing,,Townhouse,11814 Dumaine Valley Rd,Riverview,FL,33579,285000,2,2.5,SUMMERFIELD TR 19,1559,2792,2021,5,183,283,Active,,,https://www.redfin.com/FL/Riverview/11814-Dumaine-Valley-Rd-33579/home/177793712,Stellar MLS as Distributed by MLS Grid,T3488621,N,Y,27.7965828,-82.2992631
MLS Listing,,Single Family Residential,10940 Trailing Vine Dr,Tampa,FL,33610,399000,4,2.5,WAVERLY VILLAGE,2328,4788,2021,5,171,67,Active,,,https://www.redfin.com/FL/Tampa/10940-Trailing-Vine-Dr-33610/home/173365477,Stellar MLS as Distributed by MLS Grid,A4590231,N,Y,27.993112,-82.3164246
MLS Listing,,Vacant Land,2001 E 20th Ave,Tampa,FL,33605,135000,,,BANZA BANZA,,3445,,5,,,Active,,,https://www.redfin.com/FL/Tampa/2001-E-20th-Ave-33605/home/145415997,Stellar MLS as Distributed by MLS Grid,T3488805,N,Y,27.9692238,-82.4365576
MLS Listing,,Condo/Co-op,4221 W Spruce St #1315,Tampa,FL,33607,249900,1,1.0,VILLA SONOMA AT INTERNATIONAL,696,4,2001,5,359,329,Active,,,https://www.redfin.com/FL/Tampa/4221-W-Spruce-St-33607/unit-1315/home/47003961,Stellar MLS as Distributed by MLS Grid,T3488586,N,Y,27.9600989,-82.5156219
MLS Listing,,Single Family Residential,4913 N Shirley Dr,Tampa,FL,33603,599900,4,4.0,WELLSWOOD SEC G,2539,10413,1963,5,236,,Active,,,https://www.redfin.com/FL/Tampa/4913-N-Shirley-Dr-33603/home/47268607,Stellar MLS as Distributed by MLS Grid,T3488489,N,Y,27.9920475,-82.4697122
MLS Listing,,Townhouse,2401 Lexington Oak Dr,Brandon,FL,33511,359000,3,3.5,LAKE BRANDON PRCL 113,1995,1721,2006,5,180,330,Active,,,https://www.redfin.com/FL/Brandon/2401-Lexington-Oak-Dr-33511/home/47016083,Stellar MLS as Distributed by MLS Grid,O6160508,N,Y,27.9161173,-82.3276718
MLS Listing,,Single Family Residential,1306 Foxboro Dr,Brandon,FL,33511,359900,3,2.0,HEATHER LAKES UNIT VI,1486,7400,1984,5,242,,Active,,,https://www.redfin.com/FL/Brandon/1306-Foxboro-Dr-33511/home/47208864,Stellar MLS as Distributed by MLS Grid,T3488601,N,Y,27.9216818,-82.3060351
MLS Listing,,Single Family Residential,1806 E 97th Ave,Tampa,FL,33612,279950,2,2.0,TAMPA OVERLOOK,786,5188,1978,5,356,,Active,,,https://www.redfin.com/FL/Tampa/1806-E-97th-Ave-33612/home/47306139,Stellar MLS as Distributed by MLS Grid,T3488478,N,Y,28.0374846,-82.4386817
MLS Listing,,Single Family Residential,16416 Burniston Dr,Tampa,FL,33647,1475000,5,5.0,TAMPA PALMS AREA 4 PRCL 16,5141,29204,2006,5,287,284,Active,,,https://www.redfin.com/FL/Tampa/16416-Burniston-Dr-33647/home/47379383,Stellar MLS as Distributed by MLS Grid,T3488564,N,Y,28.1172429,-82.4049693
MLS Listing,,Single Family Residential,907 Ornelda St SW,Ruskin,FL,33570,255000,3,2.0,LILLIE ESTATES UNIT A,1752,6000,2005,5,146,,Active,,,https://www.redfin.com/FL/Ruskin/907-Ornelda-St-SW-33570/home/47141221,Stellar MLS as Distributed by MLS Grid,U8220478,N,Y,27.7112261,-82.4494852
MLS Listing,,Condo/Co-op,15310 E Pond Woods Dr #15310,Tampa,FL,33618,270000,3,2.5,QUAIL RUN PH V A CONDO,1478,2,1983,5,183,450,Active,,,https://www.redfin.com/FL/Tampa/15310-E-Pond-Woods-Dr-33618/unit-15310/home/142813249,Stellar MLS as Distributed by MLS Grid,T3488772,N,Y,28.0900621,-82.5005603
MLS Listing,,Single Family Residential,4710 Travertine Dr,Tampa,FL,33615,600000,4,2.5,BAY CREST PARK UNIT 18,2259,7875,1969,5,266,,Active,,,https://www.redfin.com/FL/Tampa/4710-Travertine-Dr-33615/home/47096493,Stellar MLS as Distributed by MLS Grid,T3488620,N,Y,27.9832991,-82.5781512
MLS Listing,,Single Family Residential,17524 Meadowbridge Dr,Lutz,FL,33549,399900,3,2.0,POND EDDY SUBDIVISION UNIT 2,1300,8250,1978,5,308,,Active,,,https://www.redfin.com/FL/Lutz/17524-Meadowbridge-Dr-33549/home/47144913,Stellar MLS as Distributed by MLS Grid,T3488289,N,Y,28.1260519,-82.440597
MLS Listing,,Single Family Residential,17047 Oval Rum Dr,Wimauma,FL,33598,370000,3,2.0,SOUTHSHORE BAY,1516,4828,2022,5,244,114,Active,,,https://www.redfin.com/FL/Wimauma/17047-Oval-Rum-Dr-33598/home/177788933,Stellar MLS as Distributed by MLS Grid,T3487819,N,Y,27.701605,-82.327808
MLS Listing,,Single Family Residential,9067 Dixiana Villa Cir,Tampa,FL,33635,370000,3,2.0,PEBBLEBROOK,1244,5100,1987,5,297,,Active,,,https://www.redfin.com/FL/Tampa/9067-Dixiana-Villa-Cir-33635/home/47080821,Stellar MLS as Distributed by MLS Grid,T3488767,N,Y,28.0344376,-82.5894291
MLS Listing,,Condo/Co-op,,Tampa,FL,33614,299000,4,2.0,,1437,,1972,6,208,1236,Active,,,https://www.redfin.com/FL/Tampa/Undisclosed-address-33614/home/47132510,Stellar MLS as Distributed by MLS Grid,T3488766,N,Y,28.0341853,-82.5087189
MLS Listing,,Single Family Residential,4207 N 15th St,Tampa,FL,33610,379900,3,2.0,BONITA,1256,7000,2006,6,302,,Active,,,https://www.redfin.com/FL/Tampa/4207-N-15th-St-33610/home/47318537,Stellar MLS as Distributed by MLS Grid,U8222479,N,Y,27.9838736,-82.4425864
MLS Listing,,Single Family Residential,17007 Clear Cork Dr,Wimauma,FL,33598,339900,2,2.5,FOREST BROOKE ACTIVE ADULT PH,1737,3200,2021,6,196,369,Active,,,https://www.redfin.com/FL/Wimauma/17007-Clear-Cork-Dr-33598/home/173885831,Stellar MLS as Distributed by MLS Grid,T3488195,N,Y,27.7001326,-82.3236167
MLS Listing,,Single Family Residential,619 Wabash Breeze Cir,Ruskin,FL,33570,415000,4,3.0,RIVER BEND PH 4B,1985,9120,2014,6,209,32,Active,,,https://www.redfin.com/FL/Ruskin/619-Wabash-Breeze-Cir-33570/home/47029621,Stellar MLS as Distributed by MLS Grid,U8222222,N,Y,27.689609,-82.4248071
MLS Listing,,Single Family Residential,12929 Lincoln Rd,Riverview,FL,33578,300000,4,3.0,S RIVERVIEW SYMMES ROAD & 301 AREA,2060,13068,1978,6,146,,Active,,,https://www.redfin.com/FL/Riverview/12929-Lincoln-Rd-33578/home/47229153,Stellar MLS as Distributed by MLS Grid,T3488641,N,Y,27.8008587,-82.3416585
MLS Listing,,Single Family Residential,,Plant City,FL,33563,309900,3,2.0,,1250,5000,2023,6,248,,Active,,,https://www.redfin.com/FL/Plant-City/Undisclosed-address-33563/home/47358783,Stellar MLS as Distributed by MLS Grid,T3488759,N,Y,28.008948,-82.129807
MLS Listing,,Single Family Residential,17538 Holly Well Ave,Wimauma,FL,33598,347900,2,2.5,SOUTHSHORE BAY - VILLAS,1744,4050,2023,6,199,253,Active,,,https://www.redfin.com/FL/Wimauma/17538-Holly-Well-Ave-33598/home/184735540,Stellar MLS as Distributed by MLS Grid,T3488720,N,Y,27.6908585,-82.3234982
MLS Listing,,Condo/Co-op,1208 E Kennedy Blvd #834,Tampa,FL,33602,620000,2,2.0,GRAND CENTRAL AT KENNEDY RESID,1379,4,2007,6,450,797,Active,,,https://www.redfin.com/FL/Tampa/1208-E-Kennedy-Blvd-33602/unit-834/home/47053985,Stellar MLS as Distributed by MLS Grid,T3488614,N,Y,27.95075,-82.447498
MLS Listing,,Single Family Residential,10913 Observatory Way,Tampa,FL,33647,414900,3,2.5,EASTON PARK PH 1,2053,6501,2007,6,202,65,Active,,,https://www.redfin.com/FL/Tampa/10913-Observatory-Way-33647/home/47038500,Stellar MLS as Distributed by MLS Grid,O6160486,N,Y,28.1582004,-82.2789632
MLS Listing,,Single Family Residential,843 Anchor Bend Dr,Ruskin,FL,33570,369500,4,2.0,SHELL COVE PH 1,1935,6000,2021,6,191,7,Active,,,https://www.redfin.com/FL/Ruskin/843-Anchor-Bend-Dr-33570/home/173874357,Stellar MLS as Distributed by MLS Grid,U8222173,N,Y,27.7276038,-82.4441525
MLS Listing,,Townhouse,4715 Barnstead Dr,Riverview,FL,33578,350000,3,2.5,VALHALLA PH 3-4,1790,2118,2005,6,196,287,Active,,,https://www.redfin.com/FL/Riverview/4715-Barnstead-Dr-33578/home/47007504,Stellar MLS as Distributed by MLS Grid,A4590812,N,Y,27.9052924,-82.3386084
MLS Listing,,Single Family Residential,3119 Washington Rd,Valrico,FL,33594,199000,3,2.0,UNPLATTED,1356,23522,1984,6,147,,Active,,,https://www.redfin.com/FL/Valrico/3119-Washington-Rd-33594/home/47241943,Stellar MLS as Distributed by MLS Grid,T3488497,N,Y,27.944947,-82.2312279
MLS Listing,,Single Family Residential,11222 Spring Point Cir,Riverview,FL,33579,439900,3,2.0,LUCAYA LAKE CLUB PH 1B,2022,6791,2015,6,218,49,Active,,,https://www.redfin.com/FL/Riverview/11222-Spring-Point-Cir-33579/home/96725156,Stellar MLS as Distributed by MLS Grid,U8222416,N,Y,27.8191739,-82.3222759
MLS Listing,,Single Family Residential,8461 Flagstone Dr,Tampa,FL,33615,1250000,4,3.0,BAY CREST PARK UNIT 19,3063,9375,1970,6,408,,Active,,,https://www.redfin.com/FL/Tampa/8461-Flagstone-Dr-33615/home/47096478,Stellar MLS as Distributed by MLS Grid,T3488688,N,Y,27.9856454,-82.5807491
MLS Listing,,Townhouse,2910 Kelly Ridge Ln,Tampa,FL,33604,239000,3,2.5,KELLY RIDGE SUB,1230,1700,1986,6,194,,Active,,,https://www.redfin.com/FL/Tampa/2910-Kelly-Ridge-Ln-33604/home/47309281,Stellar MLS as Distributed by MLS Grid,T3488629,N,Y,28.0301881,-82.4273473
MLS Listing,,Condo/Co-op,9481 Highland Oak Dr #1401,Tampa,FL,33647,239999,3,2.0,THE HIGHLANDS AT HUNTERS GREE,1274,1502,1992,6,188,425,Active,,,https://www.redfin.com/FL/Tampa/9481-Highland-Oak-Dr-33647/unit-1401/home/46989435,Stellar MLS as Distributed by MLS Grid,T3488726,N,Y,28.1297417,-82.3278126
MLS Listing,,Single Family Residential,1227 Dragon Head Dr,Valrico,FL,33594,414900,3,2.0,COPPER RIDGE TR G2,1858,5000,2003,6,223,29,Active,,,https://www.redfin.com/FL/Valrico/1227-Dragon-Head-Dr-33594/home/47385705,Stellar MLS as Distributed by MLS Grid,O6160427,N,Y,27.9202982,-82.2230625
MLS Listing,,Single Family Residential,13216 Wellington Hills Dr,Riverview,FL,33579,554999,6,3.5,SUMMERFIELD CROSSINGS VILLAGE 2 TR,2683,5700,2014,6,207,44,Active,,,https://www.redfin.com/FL/Riverview/13216-Wellington-Hills-Dr-33579/home/108200909,Stellar MLS as Distributed by MLS Grid,T3488707,N,Y,27.7912057,-82.3275931
MLS Listing,,Single Family Residential,2103 E 109th Ave,Tampa,FL,33612,375000,4,3.0,TILSEN MANOR BLKS 2 3 4 5 6 8,1618,13246,1957,6,232,,Active,,,https://www.redfin.com/FL/Tampa/2103-E-109th-Ave-33612/home/47302413,Stellar MLS as Distributed by MLS Grid,T3488196,N,Y,28.0469161,-82.4361709
MLS Listing,,Single Family Residential,6914 N Himes Ave,Tampa,FL,33614,424750,3,2.0,OAKWOOD VILLA,1369,5227,2002,6,310,,Active,,,https://www.redfin.com/FL/Tampa/6914-N-Himes-Ave-33614/home/47377252,Stellar MLS as Distributed by MLS Grid,T3488089,N,Y,28.0116874,-82.5011144
MLS Listing,,Vacant Land,SE Corner OF Holly Lane & S.r. 597 Ln,Lutz,FL,33558,4850000,,,UNPLATTED,,1068091,,6,,,Active,,,https://www.redfin.com/FL/Lutz/Unknown-33558/home/188743493,Stellar MLS as Distributed by MLS Grid,T3488610,N,Y,28.1627471,-82.477553
MLS Listing,,Vacant Land,508 Suwanee Cir,Tampa,FL,33606,1100000,,,DAVIS ISLANDS PB10 PG52 TO 57,,8004,,6,,3,Active,,,https://www.redfin.com/FL/Tampa/508-Suwanee-Cir-33606/home/47343984,Stellar MLS as Distributed by MLS Grid,T3488574,N,Y,27.9193076,-82.4552535
MLS Listing,,Single Family Residential,12903 Brant Tree Dr,Riverview,FL,33579,369900,3,2.5,SUMMERFIELD VILLAGE 1 TR 30,2087,5000,1998,6,177,41,Active,,,https://www.redfin.com/FL/Riverview/12903-Brant-Tree-Dr-33579/home/47230191,Stellar MLS as Distributed by MLS Grid,T3485311,N,Y,27.8058985,-82.3053176
MLS Listing,,Single Family Residential,14125 Walden Sheffield Rd,Dover,FL,33527,600000,3,1.0,UNPLATTED,1589,87120,1964,6,378,,Active,,,https://www.redfin.com/FL/Dover/14125-Walden-Sheffield-Rd-33527/home/47240785,Stellar MLS as Distributed by MLS Grid,T3487975,N,Y,27.9813113,-82.2206135
MLS Listing,,Vacant Land,2210 E 23rd Ave,Tampa,FL,33605,98000,,,AMANS C C,,4250,,6,,,Active,,,https://www.redfin.com/FL/Tampa/2210-E-23rd-Ave-33605/home/47340948,Stellar MLS as Distributed by MLS Grid,U8222432,N,Y,27.9721748,-82.4341208
MLS Listing,,Single Family Residential,467 Serenity Mill Loop,Ruskin,FL,33570,410000,6,3.0,RIVERBEND WEST PH 2,2574,6500,2018,6,159,97,Active,,,https://www.redfin.com/FL/Ruskin/467-Serenity-Mill-Loop-33570/home/144343445,Stellar MLS as Distributed by MLS Grid,T3486426,N,Y,27.6934766,-82.4426499
MLS Listing,,Single Family Residential,914 Windton Oak Dr,Ruskin,FL,33570,305000,3,2.0,COLLEGE CHASE PH 1,1275,5085,2006,6,239,60,Active,,,https://www.redfin.com/FL/Ruskin/914-Windton-Oak-Dr-33570/home/47028991,Stellar MLS as Distributed by MLS Grid,T3482108,N,Y,27.7109993,-82.4221924
MLS Listing,,Single Family Residential,4964 Reflecting Pond Cir,Wimauma,FL,33598,369500,5,3.5,SUNSHINE VILLAGE PH 1A-1/1,2200,4400,2015,6,168,90,Active,,,https://www.redfin.com/FL/Wimauma/4964-Reflecting-Pond-Cir-33598/home/87954936,Stellar MLS as Distributed by MLS Grid,T3488559,N,Y,27.7076179,-82.3349946
MLS Listing,,Single Family Residential,2607 N 21st St,Tampa,FL,33605,449990,3,2.5,PLAN OF AN ADDITION TO YBOR CITY,1620,3570,2024,6,278,,Active,,,https://www.redfin.com/FL/Tampa/2607-E-21st-Ave-33605/home/47341541,Stellar MLS as Distributed by MLS Grid,T3488611,N,Y,27.9702229,-82.4300567
MLS Listing,,Single Family Residential,8112 N Hillsborough Ln,Tampa,FL,33604,225000,3,1.0,KATHRYN PARK,872,9530,1948,6,258,,Active,,,https://www.redfin.com/FL/Tampa/8112-N-Hillsborough-Ln-33604/home/47312115,Stellar MLS as Distributed by MLS Grid,T3488561,N,Y,28.0218517,-82.4386076
MLS Listing,,Single Family Residential,3205 W Rogers Ave,Tampa,FL,33611,485000,4,2.0,MAC DILL PARK,1308,6750,1958,6,371,,Active,,,https://www.redfin.com/FL/Tampa/3205-W-Rogers-Ave-33611/home/47296198,Stellar MLS as Distributed by MLS Grid,U8222382,N,Y,27.8867023,-82.4966159
MLS Listing,,Single Family Residential,1509 Banner Elk St,Valrico,FL,33594,535000,4,2.0,HIGHLANDS RESERVE PH 2,2484,7655,2017,6,215,71,Active,,,https://www.redfin.com/FL/Valrico/1509-Banner-Elk-St-33594/home/110285198,Stellar MLS as Distributed by MLS Grid,T3488609,N,Y,27.915155,-82.2234795
MLS Listing,,Single Family Residential,503 Washita Stone Dr,Ruskin,FL,33570,395000,4,3.0,RIVER BEND PH 4A,2287,9264,2013,6,173,18,Active,,,https://www.redfin.com/FL/Ruskin/503-Washita-Stone-Dr-33570/home/47028811,Stellar MLS as Distributed by MLS Grid,T3488571,N,Y,27.6855289,-82.4272414
MLS Listing,,Single Family Residential,2516 Allwood Ave,Valrico,FL,33596,469900,4,2.0,BLOOMINGDALE SEC DD PH 3 A,2016,7289,2002,6,233,22,Active,,,https://www.redfin.com/FL/Valrico/2516-Allwood-Ave-33596/home/47385805,Stellar MLS as Distributed by MLS Grid,T3488337,N,Y,27.8716868,-82.2427793
MLS Listing,,Single Family Residential,2820 W Shelton Ave,Tampa,FL,33611,996990,4,4.0,ROSLYN HEIGHTS SUBDIVISION,3306,6000,2023,6,302,,Active,,,https://www.redfin.com/FL/Tampa/2820-W-Shelton-Ave-33611/home/47297002,Stellar MLS as Distributed by MLS Grid,T3488594,N,Y,27.8662313,-82.4909061
MLS Listing,,Single Family Residential,1603 Powder Ridge Dr,Valrico,FL,33594,450000,4,2.0,BRENTWOOD HILLS TRCT B UN 1,1886,9960,1991,6,239,55,Active,,,https://www.redfin.com/FL/Valrico/1603-Powder-Ridge-Dr-33594/home/47205354,Stellar MLS as Distributed by MLS Grid,U8222244,N,Y,27.927247,-82.2600923
MLS Listing,,Single Family Residential,2004 E 151st Ave,Lutz,FL,33549,219000,2,1.0,HAMNERS W E WONDERLAND ACRES,800,9583,2011,6,274,,Active,,,https://www.redfin.com/FL/Lutz/2004-E-151st-Ave-33549/home/64129106,Stellar MLS as Distributed by MLS Grid,O6160134,N,Y,28.0889747,-82.4364965
MLS Listing,,Townhouse,14015 Citrus Crest Cir,Tampa,FL,33625,399990,3,2.5,GUNN TWNHMS,1856,1681,2006,6,216,263,Active,,,https://www.redfin.com/FL/Tampa/14015-Citrus-Crest-Cir-33625/home/47018692,Stellar MLS as Distributed by MLS Grid,T3485177,N,Y,28.0744599,-82.5710294
MLS Listing,,Vacant Land,8119 N 37th St,Tampa,FL,33604,295000,,,TEMPLE CREST UNIT 2,,17520,,6,,,Active,,,https://www.redfin.com/FL/Tampa/8119-N-37th-St-33604/home/188726453,Stellar MLS as Distributed by MLS Grid,T3488493,N,Y,28.0230923,-82.4179023
