SALE TYPE,SOLD DATE,PROPERTY TYPE,ADDRESS,CITY,STATE OR PROVINCE,ZIP OR POSTAL CODE,PRICE,BEDS,BATHS,LOCATION,SQUARE FEET,LOT SIZE,YEAR BUILT,DAYS ON MARKET,$/SQUARE FEET,HOA/MONTH,STATUS,NEXT OPEN HOUSE START TIME,NEXT OPEN HOUSE END TIME,URL (SEE https://www.redfin.com/buy-a-home/comparative-market-analysis FOR INFO ON PRICING),SOURCE,MLS#,FAVORITE,INTERESTED,LATITUDE,LONGITUDE
"In accordance with local MLS rules, some MLS listings are not included in the download"
MLS Listing,,Townhouse,4067 Brewster Rd Unit A,Tallahassee,FL,32308,199000,2,1.0,BREWSTER ESTATES UNREC,858,9147,1979,14,232,10,Active,,,https://www.redfin.com/FL/Tallahassee/4067-Brewster-Rd-32308/unit-A/home/139220328,CATRS,365853,N,Y,30.4650134,-84.2205311
MLS Listing,,Single Family Residential,6714 Hill Gail Trl,Tallahassee,FL,32309,184900,3,2.0,,1290,13504,1981,17,143,,Active,,,https://www.redfin.com/FL/Tallahassee/6714-Hill-Gail-Trl-32309/home/139221960,CPARMLS,749409,N,Y,30.5469924,-84.2060786
MLS Listing,,Single Family Residential,715 S Lewis Blvd,Tallahassee,FL,32305,246500,5,3.0,[No Recorded Subdiv],2233,23958,1958,185,110,,Active,,,https://www.redfin.com/FL/Tallahassee/715-Lewis-Blvd-S-32305/home/139233822,CPARMLS,742291,N,Y,30.3821014,-84.2712314
MLS Listing,,Single Family Residential,223 Cactus St,Tallahassee,FL,32304,190000,3,2.0,BLOXHAM TERRACE,1198,20037,1986,2,159,,Active,,,https://www.redfin.com/FL/Tallahassee/223-Cactus-St-32304/home/139485218,CATRS,366193,N,Y,30.4457709,-84.3331488
MLS Listing,,Single Family Residential,3106 Persimmon Dr,Tallahassee,FL,32312,815000,4,2.5,PERSIMMON HILL,2670,23086,2020,2,305,117,Active,,,https://www.redfin.com/FL/Tallahassee/3106-Persimmon-Dr-32312/home/139751314,CATRS,366192,N,Y,30.5537658,-84.2254302
MLS Listing,,Single Family Residential,1517 Pine St,Tallahassee,FL,32303,359900,3,2.0,--,1409,11761,1992,2,255,,Active,,,https://www.redfin.com/FL/Tallahassee/1517-Pine-St-32303/home/139319849,CATRS,366190,N,Y,30.4608421,-84.2714371
MLS Listing,,Single Family Residential,3073 Reed Ln,Tallahassee,FL,32301,264900,3,2.0,Metes & Bounds,1040,,1997,2,255,,Active,,,https://www.redfin.com/FL/Tallahassee/3073-Reed-Ln-32301/home/139443692,NEFLMLS,1259949,N,Y,30.433425,-84.2290836
MLS Listing,,Townhouse,1336 Mosswood Chase,Tallahassee,FL,32312,305000,3,2.0,Villages at Maclay,1600,4791,1998,2,191,12,Active,,,https://www.redfin.com/FL/Tallahassee/1336-Mosswood-Chase-32312/home/139771422,CATRS,366189,N,Y,30.5111153,-84.2544887
MLS Listing,,Townhouse,2441 Talco Hills Dr Unit D,Tallahassee,FL,32303,145000,2,2.0,Talco Hills,896,2613,1983,2,162,,Active,,,https://www.redfin.com/FL/Tallahassee/2441-Talco-Hills-Dr-32303/unit-D/home/139720890,CATRS,366182,N,Y,30.4755307,-84.3249093
MLS Listing,,Single Family Residential,1955 Page Rd,Woodville,FL,32362,229900,3,1.5,,1232,51836,1967,2,187,,Active,,,https://www.redfin.com/FL/WOODVILLE/1955-Page-RD-32362/home/188809149,CATRS,366181,N,Y,30.31737218,-84.24494876
MLS Listing,,Single Family Residential,2620 Shiloh Way,Tallahassee,FL,32308,549000,4,2.5,Shiloh Unrecorded,2461,64904,1989,2,223,,Active,,,https://www.redfin.com/FL/Tallahassee/2620-Shiloh-Way-32308/home/140033704,CATRS,366180,N,Y,30.4934121,-84.2127906
MLS Listing,,Mobile/Manufactured Home,3100 Adkins Forest Ln,Tallahassee,FL,32311,75000,2,2.0,Briarwood East,846,9583,1985,3,89,,Active,,,https://www.redfin.com/FL/Tallahassee/3100-Adkins-Forest-Ln-32311/home/139435907,CATRS,366176,N,Y,30.423406,-84.224362
MLS Listing,,Townhouse,2322 Hartsfield Way,Tallahassee,FL,32303,120000,1,1.0,SHADOWLAWN CLUSTER HOMES,640,1742,1983,3,188,21,Active,,,https://www.redfin.com/FL/Tallahassee/2322-Hartsfield-Way-32303/home/139212336,CATRS,366174,N,Y,30.4720705,-84.325885
MLS Listing,,Mobile/Manufactured Home,9046 Hardwood Ln,Tallahassee,FL,32311,125000,3,2.0,Kelly Court,1064,20037,1989,3,117,,Active,,,https://www.redfin.com/FL/Tallahassee/9046-Hardwood-Ln-32311/home/139910224,CATRS,366173,N,Y,30.3812834,-84.1232489
MLS Listing,,Single Family Residential,7239 Old Bainbridge Rd,Tallahassee,FL,32303,235000,3,2.0,North Lake Meadows,1098,21780,1988,3,214,6,Active,,,https://www.redfin.com/FL/Tallahassee/7239-Old-Bainbridge-Rd-32303/home/139936379,CATRS,366168,N,Y,30.5528227,-84.3599438
MLS Listing,,Single Family Residential,4129 Faulkner Ln,Tallahassee,FL,32311,829900,4,3.5,SOUTHWOOD,2795,16117,2005,3,297,50,Active,,,https://www.redfin.com/FL/Tallahassee/4129-Faulkner-Ln-32311/home/139976817,CATRS,366167,N,Y,30.3879817,-84.2146641
MLS Listing,,Condo/Co-op,216 Dixie Dr Unit B8,Tallahassee,FL,32304,74900,1,1.0,Evergreen,744,435,1981,3,101,275,Active,,,https://www.redfin.com/FL/Tallahassee/216-Dixie-Dr-32304/unit-B8/home/174827561,CATRS,366166,N,Y,30.4438862,-84.3295121
MLS Listing,,Single Family Residential,3474 Paces Ferry Rd,Tallahassee,FL,32309,425000,4,2.0,LENOX MILL,1824,13068,1993,3,233,11,Active,,,https://www.redfin.com/FL/Tallahassee/3474-Paces-Ferry-Rd-32309/home/140087849,CATRS,365782,N,Y,30.5460807,-84.2224043
MLS Listing,,Single Family Residential,3251 Black Gold Trl,Tallahassee,FL,32309,300000,3,2.0,KILLEARN ACRES,1530,14810,1984,3,196,,Active,,,https://www.redfin.com/FL/Tallahassee/3251-Black-Gold-Trl-32309/home/139774068,CATRS,366164,N,Y,30.541885,-84.1960298
MLS Listing,,Mobile/Manufactured Home,4332 Slash Pine Ln,Tallahassee,FL,32305,125000,4,2.0,Pine lakes,1650,29620,1989,3,76,,Active,,,https://www.redfin.com/FL/Tallahassee/4332-Slash-Pine-Ln-32305/home/139503674,CATRS,366163,N,Y,30.3882973,-84.2919008
MLS Listing,,Single Family Residential,4389 Cool Emerald,Tallahassee,FL,32303,299900,3,2.0,Lakeside,1540,10018,1995,3,195,7,Active,,,https://www.redfin.com/FL/Tallahassee/4389-Cool-Emerald-Dr-32303/home/139497400,CATRS,366162,N,Y,30.5209291,-84.3569776
MLS Listing,,Single Family Residential,3236 Cranleigh Dr,Tallahassee,FL,32309,449000,3,2.5,Killearn Estates,2110,19602,1979,3,213,13,Active,,,https://www.redfin.com/FL/Tallahassee/3236-Cranleigh-Dr-32309/home/139136141,CATRS,366155,N,Y,30.5275075,-84.1949498
MLS Listing,,Condo/Co-op,710 N Gadsden St,Tallahassee,FL,32303,215000,2,1.5,Lions Condominium,1024,,1967,3,210,125,Active,,,https://www.redfin.com/FL/Tallahassee/710-N-Gadsden-St-32303/home/187739249,CATRS,366154,N,Y,30.4493281,-84.2785899
MLS Listing,,Vacant Land,0 Rhoden Hill Way,Tallahassee,FL,32312,169900,,,Rhoden Hill,,23958,,3,,,Active,,,https://www.redfin.com/FL/Tallahassee/Rhoden-Hill-Way-32312/home/140619916,CATRS,366153,N,Y,30.51484,-84.287109
MLS Listing,,Mobile/Manufactured Home,5851 Kangaroo Ct,Tallahassee,FL,32311,129000,3,2.0,Williams Woods,1064,163785,1995,3,121,,Active,,,https://www.redfin.com/FL/Tallahassee/5851-Kangaroo-Ct-32311/home/140047437,CATRS,366152,N,Y,30.3768713,-84.1266612
MLS Listing,,Condo/Co-op,2738 W Tharpe Sts #2305,Tallahassee,FL,32303,145000,3,3.0,Savannah Crossing,1209,871,2004,3,120,190,Active,,,https://www.redfin.com/FL/Tallahassee/2738-W-Tharpe-St-32303/unit-2305/home/139603831,CATRS,366148,N,Y,30.4682454,-84.3414035
MLS Listing,,Vacant Land,2226 Filmore Rd,Tallahassee,FL,32305,25000,,,N/A,,36590,,3,,,Active,,,https://www.redfin.com/FL/Tallahassee/2226-Filmore-Rd-32305/home/139797753,CATRS,366134,N,Y,30.3041412,-84.2407423
MLS Listing,,Condo/Co-op,2738 W Tharpe St #2402,Tallahassee,FL,32303,145000,3,3.0,Savannah Crossing,1209,871,2004,3,120,190,Active,,,https://www.redfin.com/FL/Tallahassee/2738-W-Tharpe-St-32303/unit-2402/home/139981027,CATRS,366147,N,Y,30.4682454,-84.3414035
MLS Listing,,Single Family Residential,2631 Mission Rd,Tallahassee,FL,,275000,4,4.0,Gandy,1980,10454,2005,4,139,,Active,,,https://www.redfin.com/FL/Tallahassee/2631-Mission-Rd-32304/home/139376823,CATRS,366145,N,Y,30.4555428,-84.3361074
MLS Listing,,Townhouse,2449 Emerald Ridge Loop,Tallahassee,FL,32303,175000,3,2.0,Hartsfield Road Townhome,1224,2178,2000,4,143,,Active,,,https://www.redfin.com/FL/Tallahassee/2449-Emerald-Ridge-Loop-32303/home/139496144,CATRS,365744,N,Y,30.4752172,-84.3413063
MLS Listing,,Single Family Residential,340 Remington Run Loop,Tallahassee,FL,32312,390000,3,2.0,Hunters Crossing,1732,14810,1993,4,225,46,Active,,,https://www.redfin.com/FL/Tallahassee/340-Remington-Run-Loop-32312/home/140084926,CATRS,365981,N,Y,30.5013833,-84.2867745
MLS Listing,,Single Family Residential,1229 Ridge Rd,Tallahassee,FL,32305,210000,3,2.0,Fairfax Estates,1604,18295,1965,4,131,,Active,,,https://www.redfin.com/FL/Tallahassee/1229-Ridge-Rd-32305/home/139512119,CATRS,366142,N,Y,30.3975883,-84.303226
MLS Listing,,Single Family Residential,3900 Mayflower Ct,Tallahassee,FL,32303,289900,3,2.0,SETTLERS CREEK ADDITION,1655,10018,1989,4,175,,Active,,,https://www.redfin.com/FL/Tallahassee/3900-Mayflower-Ct-32303/home/187742450,CATRS,366140,N,Y,30.4878584,-84.3408326
MLS Listing,,Vacant Land,604 South Ride,Tallahassee,FL,32303,490000,,,Durward,,49222,,4,,,Active,,,https://www.redfin.com/FL/Tallahassee/604-S-Ride-32303/home/139297967,CATRS,366136,N,Y,30.47301,-84.270249
MLS Listing,,Single Family Residential,1306 Covington Dr,Tallahassee,FL,32312,499900,4,2.5,Lisa Park,2713,33541,1970,4,184,,Active,,,https://www.redfin.com/FL/Tallahassee/1306-Covington-Dr-32312/home/139962981,CATRS,366135,N,Y,30.4912537,-84.2583547
MLS Listing,,Single Family Residential,4417 Grace Park Trl,Tallahassee,FL,32317,619900,3,2.5,Camellia Oaks Condominium,2180,3049,2022,4,284,239,Active,,,https://www.redfin.com/FL/Tallahassee/4417-Grace-Park-Trl-32317/home/177385702,CATRS,366132,N,Y,30.466957,-84.198375
MLS Listing,,Vacant Land,2840 Asbury Hill Dr,Tallahassee,FL,32312,259000,,,ROSEMONT,,21344,,4,,,Active,,,https://www.redfin.com/FL/Tallahassee/2840-Asbury-Hill-Dr-32312/home/140033959,CATRS,366129,N,Y,30.4815603,-84.2602061
MLS Listing,,Single Family Residential,10590 Valentine Rd,Tallahassee,FL,32317,565000,4,3.0,HEARTWOOD HILLS,2355,82764,1991,4,240,3,Active,,,https://www.redfin.com/FL/Tallahassee/10590-Valentine-Rd-N-32317/home/139451731,CATRS,366128,N,Y,30.4755654,-84.0955312
MLS Listing,,Single Family Residential,4886 Pimlico Dr,Tallahassee,FL,32309,331900,3,2.0,KILLEARN ACRES,1529,12632,1987,4,217,,Active,,,https://www.redfin.com/FL/Tallahassee/4886-Pimlico-Dr-32309/home/139833468,CATRS,366118,N,Y,30.5362382,-84.2028356
MLS Listing,,Single Family Residential,3213 Storrington Dr,Tallahassee,FL,32309,200000,3,2.0,KILLEARN ESTATES,1512,19166,1977,4,132,13,Active,,,https://www.redfin.com/FL/Tallahassee/3213-Storrington-Dr-32309/home/139333940,CATRS,366112,N,Y,30.5255346,-84.1972242
MLS Listing,,Single Family Residential,3236 Shamrock St E,Tallahassee,FL,32309,520000,4,2.0,KILLEARN ESTATES,2584,23958,1988,4,201,13,Active,,,https://www.redfin.com/FL/Tallahassee/3236-Shamrock-E-32309/home/139283907,CATRS,366111,N,Y,30.5202846,-84.2026399
MLS Listing,,Single Family Residential,3400 Gallant Fox Trl,Tallahassee,FL,32309,390000,5,3.5,KILLEARN ACRES,2298,19602,1980,4,170,,Active,,,https://www.redfin.com/FL/Tallahassee/3400-Gallant-Fox-Trl-32309/home/139349753,CATRS,366078,N,Y,30.5462075,-84.1894394
MLS Listing,,Single Family Residential,516 Middlebrooks Cir,Tallahassee,FL,32312,525000,3,2.5,-,2106,45738,1959,4,249,,Active,,,https://www.redfin.com/FL/Tallahassee/516-Middlebrooks-Cir-32312/home/139860619,CATRS,366108,N,Y,30.4870835,-84.275715
MLS Listing,,Single Family Residential,8500 Castle Pine Dr,Tallahassee,FL,32312,855685,4,3.5,The Hammock at Oak Grove,3229,10890,2024,4,265,81,Active,,,https://www.redfin.com/FL/Tallahassee/8500-Castle-Pine-Dr-32312/home/183178445,CATRS,366103,N,Y,30.583961,-84.270516
MLS Listing,,Single Family Residential,xxx Knotted Pine Dr,Tallahassee,FL,32312,583500,4,3.5,Hammock at Oak Grove,2068,8712,2024,4,282,90,Active,,,https://www.redfin.com/FL/Tallahassee/Knotted-Pine-Dr-32312/home/185276845,CATRS,366102,N,Y,30.58131703,-84.26780136
MLS Listing,,Single Family Residential,3101 Hawks Landing Dr,Tallahassee,FL,32309,529000,4,3.0,Hawks Landing,2492,122403,1997,4,212,4,Active,,,https://www.redfin.com/FL/Tallahassee/3101-Hawks-Landing-Dr-32309/home/139754122,CATRS,366099,N,Y,30.5059438,-84.1120726
MLS Listing,,Condo/Co-op,317 Mabry St #322,Tallahassee,FL,32304,82900,2,1.0,Mystic Woods Condominiums,808,871,1984,5,103,170,Active,,,https://www.redfin.com/FL/Tallahassee/317-Mabry-St-32304/unit-322/home/139981987,CATRS,366015,N,Y,30.4390836,-84.3264816
MLS Listing,,Single Family Residential,440 Audubon Dr,Tallahassee,FL,32312,695000,4,3.0,Timberlane Woods,3327,27007,2001,5,209,33,Active,,,https://www.redfin.com/FL/Tallahassee/440-Audubon-Dr-32312/home/139687400,CATRS,366077,N,Y,30.5046489,-84.2708817
MLS Listing,,Vacant Land,9013 Kipper Ln,Tallahassee,FL,32309,115000,,,,,273992,,5,,,Active,,,https://www.redfin.com/FL/Tallahassee/9013-Kipper-Ln-32309/home/139711925,CATRS,366076,N,Y,30.5969586,-84.0552647
MLS Listing,,Single Family Residential,8276 Colters Xing,Tallahassee,FL,32309,700000,4,3.0,N/A,2627,131551,2004,5,266,,Active,,,https://www.redfin.com/FL/Tallahassee/8276-Colters-Xing-32309/home/139631762,CATRS,366067,N,Y,30.5448336,-84.1381956
MLS Listing,,Single Family Residential,4126 Chelmsford Rd,Tallahassee,FL,32309,374900,4,3.0,Killearn Estates,2340,19166,1979,5,160,13,Active,,,https://www.redfin.com/FL/Tallahassee/4126-Chelmsford-Rd-32309/home/140197264,CATRS,366066,N,Y,30.5261151,-84.1986863
MLS Listing,,Single Family Residential,2840 Blue Blossom Trl,Tallahassee,FL,32308,277900,3,2.5,Canopy,1236,2178,2021,5,225,6,Active,,,https://www.redfin.com/FL/Tallahassee/2840-Blue-Blossom-Trl-32308/home/174845970,CATRS,366063,N,Y,30.4880657,-84.2208914
MLS Listing,,Single Family Residential,4102 Tralee Rd,Tallahassee,FL,32309,400000,4,2.0,KILLEARN ESTATES,1830,20908,1972,5,219,13,Active,,,https://www.redfin.com/FL/Tallahassee/4102-Tralee-Rd-32309/home/139995190,CATRS,366062,N,Y,30.5221876,-84.1975537
MLS Listing,,Single Family Residential,6717 Tim Tam Trl,Tallahassee,FL,32309,319900,3,2.0,Killearn Acres,1602,14810,1983,5,200,,Active,,,https://www.redfin.com/FL/Tallahassee/6717-Tim-Tam-Trl-32309/home/139651292,CATRS,366044,N,Y,30.5408357,-84.2011573
MLS Listing,,Single Family Residential,5041 Valley Farm Rd,Tallahassee,FL,32303,339000,4,3.0,Farmview Estates Unrec,1908,92347,1979,5,178,33,Active,,,https://www.redfin.com/FL/Tallahassee/5041-Valley-Farm-Rd-32303/home/139661699,CATRS,366043,N,Y,30.5560037,-84.3657672
MLS Listing,,Condo/Co-op,2014 Midyette Rd #302,Tallahassee,FL,32301,180000,3,2.0,BROOKWOOD TRACE CONDOMINIUMS,1368,871,2005,5,132,215,Active,,,https://www.redfin.com/FL/Tallahassee/2014-Midyette-Rd-32301/unit-302/home/140011110,CATRS,366041,N,Y,30.4197161,-84.2354041
MLS Listing,,Mobile/Manufactured Home,18078 Landes Ct,Tallahassee,FL,32310,128900,2,1.5,Talquin Heights Unrec.,728,27442,1992,5,177,,Active,,,https://www.redfin.com/FL/Tallahassee/18078-Landes-Ct-32310/home/139738959,CATRS,366039,N,Y,30.4315253,-84.5489393
MLS Listing,,Single Family Residential,2309 Foxboro Way,Tallahassee,FL,32309,350000,3,2.0,Shannon Forest,1788,13939,1974,6,196,,Active,,,https://www.redfin.com/FL/Tallahassee/2309-Foxboro-Way-32309/home/139197035,CATRS,366035,N,Y,30.5211396,-84.2305347
MLS Listing,,Condo/Co-op,2801 Chancellorsville Dr #137,Tallahassee,FL,32312,220000,2,2.0,Barrington Park Condominiums,1525,10890,2004,6,144,495,Active,,,https://www.redfin.com/FL/Tallahassee/2801-Chancellorsville-Dr-32312/unit-137/home/139601936,CATRS,366027,N,Y,30.5486408,-84.2273074
MLS Listing,,Single Family Residential,2037 Harriet Dr,Tallahassee,FL,32303,249900,3,2.0,Lake Jackson Heights,1458,11325,1976,6,171,,Active,,,https://www.redfin.com/FL/Tallahassee/2037-Harriet-Dr-32303/home/139231463,CATRS,366025,N,Y,30.5138518,-84.3333132
MLS Listing,,Single Family Residential,2001 Scenic Rd,Tallahassee,FL,32303,225000,3,2.0,Scenic Heights,1416,13503,1963,6,159,,Active,,,https://www.redfin.com/FL/Tallahassee/2001-Scenic-Rd-32303/home/139702840,CATRS,366019,N,Y,30.46431,-84.32419
MLS Listing,,Single Family Residential,7273 White Clover Ct,Tallahassee,FL,32311,559900,4,3.0,Mariana Oaks,2142,28749,2016,6,261,46,Active,,,https://www.redfin.com/FL/Tallahassee/7273-White-Clover-Ct-32311/home/139980379,CATRS,366018,N,Y,30.408676,-84.15298
MLS Listing,,Vacant Land,3344 Charleston Rd,Tallahassee,FL,32309,274900,,,Whitfield Plantation,,53143,,6,,,Active,,,https://www.redfin.com/FL/Tallahassee/3344-Charleston-Rd-32309/home/139290270,CATRS,366017,N,Y,30.506322,-84.2132641
MLS Listing,,Vacant Land,314 Great Lakes St,Tallahassee,FL,32305,18000,,,PINE RIDGE MOBILE HM EST,,4791,,6,,,Active,,,https://www.redfin.com/FL/Tallahassee/314-Great-Lakes-St-32305/home/139490780,CATRS,366012,N,Y,30.3985052,-84.287097
MLS Listing,,Townhouse,252 E Whetherbine Way,Tallahassee,FL,32301,194900,2,2.0,Breckenridge on Park,960,7840,1988,6,203,8,Active,,,https://www.redfin.com/FL/Tallahassee/252-Whetherbine-Way-E-32301/home/139139372,CATRS,365802,N,Y,30.448639,-84.230465
MLS Listing,,Condo/Co-op,2403 Hartsfield Rd #505,Tallahassee,FL,32303,155000,3,3.0,HARTSFIELD GREEN CONDOMINIUM,1216,435,2004,6,127,195,Active,,,https://www.redfin.com/FL/Tallahassee/2403-Hartsfield-Rd-32303/unit-505/home/139599968,CATRS,366004,N,Y,30.4726321,-84.3276591
MLS Listing,,Vacant Land,0 Apalachee Pkwy,Tallahassee,FL,32311,225000,,,-,,141570,,6,,,Active,,,https://www.redfin.com/FL/Tallahassee/Apalachee-Pkwy-32311/home/140129773,CATRS,365995,N,Y,30.420219,-84.129762
MLS Listing,,Condo/Co-op,300 S Duval St #2209,Tallahassee,FL,32301,599000,2,2.0,Plaza Tower Condominiums,1360,,2009,6,440,935,Active,,,https://www.redfin.com/FL/Tallahassee/300-S-Duval-St-32301/unit-2209/home/139596308,CATRS,365994,N,Y,30.43911,-84.284105
MLS Listing,,Vacant Land,0 Crump Rd,Tallahassee,FL,32310,211000,,,-,,470448,,6,,,Active,,,https://www.redfin.com/FL/Tallahassee/Crump-Rd-32309/home/139231233,CATRS,365993,N,Y,30.528813,-84.132095
MLS Listing,,Single Family Residential,6274 Pine Fair Way,Tallahassee,FL,32309,974800,3,2.5,Centerville Conservation,2991,92782,2016,6,326,150,Active,,,https://www.redfin.com/FL/Tallahassee/6274-Pine-Fair-Way-32309/home/139993330,CATRS,365992,N,Y,30.5656599,-84.1684692
MLS Listing,,Townhouse,2778 Summer Meadow Ln,Tallahassee,FL,32303,270000,3,2.5,Hartsfiled Place,1991,2613,2007,6,136,83,Active,,,https://www.redfin.com/FL/Tallahassee/2778-Summer-Meadow-Ln-32303/home/139632573,CATRS,365990,N,Y,30.4807359,-84.3249361
MLS Listing,,Single Family Residential,6715 Landover Cir,Tallahassee,FL,32317,494800,3,2.0,Landover Hills,2213,20037,1996,6,224,12,Active,,,https://www.redfin.com/FL/Tallahassee/6715-Landover-Cir-32317/home/139787660,CATRS,365989,N,Y,30.4740622,-84.1573219
MLS Listing,,Single Family Residential,1831 Homewood Rd,Tallahassee,FL,32303,272000,3,1.5,-,1344,21780,1951,6,202,,Active,,,https://www.redfin.com/FL/Tallahassee/1831-Homewood-Rd-32303/home/139714651,CATRS,365986,N,Y,30.4878448,-84.3239845
MLS Listing,,Multi-Family (2-4 Unit),1536 & 1538 Patrick Ave Unit -,Tallahassee,FL,32310,225000,4,2.0,SEMINOLE MANOR UNREC,1552,,1981,7,145,,Active,,,https://www.redfin.com/FL/Tallahassee/1536-Patrick-Ave-32310/home/140106180,CATRS,365980,N,Y,30.431897,-84.345806
MLS Listing,,Single Family Residential,305 Piney Rd,Tallahassee,FL,32305,135000,3,1.0,LAKEWOOD,864,10018,1958,7,156,,Active,,,https://www.redfin.com/FL/Tallahassee/305-Piney-Rd-32305/home/139489951,CATRS,365979,N,Y,30.3935285,-84.2760029
MLS Listing,,Multi-Family (2-4 Unit),910-912 Wadsworth St Unit -,Tallahassee,FL,32304,595000,4,2.0,WESTVIEW,1620,,1951,7,367,,Active,,,https://www.redfin.com/FL/Tallahassee/910-Wadsworth-St-32304/home/139411194,CATRS,365976,N,Y,30.4518657,-84.3051583
MLS Listing,,Multi-Family (2-4 Unit),1402 Nylic St Unit -,Tallahassee,FL,32304,595000,4,2.0,WESTVIEW,1786,,1956,7,333,,Active,,,https://www.redfin.com/FL/Tallahassee/1402-Nylic-St-32304/home/139410003,CATRS,365975,N,Y,30.4515298,-84.3050997
MLS Listing,,Single Family Residential,4081 Mclaughlin Dr,Tallahassee,FL,32309,519000,4,3.0,Killearn Estates,2109,22215,1998,7,246,13,Active,,,https://www.redfin.com/FL/Tallahassee/4081-McLaughlin-Dr-32309/home/140013219,CATRS,365972,N,Y,30.5279987,-84.1941763
MLS Listing,,Multi-Family (2-4 Unit),266 N Villas Ct Unit A & B,Tallahassee,FL,32312,429900,5,3.0,VILLAS THE UNIT 1,2352,,1978,7,183,,Active,,,https://www.redfin.com/FL/Tallahassee/266-N-Villas-Ct-32303/unit-A-B/home/188706173,CATRS,365966,N,Y,30.472183,-84.2825837
MLS Listing,,Single Family Residential,2310 Tallahassee Dr,Tallahassee,FL,32309,230000,4,1.5,Lake Hall Heights,1560,18295,1967,7,147,,Active,,,https://www.redfin.com/FL/Tallahassee/2310-Tallahassee-Dr-32309/home/139207092,CATRS,365963,N,Y,30.5137453,-84.2366677
MLS Listing,,Single Family Residential,3754 Bobbin Brook Cir,Tallahassee,FL,32312,1549000,5,5.0,Bobbin Brook,6557,89733,1988,7,236,86,Active,,,https://www.redfin.com/FL/Tallahassee/3754-Bobbin-Brook-Cir-32312/home/139883783,CATRS,365307,N,Y,30.5178116,-84.266912
MLS Listing,,Single Family Residential,3166 Coneflower Dr,Tallahassee,FL,32311,599900,5,3.5,Southwood,2966,9147,2007,7,202,50,Active,,,https://www.redfin.com/FL/Tallahassee/3166-Coneflower-Dr-32311/home/139770880,CATRS,365945,N,Y,30.4111445,-84.2195019
MLS Listing,,Single Family Residential,9120 S Foxwood Dr,Tallahassee,FL,32309,495000,4,3.0,Foxwood Glen,2310,42253,1995,7,214,23,Active,,,https://www.redfin.com/FL/Tallahassee/9120-Foxwood-Dr-S-32309/home/139159705,CATRS,365943,N,Y,30.5075425,-84.1206922
MLS Listing,,Single Family Residential,8905 Winged Foot Dr,Tallahassee,FL,32312,599900,4,3.0,GOLDEN EAGLE,2733,26136,1995,7,220,66,Active,,,https://www.redfin.com/FL/Tallahassee/8905-Winged-Foot-Dr-32312/home/139360359,CATRS,365942,N,Y,30.5922337,-84.2244628
MLS Listing,,Townhouse,295 Carterwood Dr,Tallahassee,FL,32305,165000,3,2.0,WILSON GREEN PHASE I,1105,3049,2006,9,149,16,Active,,,https://www.redfin.com/FL/Tallahassee/295-Carterwood-Dr-32305/home/139477167,CATRS,365935,N,Y,30.3954474,-84.2862097
MLS Listing,,Single Family Residential,4445 Westover Dr,Tallahassee,FL,32303,239900,3,2.0,Westover,1410,5227,1996,9,170,10,Active,,,https://www.redfin.com/FL/Tallahassee/4445-Westover-Dr-32303/home/140090111,CATRS,365934,N,Y,30.4789318,-84.3507653
MLS Listing,,Single Family Residential,1916 Longview Dr,Tallahassee,FL,32303,244900,3,2.0,Lake Jackson Heights,1400,11761,1983,9,175,,Active,,,https://www.redfin.com/FL/Tallahassee/1916-Longview-Dr-32303/home/139949102,CATRS,365932,N,Y,30.5190822,-84.3267792
MLS Listing,,Single Family Residential,3077 Reed Ln,Tallahassee,FL,32301,229000,2,2.0,GOVERNORS COURT,973,5662,1987,9,235,,Active,,,https://www.redfin.com/FL/Tallahassee/3077-Reed-Ln-32301/home/139444374,CATRS,365929,N,Y,30.4334446,-84.2287646
MLS Listing,,Single Family Residential,1611 Daniels St,Tallahassee,FL,32310,199000,3,1.5,Callen,1341,10454,1948,9,148,,Active,,,https://www.redfin.com/FL/Tallahassee/1611-Daniels-St-32310/home/140048003,CATRS,365928,N,Y,30.4165217,-84.3104204
MLS Listing,,Single Family Residential,1602 Wekewa Nene,Tallahassee,FL,32301,305000,3,2.0,INDIAN HEAD ACRES,1345,17424,1966,10,227,,Active,,,https://www.redfin.com/FL/Tallahassee/1602-Wekewa-Nene-32301/home/139826553,CATRS,365923,N,Y,30.4171311,-84.2550836
MLS Listing,,Single Family Residential,744 Litchfield Rd,Tallahassee,FL,32312,440000,4,3.0,BRANDON WOODS AT LAKESHORE UNR,2440,35283,1981,10,180,4,Active,,,https://www.redfin.com/FL/Tallahassee/744-Litchfield-Rd-32312/home/139263381,CATRS,365920,N,Y,30.4934015,-84.3002247
MLS Listing,,Single Family Residential,2401 Tree Top Ct,Tallahassee,FL,32303,279000,3,2.0,Portland Townhomes,1279,11325,1976,10,218,,Active,,,https://www.redfin.com/FL/Tallahassee/2401-Tree-Top-Ct-32303/home/139373780,CATRS,365919,N,Y,30.4759932,-84.316463
MLS Listing,,Multi-Family (2-4 Unit),1844 Larette Dr Unit A-D,Tallahassee,FL,32301,619000,8,4.5,LIVE OAK HILL,3422,,1979,10,181,,Active,,,https://www.redfin.com/FL/Tallahassee/1844-Larette-Dr-32301/unit-A-D/home/188696457,CATRS,365917,N,Y,30.4197191,-84.2460924
MLS Listing,,Single Family Residential,4320 Preserve Ln,Tallahassee,FL,32317,450000,3,2.0,The Preserve at Bucklake,1766,6098,2015,10,255,31,Active,,,https://www.redfin.com/FL/Tallahassee/4320-Preserve-Ln-32317/home/139676066,CATRS,365915,N,Y,30.4654175,-84.2041304
MLS Listing,,Single Family Residential,2636 Fenwood Ct,Tallahassee,FL,32303,319900,3,2.5,LAUREL TRACE,1687,4356,2006,10,190,35,Active,,,https://www.redfin.com/FL/Tallahassee/2636-Fenwood-Ct-32303/home/139847308,CATRS,365914,N,Y,30.502148,-84.3355374
MLS Listing,,Single Family Residential,2804 Starmount Ln,Tallahassee,FL,32303,315000,3,2.0,HERITAGE VILLAGE UNREC,1335,23086,1994,10,236,,Active,,,https://www.redfin.com/FL/Tallahassee/2804-Starmount-Ln-32303/home/139869281,CATRS,365913,N,Y,30.4796839,-84.2797869
MLS Listing,,Single Family Residential,867 Violet St,Tallahassee,FL,32308,295000,3,2.0,MEADOWBROOK,1553,11325,1994,10,190,,Active,,,https://www.redfin.com/FL/Tallahassee/867-Violet-St-32308/home/139199358,CATRS,365895,N,Y,30.4559912,-84.2335395
MLS Listing,,Single Family Residential,2401 Mexia Ave,Tallahassee,FL,,325000,3,2.0,San Luis Ridge,1795,14810,1971,11,181,,Active,,,https://www.redfin.com/FL/Tallahassee/2401-Mexia-Ave-32304/home/139935074,CATRS,365912,N,Y,30.4597545,-84.326697
MLS Listing,,Single Family Residential,3341 Sagee Pl,Tallahassee,FL,32309,424900,3,2.0,Kingsmill,1644,4791,2014,11,258,92,Active,,,https://www.redfin.com/FL/Tallahassee/3341-Sagee-Pl-32309/home/139815859,CATRS,365910,N,Y,30.5498309,-84.2225896
MLS Listing,,Single Family Residential,1775 Newman Ln,Tallahassee,FL,32312,325000,3,2.0,The Glen at Golden Eagle,1624,6098,1998,12,200,10,Active,,,https://www.redfin.com/FL/Tallahassee/1775-Newman-Ln-32312/home/140086804,CATRS,365864,N,Y,30.5977823,-84.2469067
MLS Listing,,Single Family Residential,8175 Charrington Forest Blvd,Tallahassee,FL,32312,334500,3,2.0,KILLEARN COMMONS II,1527,4791,1999,12,219,22,Active,,,https://www.redfin.com/FL/Tallahassee/8175-Charrington-Forest-Blvd-32312/home/139706033,CATRS,365909,N,Y,30.5836923,-84.228353
MLS Listing,,Mobile/Manufactured Home,3704 Matt Wing Rd,Tallahassee,FL,32311,165000,3,2.0,Eastwood,1800,21344,1995,12,92,,Active,,,https://www.redfin.com/FL/Tallahassee/3704-Matt-Wing-Rd-32311/home/139721920,CATRS,365906,N,Y,30.4016237,-84.1056793
MLS Listing,,Multi-Family (2-4 Unit),833 Floral St Unit -,Tallahassee,FL,32310,180000,4,4.5,Bonds,1910,,1958,12,94,,Active,,,https://www.redfin.com/FL/Tallahassee/833-Floral-St-32310/Unit/home/185816527,CATRS,365901,N,Y,30.4274568,-84.2967696
MLS Listing,,Single Family Residential,8375 Glendalin Rd,Tallahassee,FL,32311,250000,3,2.0,THE MEADOWS,1112,10018,1992,12,225,,Active,,,https://www.redfin.com/FL/Tallahassee/8375-Glendalin-Rd-32311/home/139839208,CATRS,365892,N,Y,30.4116155,-84.136361
MLS Listing,,Vacant Land,1762 Lafayette Cove Rd,Tallahassee,FL,32317,70000,,,-,,137214,,12,,,Active,,,https://www.redfin.com/FL/Tallahassee/1762-Lafayette-Cove-Rd-32317/home/139423984,CATRS,365897,N,Y,30.437187,-84.140878
MLS Listing,,Single Family Residential,4012 Mclaughlin Dr,Tallahassee,FL,32309,750000,4,3.0,Killearn,3082,37461,1982,13,243,19,Active,,,https://www.redfin.com/FL/Tallahassee/4012-McLaughlin-Dr-32309/home/139708131,CATRS,365787,N,Y,30.5306698,-84.1998189
MLS Listing,,Single Family Residential,3021 Fermanagh Dr,Tallahassee,FL,32309,489000,3,2.5,Killearn Estates,3321,35719,1974,13,147,13,Active,,,https://www.redfin.com/FL/Tallahassee/3021-Fermanagh-Dr-32309/home/139155856,CATRS,365798,N,Y,30.5171591,-84.2130171
MLS Listing,,Single Family Residential,1006 Brookwood Dr,Tallahassee,FL,32308,529000,4,4.0,BROOKWOOD,3908,31363,1950,13,135,,Active,,,https://www.redfin.com/FL/Tallahassee/1006-Brookwood-Dr-32308/home/139299777,CATRS,365889,N,Y,30.4532242,-84.2599313
MLS Listing,,Single Family Residential,1248 Penny Ln,Tallahassee,FL,32312,1099000,4,4.0,Penny Lane,3741,49222,1988,13,294,83,Active,,,https://www.redfin.com/FL/Tallahassee/1248-Penny-Ln-32312/home/139377683,CATRS,365734,N,Y,30.4854915,-84.2593627
MLS Listing,,Single Family Residential,1128 Winter Ln,Tallahassee,FL,32311,375000,3,2.5,Piney Z,1951,10890,2005,13,192,6,Active,,,https://www.redfin.com/FL/Tallahassee/1128-Winter-Ln-32311/home/140120953,CATRS,365882,N,Y,30.4357775,-84.195407
MLS Listing,,Vacant Land,1895 Wild Cherry Dr,Tallahassee,FL,32305,39900,,,Hickory Hammock,,48351,,13,,,Active,,,https://www.redfin.com/FL/Tallahassee/1895-Wild-Cherry-Dr-32305/home/139739071,CATRS,365880,N,Y,30.317958,-84.302751
MLS Listing,,Single Family Residential,3244 Beaumont Dr,Tallahassee,FL,32309,360000,3,2.0,KILLEARN ESTATES,1837,16988,1978,13,196,13,Active,,,https://www.redfin.com/FL/Tallahassee/3244-Beaumont-Dr-32309/home/139330956,CATRS,365879,N,Y,30.5248457,-84.1948353
MLS Listing,,Single Family Residential,1045 Delaware St,Tallahassee,FL,32304,140000,3,2.0,,1304,11761,1958,13,107,,Active,,,https://www.redfin.com/FL/Tallahassee/1045-Delaware-St-32304/home/139622625,CATRS,365876,N,Y,30.4521333,-84.3010059
MLS Listing,,Single Family Residential,1262 Millstream Rd,Tallahassee,FL,32312,725000,4,3.5,1300 LIVE OAK PLANTATION,3564,22651,1993,13,203,67,Active,,,https://www.redfin.com/FL/Tallahassee/1262-Millstream-Rd-32312/home/139865095,CATRS,365872,N,Y,30.4983575,-84.2588072
MLS Listing,,Multi-Family (2-4 Unit),1900 Crosby Ct Unit -,Tallahassee,FL,32304,165000,4,2.0,Somersett,1722,,1980,13,96,,Active,,,https://www.redfin.com/FL/Tallahassee/1900-Crosby-Ct-32304/Unit/home/188647780,CATRS,365870,N,Y,30.4615022,-84.3473651
MLS Listing,,Single Family Residential,5005 Branded Oaks,Tallahassee,FL,32311,615000,4,3.5,Brande Oaks,3472,80586,2006,13,177,9,Active,,,https://www.redfin.com/FL/Tallahassee/5005-Branded-Oaks-Ct-32311/home/139810949,CATRS,365865,N,Y,30.3873781,-84.1245891
MLS Listing,,Townhouse,2428 Talco Hills Dr Unit C,Tallahassee,FL,32303,165000,2,2.0,Talco Hills,1019,3920,1990,13,162,,Active,,,https://www.redfin.com/FL/Tallahassee/2428-Talco-Hills-Dr-32303/unit-C/home/174817496,CATRS,365617,N,Y,30.4749027,-84.325435
MLS Listing,,Mobile/Manufactured Home,497 Wilder Rd,Tallahassee,FL,32304,125000,3,2.0,Ochlockonee River Unerecorded,1050,18295,1985,13,119,,Active,,,https://www.redfin.com/FL/Tallahassee/497-Wilder-Rd-32304/home/139723435,CATRS,365862,N,Y,30.4704417,-84.4071098
MLS Listing,,Single Family Residential,2826 Ridgeway St,Tallahassee,FL,32310,175000,4,2.0,Mabry Manor Resub,1420,9583,1962,14,123,,Active,,,https://www.redfin.com/FL/Tallahassee/2826-Ridgeway-St-32310/home/140117589,CATRS,365860,N,Y,30.427428,-84.3353267
MLS Listing,,Single Family Residential,1522 Nugent Dr,Tallahassee,FL,32301,239000,3,2.0,INGLEWOOD,1040,24829,1960,14,230,,Active,,,https://www.redfin.com/FL/Tallahassee/1522-Nugent-Dr-32301/home/139237287,CATRS,365857,N,Y,30.447986,-84.2569763
MLS Listing,,Single Family Residential,2310 Via Sardina St,Tallahassee,FL,32303,229000,3,2.0,HARTSFIELD WOODS,1529,10890,1987,14,150,13,Active,,,https://www.redfin.com/FL/Tallahassee/2310-Via-Sardinia-St-32303/home/139186900,CATRS,365801,N,Y,30.4749819,-84.3377101
MLS Listing,,Single Family Residential,1563 Lee Ave,Tallahassee,FL,32309,1849500,5,6.0,BETTON HILLS,4400,19166,2023,14,420,,Active,,,https://www.redfin.com/FL/Tallahassee/1563-Lee-Ave-32303/home/139920969,CATRS,365852,N,Y,30.4628349,-84.2638993
MLS Listing,,Vacant Land,0 Lake Iamonia Dr Lot 15 A,Tallahassee,FL,32312,98000,,,Kinhega Estates,,23086,,14,,,Active,,,https://www.redfin.com/FL/Killearn-Lakes/Lake-Iamonia-Dr-32312/unit-15-A/home/185880098,CATRS,365849,N,Y,30.5602,-84.251
MLS Listing,,Multi-Family (2-4 Unit),318 Lewis Unit 1 & 2,Tallahassee,FL,32301,200000,4,2.0,-,1464,,,14,137,,Active,,,https://www.redfin.com/FL/Tallahassee/318-Lewis-St-32301/unit-1-2/home/188639088,CATRS,365848,N,Y,30.420878,-84.2788674
MLS Listing,,Single Family Residential,3498 Frontier Rd,Tallahassee,FL,32309,200000,3,2.0,Homestead Ridge Unrecorded,1152,18295,1973,14,174,,Active,,,https://www.redfin.com/FL/Tallahassee/3498-Frontier-Rd-32309/home/139633518,CATRS,365847,N,Y,30.499951,-84.119394
MLS Listing,,Multi-Family (2-4 Unit),3973 & 3975 Tavo Trce Unit -,Tallahassee,FL,32311,360000,4,2.0,-,1856,,1982,14,194,,Active,,,https://www.redfin.com/FL/Tallahassee/3973-Tavo-Trce-32311/home/139955169,CATRS,365844,N,Y,30.4138838,-84.2107673
MLS Listing,,Single Family Residential,4833 Crooked Rd,Tallahassee,FL,32310,494000,1,1.0,Stoutamire,864,4865652,1993,14,572,,Active,,,https://www.redfin.com/FL/Tallahassee/4833-Crooked-Rd-32310/home/141046349,CATRS,365837,N,Y,30.377708,-84.659701
MLS Listing,,Single Family Residential,3748 Deshazier Ln,Tallahassee,FL,32303,235000,3,2.0,ROCKY HILL SUB,1195,4356,2014,14,197,,Active,,,https://www.redfin.com/FL/Tallahassee/3748-Deshazier-Ln-32303/home/139976688,CATRS,365828,N,Y,30.510304,-84.3673689
MLS Listing,,Single Family Residential,3246 Thames Dr,Tallahassee,FL,32309,265000,3,2.0,Arbor Hill,1141,10454,1982,15,232,,Active,,,https://www.redfin.com/FL/Tallahassee/3246-Thames-Dr-32309/home/139682381,CATRS,365822,N,Y,30.5065166,-84.2212117
MLS Listing,,Mobile/Manufactured Home,424 Blue Dolphin,Tallahassee,FL,32304,35000,2,2.0,Bayhead,980,435,1997,15,36,510,Active,,,https://www.redfin.com/FL/Tallahassee/424-Blue-Dolphin-Ln-32304/home/188623272,CATRS,365820,N,Y,30.4544488,-84.3853439
MLS Listing,,Single Family Residential,1517 Nugent Dr,Tallahassee,FL,32301,240000,3,1.5,INGLEWOOD,1640,13939,1960,15,146,,Active,,,https://www.redfin.com/FL/Tallahassee/1517-Nugent-Dr-32301/home/139199644,CATRS,365818,N,Y,30.447559,-84.2572838
MLS Listing,,Townhouse,1405 Sturbridge Pl,Tallahassee,FL,32308,255000,2,2.0,Rose Hollow Unrecorded,1382,3920,1983,15,185,28,Active,,,https://www.redfin.com/FL/Tallahassee/1405-Sturbridge-Pl-32308/home/139230964,CATRS,365812,N,Y,30.4913028,-84.2520026
MLS Listing,,Single Family Residential,809 Briandav St,Tallahassee,FL,32305,154900,3,1.0,WOODSIDE HTS,1050,10454,1959,15,148,,Active,,,https://www.redfin.com/FL/Tallahassee/809-Briandav-St-32305/home/139924731,CATRS,365809,N,Y,30.3790959,-84.2671589
MLS Listing,,Single Family Residential,2967 Paddington Dr,Tallahassee,FL,32309,359000,3,3.0,HIGHLANDS AT NORTHAMPTON,2010,5227,1999,16,179,13,Active,,,https://www.redfin.com/FL/Tallahassee/2967-Paddington-Dr-32309/home/139930894,CATRS,365803,N,Y,30.5410216,-84.2189686
MLS Listing,,Single Family Residential,1921 Longview Dr,Tallahassee,FL,32303,314900,3,2.0,Lake Jackson Heights,2044,25700,1964,16,154,,Active,,,https://www.redfin.com/FL/Tallahassee/1921-Longview-Dr-32303/home/139389141,CATRS,365799,N,Y,30.5183308,-84.3270258
MLS Listing,,Single Family Residential,2615 Royal Oaks Dr,Tallahassee,FL,32309,385000,3,3.0,Royal Oaks,2346,32234,1979,16,164,3,Active,,,https://www.redfin.com/FL/Tallahassee/2615-Royal-Oaks-Dr-32309/home/139676599,CATRS,365795,N,Y,30.5223402,-84.2323458
MLS Listing,,Single Family Residential,5187 Icicle Hill Rd,Tallahassee,FL,,575000,3,3.0,Harmony Acres Unrec,3563,59241,1987,16,161,,Active,,,https://www.redfin.com/FL/Tallahassee/5187-Icicle-Hl-32303/home/139943285,CATRS,365794,N,Y,30.5145819,-84.3222584
MLS Listing,,Single Family Residential,2110 Wildridge Dr,Tallahassee,FL,,745000,3,3.5,Lake Jackson Greenwood,4311,54885,1985,16,173,10,Active,,,https://www.redfin.com/FL/Tallahassee/2110-Wildridge-Dr-32303/home/140019510,CATRS,365792,N,Y,30.5120339,-84.3208815
MLS Listing,,Single Family Residential,2202 Thomasville Rd,Tallahassee,FL,32308,569000,4,3.0,DURWARD,2134,33976,1950,16,267,,Active,,,https://www.redfin.com/FL/Tallahassee/2202-Thomasville-Rd-32308/home/140014049,CATRS,365793,N,Y,30.4728375,-84.2657883
MLS Listing,,Single Family Residential,727 Violet St,Tallahassee,FL,32308,350000,3,2.0,Meadowbrook,1513,8712,1986,17,231,,Active,,,https://www.redfin.com/FL/Tallahassee/727-Violet-St-32308/home/139897825,CATRS,365781,N,Y,30.4491141,-84.2352271
MLS Listing,,Single Family Residential,3756 Grove Park Dr,Tallahassee,FL,32311,1350000,5,3.0,Southwood,4797,23522,2007,17,281,50,Active,,,https://www.redfin.com/FL/Tallahassee/3756-Grove-Park-Dr-32311/home/139761891,CATRS,365780,N,Y,30.3943701,-84.2191107
MLS Listing,,Single Family Residential,1807 Ivan Dr,Tallahassee,FL,32303,239000,3,1.5,Scenic Heights,1356,12632,1965,17,176,,Active,,,https://www.redfin.com/FL/Tallahassee/1807-Ivan-Dr-32303/home/139963952,CATRS,365778,N,Y,30.4662163,-84.3272929
MLS Listing,,Vacant Land,Magazine Cir,Tallahassee,FL,32312,172500,,,Bannerman Commons,,8712,,17,,,Active,,,https://www.redfin.com/FL/Tallahassee/Magazine-St-32312/home/185275504,CATRS,365771,N,Y,30.56336877,-84.22368438
MLS Listing,,Single Family Residential,2605 Vence Dr,Tallahassee,FL,32308,599000,4,4.0,BETTON HILL,2484,21780,1974,17,241,1,Active,,,https://www.redfin.com/FL/Tallahassee/2605-Vence-Dr-32308/home/139917365,CATRS,365347,N,Y,30.4790472,-84.2508193
MLS Listing,,Single Family Residential,4113 Rampart Dr,Tallahassee,FL,32317,599900,3,2.0,Fallschase,2246,14374,2023,17,267,25,Active,,,https://www.redfin.com/FL/Tallahassee/4113-Rampart-Dr-32317/home/188599105,CATRS,365761,N,Y,30.4549916,-84.211762
MLS Listing,,Single Family Residential,3669 Longfellow Rd,Tallahassee,FL,32311,334900,3,2.5,SOUTHWOOD UNIT 2 PHASE 2,1584,3920,2004,17,211,51,Active,,,https://www.redfin.com/FL/Tallahassee/3669-Longfellow-Rd-32311/home/139847068,CATRS,365757,N,Y,30.4003847,-84.2102891
MLS Listing,,Single Family Residential,3454 Lenox Mill Rd,Tallahassee,FL,32309,475000,4,2.0,LENOX MILL,2187,11761,1993,17,217,9,Active,,,https://www.redfin.com/FL/Tallahassee/3454-Lenox-Mill-Rd-32309/home/139449410,CATRS,365754,N,Y,30.5453281,-84.2239423
MLS Listing,,Condo/Co-op,2596 Centerville Ct,Tallahassee,FL,32308,225000,3,2.5,CENTERVILLE COURT CONDOS,1406,1306,2001,17,160,170,Active,,,https://www.redfin.com/FL/Tallahassee/2596-Centerville-Ct-32308/home/139760695,CATRS,365753,N,Y,30.4828722,-84.2284147
MLS Listing,,Vacant Land,0 Pine Fair Way,Tallahassee,FL,32309,265000,,,CENTERVILLE,,73616,,17,,,Active,,,https://www.redfin.com/FL/Tallahassee/Pine-Fair-Way-32309/home/139589900,CATRS,365751,N,Y,30.563612,-84.163413
MLS Listing,,Condo/Co-op,2241 W Pensacola St #75,Tallahassee,FL,32304,80000,1,1.0,The Village Condominiums,546,871,1968,17,147,185,Active,,,https://www.redfin.com/FL/Tallahassee/2241-W-Pensacola-St-32304/unit-75/home/139601086,CATRS,365746,N,Y,30.4405441,-84.3234997
MLS Listing,,Single Family Residential,1326 Volusia St,Tallahassee,FL,32304,179000,3,2.0,Spring Valley,912,6098,1955,18,196,,Active,,,https://www.redfin.com/FL/Tallahassee/1326-Volusia-St-32304/home/170268828,CATRS,365615,N,Y,30.4583657,-84.3040483
MLS Listing,,Single Family Residential,3808 Ardmore Ln,Tallahassee,FL,32308,581086,4,3.5,Canopy Unit 5,2378,10890,2023,18,244,17,Active,,,https://www.redfin.com/FL/Tallahassee/3808-Ardmore-Ln-32308/home/188590698,CATRS,365727,N,Y,30.4829468,-84.2105521
MLS Listing,,Single Family Residential,3839 Forest Lawn Ter,Tallahassee,FL,32308,753400,5,3.5,Canopy,3447,8712,2023,18,219,17,Active,,,https://www.redfin.com/FL/Tallahassee/3839-Forest-Lawn-Ter-32308/home/183176120,CATRS,365726,N,Y,30.485477,-84.210547
MLS Listing,,Single Family Residential,4561 Hickory Forest Cir,Tallahassee,FL,32303,239900,3,2.0,Autumn Woods,1088,8712,1977,18,220,,Active,,,https://www.redfin.com/FL/Tallahassee/4561-Hickory-Forest-Cir-32303/home/140095228,CATRS,365725,N,Y,30.5170216,-84.3713524
MLS Listing,,Vacant Land,2465 Wildcat Rdg,Tallahassee,FL,32303,45000,,,Tippecanoe Hills,,7405,,18,,,Active,,,https://www.redfin.com/FL/Tallahassee/2465-Wildcat-Rdg-32303/home/140127697,CATRS,365723,N,Y,30.475945,-84.329864
MLS Listing,,Single Family Residential,3049 White Ibis Way Ways,Tallahassee,FL,32309,467000,4,2.5,GREENS OF KILLEARN,2700,6098,1997,18,173,92,Active,,,https://www.redfin.com/FL/Tallahassee/3049-White-Ibis-Way-32309/home/140074216,CATRS,365722,N,Y,30.5244824,-84.2089698
MLS Listing,,Single Family Residential,850 Brookwood Dr,Tallahassee,FL,32308,585000,4,2.0,BROOKWOOD,3291,21344,1959,18,178,,Active,,,https://www.redfin.com/FL/Tallahassee/850-Brookwood-Dr-32308/home/139695416,CATRS,365719,N,Y,30.4507874,-84.2600004
MLS Listing,,Single Family Residential,263 Seawolf Ct,Tallahassee,FL,32312,335000,3,2.0,Lakeshore Estates,1925,16117,1990,18,174,,Active,,,https://www.redfin.com/FL/Tallahassee/263-Sea-Wolf-Ct-32312/home/139713834,CATRS,365717,N,Y,30.501756,-84.2862028
MLS Listing,,Vacant Land,6673 Oakdown Dr,Tallahassee,FL,32309,275000,,,Oakdown,,130680,,18,,,Active,,,https://www.redfin.com/FL/Tallahassee/6673-Oakdown-Dr-32309/home/179596314,CATRS,365711,N,Y,30.560968,-84.198587
MLS Listing,,Mobile/Manufactured Home,8324 Lesley St,Tallahassee,FL,32305,72500,3,2.0,Southwind Phase 4,1012,32670,1992,18,72,,Active,,,https://www.redfin.com/FL/Tallahassee/8324-Lesley-St-32305/home/139909511,CATRS,365704,N,Y,30.3291982,-84.2973055
MLS Listing,,Condo/Co-op,2403 Hartsfield Rd #607,Tallahassee,FL,32303,174900,3,3.0,Hartsfield Green Condos,1216,435,2004,18,144,195,Active,,,https://www.redfin.com/FL/Tallahassee/2403-Hartsfield-Rd-32303/unit-607/home/139975472,CATRS,365700,N,Y,30.4726321,-84.3276591
MLS Listing,,Single Family Residential,2139 Stiles Pond Ct,Tallahassee,FL,32312,618600,3,2.5,Stiles Pond,2050,9147,2024,19,302,31,Active,,,https://www.redfin.com/FL/Tallahassee/2139-Stiles-Pond-Ct-32303/home/148471568,CATRS,365694,N,Y,30.477228,-84.279741
MLS Listing,,Single Family Residential,1431 Tung Hill Dr,Tallahassee,FL,32317,495000,3,3.0,Groveland Hills,2500,87991,1979,19,198,,Active,,,https://www.redfin.com/FL/Tallahassee/1431-Tung-Hill-Dr-32317/home/139861645,CATRS,365691,N,Y,30.460111,-84.1868443
MLS Listing,,Single Family Residential,3549 Lakeshore Dr,Tallahassee,FL,32312,599800,3,2.5,Lakeshore Estates,3034,52272,1990,19,198,,Active,,,https://www.redfin.com/FL/Tallahassee/3549-Lakeshore-Dr-32312/home/139654517,CATRS,365688,N,Y,30.4937271,-84.2821881
MLS Listing,,Single Family Residential,2409 Oakdale St,Tallahassee,FL,32308,655000,5,3.0,BETTON HILL,3184,20037,1974,19,206,,Active,,,https://www.redfin.com/FL/Tallahassee/2409-Oakdale-St-32308/home/139296389,CATRS,365686,N,Y,30.479423,-84.2523884
MLS Listing,,Single Family Residential,4121 Rampart Dr,Tallahassee,FL,32317,613650,5,3.0,Fallschase,2246,20037,2023,19,273,25,Active,,,https://www.redfin.com/FL/Tallahassee/4121-Rampart-Dr-32317/home/188583207,CATRS,365684,N,Y,30.4548845,-84.2111376
MLS Listing,,Single Family Residential,3250 Dartmouth Dr,Tallahassee,FL,32317,325000,3,2.0,Weems Plantation,1329,6534,1999,19,245,13,Active,,,https://www.redfin.com/FL/Tallahassee/3250-Dartmouth-Dr-32317/home/139266032,CATRS,365679,N,Y,30.4577019,-84.22049
MLS Listing,,Vacant Land,619 Earls Slough Ct,Tallahassee,FL,32312,72000,,,,,69696,,19,,,Active,,,https://www.redfin.com/FL/Tallahassee/619-Earls-Slough-Ct-32312/home/139497747,CATRS,365671,N,Y,30.6290882,-84.2866963
MLS Listing,,Single Family Residential,2975 Byington Ct,Tallahassee,FL,32303,225000,3,2.0,HUNTINGTON SOUTH FLAG LOT,1021,14810,1983,19,220,,Active,,,https://www.redfin.com/FL/Tallahassee/2975-Byington-Ct-32303/home/139403468,CATRS,365666,N,Y,30.4789121,-84.343421
MLS Listing,,Townhouse,2471 Talco Hills Dr,Tallahassee,FL,32303,164500,3,2.0,TALCO HILLS,1120,1742,1983,19,147,,Active,,,https://www.redfin.com/FL/Tallahassee/2471-Talco-Hills-Dr-32303/home/185117276,CATRS,365663,N,Y,30.4765995,-84.3249265
MLS Listing,,Vacant Land,Lot 2 Moon Crest Ln,Tallahassee,FL,32312,190000,,,Preserve at Lakeshore,,165963,,19,,,Active,,,https://www.redfin.com/FL/Tallahassee/Lot-2-Moon-Crest-Ln-32312/home/174813830,CATRS,365656,N,Y,30.5602,-84.251
MLS Listing,,Condo/Co-op,2273 Del Carmel Way #1105,Tallahassee,FL,32303,219900,3,3.0,Sunrise at Mission Overlook,1280,,2023,20,172,175,Active,,,https://www.redfin.com/FL/Tallahassee/2273-Del-Carmel-Way-32303/unit-1105/home/188574227,CATRS,365651,N,Y,30.4727467,-84.34368
MLS Listing,,Single Family Residential,B9 Greta Boulos St,Tallahassee,FL,32309,630000,3,2.5,Cambridge Parc,2818,6534,2024,20,224,83,Active,,,https://www.redfin.com/FL/Miccosukee/B9-Greta-Boulos-ST-32309/home/188572249,CATRS,365646,N,Y,30.53090091,-84.2354741
MLS Listing,,Single Family Residential,2750 Michel Boulos St,Tallahassee,FL,32309,730000,4,3.5,Cambridge Parc,3176,6098,2024,20,230,83,Active,,,https://www.redfin.com/FL/Miccosukee/2750-Michel-Boulos-ST-32309/home/188571665,CATRS,365643,N,Y,30.53075733,-84.23504454
MLS Listing,,Single Family Residential,3158 Huttersfield Cir,Tallahassee,FL,32303,234900,3,2.0,HUNTINGTON WOODS,1248,6969,1991,20,188,,Active,,,https://www.redfin.com/FL/Tallahassee/3158-Huttersfield-Cir-32303/home/139869701,CATRS,365554,N,Y,30.4848103,-84.3357392
MLS Listing,,Single Family Residential,2994 Killearn Pointe Ct,Tallahassee,FL,32312,775000,4,4.0,Killearn Lakes,3426,22651,2005,20,226,12,Active,,,https://www.redfin.com/FL/Tallahassee/2994-Killearn-Point-Ct-32312/home/139345925,CATRS,365640,N,Y,30.5889071,-84.2282501
MLS Listing,,Vacant Land,Ridgeland Rd,Tallahassee,FL,32312,50000,,,ACREAGE & UNREC,,75794,,20,,,Active,,,https://www.redfin.com/FL/Tallahassee/Ridgeland-Rd-32312/home/139786092,Stellar MLS as Distributed by MLS Grid,C7483700,N,Y,30.491583,-84.283888
MLS Listing,,Vacant Land,Shoal Creek Dr,Tallahassee,FL,32312,160000,,,GOLDEN EAGLE,,20908,,20,,,Active,,,https://www.redfin.com/FL/Tallahassee/Shoal-Creek-Dr-32312/home/139218352,CATRS,365632,N,Y,30.601242,-84.22141
MLS Listing,,Single Family Residential,2832 Blue Blossom Trl,Tallahassee,FL,32308,300000,3,2.5,Canopy,1236,2178,2021,20,243,6,Active,,,https://www.redfin.com/FL/Tallahassee/2832-Blue-Blossom-Trl-32308/home/174842059,CATRS,365628,N,Y,30.4880954,-84.221056
MLS Listing,,Single Family Residential,2846 Lonnbladh Rd,Tallahassee,FL,32308,475000,4,2.5,TALLAHASSEE HIGHLANDS,2002,6098,2023,21,237,,Active,,,https://www.redfin.com/FL/Tallahassee/2846-Lonnbladh-Rd-32308/home/140014883,CATRS,365626,N,Y,30.4874382,-84.230611
MLS Listing,,Single Family Residential,6286 Longwood Ct,Tallahassee,FL,32311,575000,4,3.0,WATERFORD,2170,112820,2023,21,265,,Active,,,https://www.redfin.com/FL/Tallahassee/6286-Longwood-Ct-32311/home/139813232,CATRS,365625,N,Y,30.388992,-84.131214
MLS Listing,,Single Family Residential,1413 Crescent Hills Dr,Tallahassee,FL,32303,250000,3,2.0,CRESCENT HILLS,1300,3920,2005,21,192,14,Active,,,https://www.redfin.com/FL/Tallahassee/1413-Crescent-Hill-Dr-32303/home/139812860,CATRS,365621,N,Y,30.4639079,-84.365685
MLS Listing,,Single Family Residential,933 Crawfordville Trce,Tallahassee,FL,32305,235000,3,2.0,Crawfordville Trace,1263,4356,2006,21,186,21,Active,,,https://www.redfin.com/FL/Tallahassee/933-Crawfordville-Trce-32305/home/139761462,CATRS,365597,N,Y,30.3845508,-84.2913432
MLS Listing,,Multi-Family (2-4 Unit),5568 Lumberjack Ln #2,Tallahassee,FL,32303,279000,4,4.0,Sterling Woods,2012,,1990,21,139,,Active,,,https://www.redfin.com/FL/Tallahassee/5568-Lumberjack-Ln-32303/unit-2/home/183867650,CATRS,365616,N,Y,30.521239,-84.3721489
MLS Listing,,Single Family Residential,2923 Tewkesbury Trce,Tallahassee,FL,32309,349900,3,2.5,HIGHLANDS AT NORTHAMPTON,1637,6098,1994,21,214,17,Active,,,https://www.redfin.com/FL/Tallahassee/2923-Tewkesbury-Trce-32309/home/139200855,CATRS,365614,N,Y,30.5406979,-84.2223679
MLS Listing,,Mobile/Manufactured Home,7305 Stable Run Ct,Tallahassee,FL,32310,143000,3,2.0,SANDSTONE RANCH,1300,7405,1996,21,110,,Active,,,https://www.redfin.com/FL/Tallahassee/7305-Stable-Run-Ct-32310/home/139724656,CATRS,365612,N,Y,30.4392738,-84.4007379
MLS Listing,,Single Family Residential,2933 Woodside Dr,Tallahassee,FL,32312,350000,4,3.5,Waverly Hills,2853,33541,1978,22,123,,Active,,,https://www.redfin.com/FL/Tallahassee/2933-Woodside-Dr-32312/home/139852043,CATRS,365252,N,Y,30.4845558,-84.2732881
MLS Listing,,Single Family Residential,6097 W W Kelley Rd,Tallahassee,FL,32311,550000,4,2.5,WALTON WOODS UNREC,1908,26136,2023,23,288,,Active,,,https://www.redfin.com/FL/Tallahassee/6097-W-W-Kelley-Rd-32311/home/139595303,CATRS,365589,N,Y,30.3715962,-84.1243935
MLS Listing,,Single Family Residential,3999 Calle De Santos,Tallahassee,FL,32311,309000,3,2.0,BOSQUE DE AUGUSTINE,1398,53578,1994,23,221,,Active,,,https://www.redfin.com/FL/Tallahassee/3999-Calle-de-Santos-32311/home/139468992,CATRS,365579,N,Y,30.4054862,-84.1297228
MLS Listing,,Single Family Residential,8554 Scott Tower Rd,Tallahassee,FL,32312,485000,4,2.5,-,2038,27878,2023,23,238,,Active,,,https://www.redfin.com/FL/Tallahassee/8554-Scott-Tower-Rd-32312/home/187194171,CATRS,365576,N,Y,30.5882855,-84.2698343
MLS Listing,,Single Family Residential,1339 Avondale Way,Tallahassee,FL,32317,335000,3,2.0,Avondale,1823,16552,1989,24,184,10,Active,,,https://www.redfin.com/FL/Tallahassee/1339-Avondale-Way-32317/home/140080119,CATRS,365570,N,Y,30.4572327,-84.1765862
MLS Listing,,Single Family Residential,3052 Layla St,Tallahassee,FL,32303,230000,3,2.0,View Pointe,1152,5227,1997,24,200,,Active,,,https://www.redfin.com/FL/Tallahassee/3052-Layla-St-32303/home/139652047,CATRS,365563,N,Y,30.5109522,-84.3450233
MLS Listing,,Townhouse,1268 High Rd,Tallahassee,FL,32304,159900,2,2.0,Continental High UNREC,928,4791,1983,24,172,33,Active,,,https://www.redfin.com/FL/Tallahassee/1268-High-Rd-32304/home/139881129,CATRS,365545,N,Y,30.4570257,-84.3149354
MLS Listing,,Single Family Residential,436 Audubon Dr,Tallahassee,FL,32312,599900,3,3.5,-,2883,60548,1987,24,208,,Active,,,https://www.redfin.com/FL/Tallahassee/436-Audubon-Dr-32312/home/139872491,CATRS,365544,N,Y,30.504538,-84.2719307
MLS Listing,,Single Family Residential,3704 Randall St,Tallahassee,FL,32309,299000,3,2.0,Lake Hall Heights,1538,15681,1968,24,194,,Active,,,https://www.redfin.com/FL/Tallahassee/3704-Randall-St-32309/home/139334809,CATRS,365543,N,Y,30.5140052,-84.2364619
MLS Listing,,Mobile/Manufactured Home,4621 W Bellarose,Tallahassee,FL,32305,33000,3,2.0,WOODHAVEN,1152,7405,2003,24,29,,Active,,,https://www.redfin.com/FL/Tallahassee/4621-W-Bellarose-32305/home/139493447,CATRS,365540,N,Y,30.3803925,-84.3084369
MLS Listing,,Single Family Residential,5404 River Reserve Ln,Tallahassee,FL,32303,322000,3,2.0,Tower Gates,1409,5662,2024,24,229,50,Active,,,https://www.redfin.com/FL/Tallahassee/5404-River-Reserve-32303/home/188533371,CATRS,365537,N,Y,30.5259789,-84.36959
MLS Listing,,Single Family Residential,1061 E Windwood Way,Tallahassee,FL,32311,950000,5,3.0,Windwood Hills Unrec,4927,162478,1982,24,193,8,Active,,,https://www.redfin.com/FL/Tallahassee/1061-E-Windwood-Way-32311/home/139909714,CATRS,365530,N,Y,30.4318524,-84.1681189
MLS Listing,,Townhouse,7213 Jaffrey Ct,Tallahassee,FL,32312,275000,3,2.0,SCOTSWOOD,1392,6534,1996,25,198,10,Active,,,https://www.redfin.com/FL/Tallahassee/7213-Jaffrey-Ct-32312/home/139337986,CATRS,365528,N,Y,30.5695208,-84.2195368
MLS Listing,,Single Family Residential,2820 Teton Trl,Tallahassee,FL,32303,269000,3,2.0,SETTLERS SPRINGS,1442,9147,1986,25,187,,Active,,,https://www.redfin.com/FL/Tallahassee/2820-Teton-Trl-32303/home/139483778,CATRS,365525,N,Y,30.4917262,-84.3344261
MLS Listing,,Vacant Land,Lot 9 Porch Farm Way,Tallahassee,FL,32309,325000,,,Front Porch Farms,,206038,,25,,,Active,,,https://www.redfin.com/FL/Miccosukee/Lot-9-Porch-Farm-WAY-32309/home/188521734,CATRS,365522,N,Y,30.56166969,-84.202955
MLS Listing,,Townhouse,2824 Botany Pl,Tallahassee,FL,32301,175000,2,2.0,Botany Place,968,5227,1983,25,181,,Active,,,https://www.redfin.com/FL/Tallahassee/2824-Botany-Pl-32301/home/139924473,CATRS,365520,N,Y,30.410988,-84.2611528
MLS Listing,,Condo/Co-op,2325 W Pensacola St #156,Tallahassee,FL,32304,92000,2,1.5,Palms West Condominiums,1112,871,1969,25,83,289,Active,,,https://www.redfin.com/FL/Tallahassee/2325-W-Pensacola-St-32304/unit-156/home/139620682,CATRS,365501,N,Y,30.4406436,-84.3249886
MLS Listing,,Single Family Residential,509 South Ride,Tallahassee,FL,32303,438500,3,2.0,Durward unrecorded,1540,72745,1956,25,285,,Active,,,https://www.redfin.com/FL/Tallahassee/509-S-Ride-32303/home/140056951,CATRS,365508,N,Y,30.4718314,-84.2725066
MLS Listing,,Townhouse,2369 Merrigan Pl,Tallahassee,FL,32309,249000,2,2.0,KILLEARN ESTATES,1224,4356,1980,25,203,9,Active,,,https://www.redfin.com/FL/Tallahassee/2369-Merrigan-Pl-32309/home/139940748,CATRS,365490,N,Y,30.533587,-84.214275
MLS Listing,,Single Family Residential,801 E Magnolia Dr,Tallahassee,FL,32301,178500,3,1.0,GOLFVIEW,960,7405,1963,25,186,,Active,,,https://www.redfin.com/FL/Tallahassee/801-E-Magnolia-Dr-32301/home/139486168,CATRS,365485,N,Y,30.4197891,-84.2711903
MLS Listing,,Single Family Residential,2059 Hansell Hill Dr,Tallahassee,FL,32308,409900,4,2.0,Hansell Hill,1835,7840,2023,26,223,34,Active,,,https://www.redfin.com/FL/Tallahassee/2059-Hansel-Hill-Dr-32308/home/188498337,CATRS,365469,N,Y,30.494307,-84.207148
MLS Listing,,Single Family Residential,2014 Hansell Hill Dr,Tallahassee,FL,32308,419900,4,2.0,Hansell Hill,1835,6969,2023,26,229,34,Active,,,https://www.redfin.com/FL/Tallahassee/2014-Hansel-Hill-Dr-32308/home/188498296,CATRS,365466,N,Y,30.492877,-84.207752
MLS Listing,,Single Family Residential,2010 Hansell Hill Dr,Tallahassee,FL,32308,419900,4,2.0,Hansell Hill,1835,6969,2023,26,229,34,Active,,,https://www.redfin.com/FL/Tallahassee/2010-Hansel-Hill-Dr-32308/home/188498294,CATRS,365467,N,Y,30.49274,-84.207687
MLS Listing,,Single Family Residential,2058 Hansell Hill Dr,Tallahassee,FL,32308,433445,4,2.0,Hansell Hill,1835,9147,2023,26,236,34,Active,,,https://www.redfin.com/FL/Tallahassee/2058-Hansel-Hill-Dr-32308/home/188498265,CATRS,365465,N,Y,30.4943449,-84.2077388
MLS Listing,,Single Family Residential,2018 Hansell Hill Dr,Tallahassee,FL,32308,419900,4,2.0,Hansell Hill,1835,7840,2023,26,229,34,Active,,,https://www.redfin.com/FL/Tallahassee/2018-Hansel-Hill-Dr-32308/home/188498243,CATRS,365464,N,Y,30.493015,-84.207701
MLS Listing,,Single Family Residential,2063 Hansell Hill Dr,Tallahassee,FL,32308,409900,4,2.0,Hansell Hill,1835,7840,2023,26,223,34,Active,,,https://www.redfin.com/FL/Tallahassee/2063-Hansel-Hill-Dr-32308/home/188498222,CATRS,365463,N,Y,30.494462,-84.207159
MLS Listing,,Single Family Residential,2067 Hansell Hill Dr,Tallahassee,FL,32308,409900,4,2.0,Hansell Hill,1835,7840,2023,26,223,34,Active,,,https://www.redfin.com/FL/Tallahassee/2067-Hansel-Hill-Dr-32308/home/188498164,CATRS,365462,N,Y,30.49461,-84.207172
MLS Listing,,Single Family Residential,2071 Hansell Hill Dr,Tallahassee,FL,32308,409900,4,2.0,Hansell Hill,1835,10454,2023,26,223,34,Active,,,https://www.redfin.com/FL/Tallahassee/2071-Hansel-Hill-Dr-32308/home/188498126,CATRS,365461,N,Y,30.494726,-84.207108
MLS Listing,,Single Family Residential,2075 Hansell Hill Dr,Tallahassee,FL,32308,409900,4,2.0,Hansell Hill,1835,10454,2023,26,223,34,Active,,,https://www.redfin.com/FL/Tallahassee/2075-Hansel-Hill-Dr-32308/home/188498109,CATRS,365460,N,Y,30.494897,-84.207068
MLS Listing,,Single Family Residential,4987 Hollystone Ln,Tallahassee,FL,32312,545000,3,2.5,HOLLYSTONE SUBDIVISION,2521,8276,2009,26,216,33,Active,,,https://www.redfin.com/FL/Tallahassee/4987-Hollystone-Ln-32312/home/140131211,CATRS,365459,N,Y,30.5369086,-84.2344039
MLS Listing,,Single Family Residential,2608 Block Dr,Tallahassee,FL,32304,274500,3,2.0,-,1556,17424,1952,26,176,,Active,,,https://www.redfin.com/FL/Tallahassee/2608-Block-Dr-32304/home/140087519,CATRS,365452,N,Y,30.4489012,-84.334998
MLS Listing,,Single Family Residential,3065 Adiron Way,Tallahassee,FL,32317,500000,4,2.5,ADIRON WOODS,2014,15681,2007,26,248,29,Active,,,https://www.redfin.com/FL/Tallahassee/3065-Adiron-Way-32317/home/139993094,CATRS,365451,N,Y,30.482213,-84.1586201
MLS Listing,,Townhouse,2325 Via Sardinia St Unit A,Tallahassee,FL,32303,197500,2,2.0,Hartsfield Woods Unrec,1008,5662,1989,26,196,10,Active,,,https://www.redfin.com/FL/Tallahassee/2325-Via-Sardinia-St-32303/unit-A/home/139716129,CATRS,365449,N,Y,30.4766683,-84.3371758
MLS Listing,,Single Family Residential,2083 Hansell Hill Dr,Tallahassee,FL,32308,409900,4,2.0,Hansell Hill,1835,16117,2023,26,223,34,Active,,,https://www.redfin.com/FL/Tallahassee/2083-Hansel-Hill-Dr-32308/home/188491763,CATRS,365448,N,Y,30.495218,-84.207237
MLS Listing,,Single Family Residential,8320 Thornridge Ln,Tallahassee,FL,32312,294000,3,2.0,Killearn Lakes,1246,11325,1991,26,236,10,Active,,,https://www.redfin.com/FL/Tallahassee/8320-Thornridge-Ln-32312/home/139880698,CATRS,365446,N,Y,30.5855147,-84.2411951
MLS Listing,,Single Family Residential,2323 Lake Hall Rd,Tallahassee,FL,32309,524000,3,2.5,Upper East,2404,6969,2018,26,218,275,Active,,,https://www.redfin.com/FL/Tallahassee/2323-Lake-Hall-Rd-32309/home/148471510,CATRS,365444,N,Y,30.527723,-84.2374178
MLS Listing,,Townhouse,4222 Avon Park Cir,Tallahassee,FL,32311,289900,2,2.5,Southwood,1324,2178,2005,27,219,328,Active,,,https://www.redfin.com/FL/Tallahassee/4222-Avon-Park-Cir-32311/home/139742683,CATRS,365437,N,Y,30.3866456,-84.2234312
MLS Listing,,Single Family Residential,2053 Wildridge Dr,Tallahassee,FL,32303,449000,3,2.5,LAKE JACKSON GREENWOOD LOTS UN,2647,39204,1998,27,170,,Active,,,https://www.redfin.com/FL/Tallahassee/2053-Wildridge-Dr-32303/home/139785416,CATRS,365435,N,Y,30.5116605,-84.3231215
MLS Listing,,Multi-Family (5+ Unit),1217 Miccosukee Rd Unit -,Tallahassee,FL,32308,1750000,8,8.0,Brockswood Park,6565,,1955,27,267,,Active,,,https://www.redfin.com/FL/Tallahassee/1217-Miccosukee-Rd-32308/home/170266743,CATRS,365423,N,Y,30.4545317,-84.2638868
MLS Listing,,Single Family Residential,2523 Staghorn Pl,Tallahassee,FL,32301,299900,3,2.5,Camelot Park,1765,11761,1989,27,170,,Active,,,https://www.redfin.com/FL/Tallahassee/2523-Staghorn-Pl-32301/home/139696934,CATRS,365419,N,Y,30.4389813,-84.2353094
MLS Listing,,Vacant Land,0 Royal Isle Dr,Tallahassee,FL,32312,199000,,,GOLDEN EAGLE,,25264,,27,,,Active,,,https://www.redfin.com/FL/Tallahassee/Royal-Isle-Dr-32312/home/139741843,CATRS,365418,N,Y,30.604783,-84.224162
MLS Listing,,Mobile/Manufactured Home,4024 Bryant St,Tallahassee,FL,32303,159700,3,2.0,BYRD UNREC,1188,21780,1999,27,134,,Active,,,https://www.redfin.com/FL/Tallahassee/4024-Bryant-St-32303/home/139430328,CATRS,365415,N,Y,30.5365325,-84.3622351
MLS Listing,,Single Family Residential,2211 Mulberry Blvd,Tallahassee,FL,32303,250000,4,2.0,Town N Country,1501,12196,1962,27,167,,Active,,,https://www.redfin.com/FL/Tallahassee/2211-Mulberry-Blvd-32303/home/139397925,CATRS,365414,N,Y,30.4693428,-84.3027738
MLS Listing,,Single Family Residential,928 Hawthorne St,Tallahassee,FL,32308,239900,3,1.0,CAPITAL HILLS,994,7405,1950,27,241,,Active,,,https://www.redfin.com/FL/Tallahassee/928-Hawthorne-St-32308/home/139875473,CATRS,365413,N,Y,30.4518042,-84.2586427
MLS Listing,,Single Family Residential,746 Riggins Rd,Tallahassee,FL,32308,320000,3,2.0,Meadowbrook,1723,10018,1983,28,186,,Active,,,https://www.redfin.com/FL/Tallahassee/746-Riggins-Rd-32308/home/188469565,CATRS,365220,N,Y,30.4514092,-84.2364208
MLS Listing,,Townhouse,3301 Sawtooth Dr,Tallahassee,FL,32303,184900,3,3.0,WOODBRIAR SUB,1338,2178,2005,28,138,21,Active,,,https://www.redfin.com/FL/Tallahassee/3301-Sawtooth-Dr-32303/home/139749651,CATRS,365404,N,Y,30.4874846,-84.3477348
MLS Listing,,Single Family Residential,848 E Park Ave,Tallahassee,FL,32301,274300,2,1.5,n,1170,7405,1937,28,234,,Active,,,https://www.redfin.com/FL/Tallahassee/848-E-Park-Ave-32301/home/139420805,CATRS,365400,N,Y,30.4418868,-84.2680351
MLS Listing,,Single Family Residential,2001 Rosedale Dr,Tallahassee,FL,32303,275000,3,2.0,FOREST HEIGHTS,1890,23522,1954,28,146,,Active,,,https://www.redfin.com/FL/Tallahassee/2001-Rosedale-Dr-32303/home/139792752,CATRS,365022,N,Y,30.4658965,-84.3070494
MLS Listing,,Mobile/Manufactured Home,5055 Crystal Brook Ln,Tallahassee,FL,32303,155000,3,2.0,BOXWOOD ESTATES,1036,21780,2021,28,150,8,Active,,,https://www.redfin.com/FL/Tallahassee/5055-Crystal-Brook-Ln-32303/home/139246301,CATRS,365393,N,Y,30.5497669,-84.3648328
MLS Listing,,Single Family Residential,4345 Bottle Brush Ln,Tallahassee,FL,32303,327000,3,2.0,Tower Gates,1409,6969,2024,28,232,50,Active,,,https://www.redfin.com/FL/Tallahassee/4345-Bottle-Brush-Ln-32303/home/188464382,CATRS,365387,N,Y,30.5260932,-84.3702005
MLS Listing,,Single Family Residential,4347 Bottle Brush Ln,Tallahassee,FL,32303,333000,3,2.0,Tower Gates,1592,5662,2024,28,209,50,Active,,,https://www.redfin.com/FL/Tallahassee/4347-Bottle-Brush-Ln-32303/home/188464929,CATRS,365386,N,Y,30.5262124,-84.3702093
MLS Listing,,Condo/Co-op,4434 Gearhart Rd #2201,Tallahassee,FL,32303,175000,2,2.0,SUMMERCHASE CONDOS,1344,871,2005,28,130,250,Active,,,https://www.redfin.com/FL/Tallahassee/4434-Gearhart-Rd-32303/unit-2201/home/140126404,CATRS,365385,N,Y,30.4817411,-84.3476527
MLS Listing,,Single Family Residential,5408 River Reserve Ln,Tallahassee,FL,32303,322000,3,2.0,Tower Gates,1402,6098,2024,28,230,50,Active,,,https://www.redfin.com/FL/Tallahassee/5408-River-Reserve-32303/home/188464890,CATRS,365384,N,Y,30.5259789,-84.36959
MLS Listing,,Single Family Residential,1105 Carraway St,Tallahassee,FL,32308,275000,3,2.0,CAPITAL HILLS,1461,9583,1948,28,188,,Active,,,https://www.redfin.com/FL/Tallahassee/1105-Carraway-St-32308/home/139638863,CATRS,361364,N,Y,30.453253,-84.2564003
MLS Listing,,Single Family Residential,1721 Talpeco Rd,Tallahassee,FL,32303,249000,3,1.5,Gwyndale,1549,13939,1975,28,161,,Active,,,https://www.redfin.com/FL/Tallahassee/1721-Talpeco-Rd-32303/home/139963014,CATRS,365370,N,Y,30.4926559,-84.3201622
MLS Listing,,Single Family Residential,2804 Southwood Dr,Tallahassee,FL,32301,199997,4,1.0,Lynndale,1040,8276,1955,28,192,,Active,,,https://www.redfin.com/FL/Tallahassee/2804-Southwood-Dr-32301/home/140101399,CATRS,365357,N,Y,30.4122274,-84.2736995
MLS Listing,,Single Family Residential,2023 Pemberton Ct,Tallahassee,FL,32309,399999,4,2.0,N/A,1692,17859,2023,29,236,,Active,,,https://www.redfin.com/FL/Tallahassee/2023-Pemberton-Ct-32308/home/188449304,CATRS,365356,N,Y,30.49427,-84.204655
MLS Listing,,Single Family Residential,2017 Pemberton Ct,Tallahassee,FL,32309,399999,4,2.0,N/A,1692,17859,2023,29,236,,Active,,,https://www.redfin.com/FL/Tallahassee/2017-Pemberton-Ct-32308/home/188449280,CATRS,365355,N,Y,30.493868,-84.20466
MLS Listing,,Single Family Residential,405 Glenview Dr,Tallahassee,FL,32303,499000,3,2.5,Glenview Place,1768,3484,2019,29,282,250,Active,,,https://www.redfin.com/FL/Tallahassee/405-Glenview-Dr-32303/home/148471397,CATRS,365209,N,Y,30.464847,-84.2766398
MLS Listing,,Single Family Residential,4747 Stoney Trce,Tallahassee,FL,32309,559000,4,3.5,Stonebriar,3006,20037,2005,29,186,25,Active,,,https://www.redfin.com/FL/Tallahassee/4747-Stoney-Trce-32309/home/140121245,CATRS,365348,N,Y,30.5330905,-84.2382729
MLS Listing,,Single Family Residential,2518 Killarney Way,Tallahassee,FL,32309,549000,5,3.0,Killearn Estates,3551,38332,1968,30,155,13,Active,,,https://www.redfin.com/FL/Tallahassee/2518-Killarney-Way-32309/home/139291602,CATRS,365345,N,Y,30.5123724,-84.2289293
MLS Listing,,Condo/Co-op,2731 S Blair Stone Rd #174,Tallahassee,FL,32301,129000,4,2.0,Residences at Whispering Pines,1503,871,1972,30,86,377,Active,,,https://www.redfin.com/FL/Tallahassee/2731-S-Blair-Stone-Rd-32301/unit-174/home/139979539,CATRS,365344,N,Y,30.4216492,-84.2489216
MLS Listing,,Single Family Residential,2108 Joyner Dr,Tallahassee,FL,32303,275000,3,2.0,PARKSIDE,1683,13939,1965,30,163,,Active,,,https://www.redfin.com/FL/Tallahassee/2108-Joyner-Dr-32303/home/140001089,CATRS,365340,N,Y,30.4666476,-84.3022117
MLS Listing,,Single Family Residential,6327 Rivers Landing Ct,Tallahassee,FL,32303,295500,3,2.0,Rivers Landing,1641,6534,2015,30,180,25,Active,,,https://www.redfin.com/FL/Tallahassee/6327-Rivers-Landing-Ct-32303/home/139847667,CATRS,365337,N,Y,30.5280801,-84.3814126
MLS Listing,,Single Family Residential,3533 Oak Hill Trl,Tallahassee,FL,32312,420000,4,3.0,Killearn Lakes,2169,15245,1984,30,194,10,Active,,,https://www.redfin.com/FL/Tallahassee/3533-Oak-Hill-Trl-32312/home/139200330,CATRS,365336,N,Y,30.5767094,-84.2204076
MLS Listing,,Single Family Residential,573 Knotted Pine Dr,Tallahassee,FL,32312,689900,4,3.5,The Hammock at Oak Grove,2535,10018,2022,30,272,75,Active,,,https://www.redfin.com/FL/Tallahassee/573-Knotted-Pine-Dr-32312/home/181171082,CATRS,365331,N,Y,30.581831,-84.269561
MLS Listing,,Townhouse,3443 Sedona Loop,Tallahassee,FL,32308,209900,2,1.5,FOREST COMMONS UNREC,902,5662,1987,30,233,8,Active,,,https://www.redfin.com/FL/Tallahassee/3443-Sedona-Loop-32308/home/139120044,CATRS,365330,N,Y,30.4769052,-84.2183869
MLS Listing,,Single Family Residential,3217 Jim Lee Rd,Tallahassee,FL,32301,299000,4,3.0,Kinsey Prop Unrec,2410,21344,1963,30,124,,Active,,,https://www.redfin.com/FL/Tallahassee/3217-Jim-Lee-Rd-32301/home/140109688,CATRS,365329,N,Y,30.4038643,-84.2635592
MLS Listing,,Single Family Residential,3242 Dungarvan Dr,Tallahassee,FL,32309,375000,4,2.0,KILLEARN ESTATES,2421,19602,1972,30,155,17,Active,,,https://www.redfin.com/FL/Tallahassee/3242-Dungarvan-Dr-32309/home/139284049,CATRS,365328,N,Y,30.524135,-84.1959886
MLS Listing,,Single Family Residential,6069 Thackeray Ln,Tallahassee,FL,32309,835000,4,2.5,NORTHSHIRE,3060,111077,1988,31,273,23,Active,,,https://www.redfin.com/FL/Tallahassee/6069-Thackeray-Ln-32309/home/139867704,CATRS,365274,N,Y,30.5467228,-84.1483366
MLS Listing,,Single Family Residential,3420 Robinhood Rd,Tallahassee,FL,32312,350000,4,2.5,NA,1854,24829,1980,31,189,,Active,,,https://www.redfin.com/FL/Tallahassee/3420-Robinhood-Rd-32312/home/139805673,CATRS,365297,N,Y,30.5054118,-84.2939337
MLS Listing,,Single Family Residential,3588 Pickett Ct,Tallahassee,FL,32311,270000,3,2.0,Rockbrook,1248,10890,1979,31,216,,Active,,,https://www.redfin.com/FL/Tallahassee/3588-Pickett-Ct-32311/home/139720550,CATRS,365318,N,Y,30.4307711,-84.2139435
MLS Listing,,Single Family Residential,1345 Williams Landing Rd,Tallahassee,FL,32310,425000,3,2.0,River Oak,1642,283140,2006,31,259,,Active,,,https://www.redfin.com/FL/Tallahassee/1345-Williams-Landing-Rd-32310/home/139673438,CATRS,365314,N,Y,30.4418506,-84.5190034
MLS Listing,,Single Family Residential,1819 Aaron Rd,Tallahassee,FL,32303,299900,3,2.0,Scenic Heights,1425,11325,1969,31,210,,Active,,,https://www.redfin.com/FL/Tallahassee/1819-Aaron-Rd-32303/home/140022591,CATRS,365305,N,Y,30.4672484,-84.3247243
MLS Listing,,Condo/Co-op,2520 Graves #103,Tallahassee,FL,32303,164500,3,3.0,Green Park at Graves,1216,435,2003,31,135,183,Active,,,https://www.redfin.com/FL/Tallahassee/2520-Graves-Rd-32303/unit-103/home/139744353,CATRS,365300,N,Y,30.4796657,-84.3131851
MLS Listing,,Single Family Residential,2408 Almond Dr,Tallahassee,FL,32303,239950,3,2.0,TERRENCE HEIGHTS,1055,10890,1966,31,227,,Active,,,https://www.redfin.com/FL/Tallahassee/2408-Almond-Dr-32303/home/139225663,CATRS,365296,N,Y,30.4748355,-84.2991557
MLS Listing,,Single Family Residential,2904 Oakwood Dr,Tallahassee,FL,32304,224900,3,2.0,Rexwood,1288,6969,1968,31,175,,Active,,,https://www.redfin.com/FL/Tallahassee/2904-Oakwood-Dr-32304/home/139499578,CATRS,365295,N,Y,30.4632432,-84.3399472
MLS Listing,,Single Family Residential,906 Dade St,Tallahassee,FL,32304,185000,2,1.0,SAXON NORTH-WEST ADD,750,6534,1945,31,247,,Active,,,https://www.redfin.com/FL/Tallahassee/906-Dade-St-32304/home/140084417,CATRS,365290,N,Y,30.4509824,-84.2969868
MLS Listing,,Single Family Residential,1636 Flint Ridge Ln,Tallahassee,FL,32312,261000,3,2.0,KILLEARN LAKES,1120,14810,1986,32,233,10,Active,,,https://www.redfin.com/FL/Tallahassee/1636-Flint-Ridge-Ln-32312/home/140062067,CATRS,365286,N,Y,30.5939761,-84.2461336
MLS Listing,,Single Family Residential,4765 Silent Crk,Tallahassee,FL,32303,294900,3,2.0,RIVERS LANDING,1278,5660,2023,32,231,25,Active,,,https://www.redfin.com/FL/Tallahassee/4765-Silent-Creek-Ln-32303/home/183181302,Stellar MLS as Distributed by MLS Grid,S5094273,N,Y,30.5242387,-84.3817764
MLS Listing,,Single Family Residential,3256 Garcia Dr,Tallahassee,FL,32309,299999,3,2.0,ARBOR HILLS,1478,9583,1987,32,203,,Active,,,https://www.redfin.com/FL/Tallahassee/3256-Garcia-Dr-32309/home/139207190,CATRS,365283,N,Y,30.5047295,-84.2203253
MLS Listing,,Single Family Residential,4621 Twin Oaks Dr,Tallahassee,FL,32305,199900,3,1.0,Oak Ridge South,1260,6534,1977,32,159,,Active,,,https://www.redfin.com/FL/Tallahassee/4621-Twin-Oak-Dr-32305/home/141038992,CATRS,365278,N,Y,30.3804598,-84.2798692
MLS Listing,,Single Family Residential,1518 Glenway Dr,Tallahassee,FL,32301,234000,3,1.5,HILLCREST,1241,11761,1961,32,189,,Active,,,https://www.redfin.com/FL/Tallahassee/1518-Glenway-Dr-32301/home/139418484,CATRS,365106,N,Y,30.4469238,-84.2567912
MLS Listing,,Multi-Family (2-4 Unit),4111 / 4115 Maxwell Blvd Unit -,Tallahassee,FL,32305,274900,4,4.0,Belair,816,,2004,32,337,,Active,,,https://www.redfin.com/FL/Tallahassee/4111-S-Maxwell-Blvd-32305/home/139826916,CATRS,365265,N,Y,30.3831085,-84.2716839
MLS Listing,,Single Family Residential,1715 Brookside Blvd,Tallahassee,FL,32301,295000,3,2.0,BLAIRSTONE FOREST,1451,10018,1997,32,203,67,Active,,,https://www.redfin.com/FL/Tallahassee/1715-Brookside-Blvd-32301/home/139215934,CATRS,365264,N,Y,30.4127513,-84.2569969
MLS Listing,,Single Family Residential,5707 Sioux Dr,Tallahassee,FL,32317,420000,4,2.0,SWIFT CREEK WOODS,2123,10890,2002,32,198,13,Active,,,https://www.redfin.com/FL/Tallahassee/5707-Sioux-Dr-32317/home/140051257,CATRS,365259,N,Y,30.447195,-84.1807885
MLS Listing,,Townhouse,1911 Hidden Vly,Tallahassee,FL,32308,220000,2,1.5,Hidden Valley,1100,5662,1983,32,200,7,Active,,,https://www.redfin.com/FL/Tallahassee/1911-Hidden-Vly-32308/home/139801846,CATRS,365247,N,Y,30.4761212,-84.2216732
MLS Listing,,Single Family Residential,2596 Green Crossing Dr,Tallahassee,FL,32309,375000,3,2.5,,2438,114127,1977,32,154,,Active,,,https://www.redfin.com/FL/Tallahassee/2596-Green-Crossing-Dr-32309/home/140064277,CATRS,365245,N,Y,30.5002076,-84.1640187
MLS Listing,,Condo/Co-op,2203 W Pensacola A4 St #4,Tallahassee,FL,32304,89900,1,1.0,PLANTATION CONDOMINIUMS,720,,1968,32,125,163,Active,,,https://www.redfin.com/FL/Tallahassee/2203-W-Pensacola-St-32304/unit-4/home/139145656,CATRS,365242,N,Y,30.439815,-84.3225255
MLS Listing,,Vacant Land,0 N Monroe St,Tallahassee,FL,32303,119000,,,-,,29185,,32,,,Active,,,https://www.redfin.com/FL/Tallahassee/0-N-Monroe-St-32303/home/185310889,CATRS,365234,N,Y,30.5047905,-84.3315295
MLS Listing,,Vacant Land,Lot 12 Charles Samuel Dr,Tallahassee,FL,32309,154900,,,COBLE FARMS UNREC,,51836,,33,,,Active,,,https://www.redfin.com/FL/Tallahassee/Lot-12-Charles-Samuel-Dr-32309/home/184410335,CATRS,365226,N,Y,30.5560918,-84.202895
MLS Listing,,Single Family Residential,8311 Freshwater Farms Rd,Tallahassee,FL,32309,2390000,4,3.5,Freshwater Farms Unrec,4316,1663120,1977,33,554,,Active,,,https://www.redfin.com/FL/Tallahassee/8311-Freshwater-Farms-Rd-32309/home/188142227,CATRS,365225,N,Y,30.5549423,-84.1339618
MLS Listing,,Single Family Residential,221 Lincoln St,Tallahassee,FL,32301,399000,5,4.0,Florida A & M,2028,14810,1975,33,197,,Active,,,https://www.redfin.com/FL/Tallahassee/221-Lincoln-St-32301/home/139827514,CATRS,365219,N,Y,30.4206198,-84.2840231
MLS Listing,,Single Family Residential,6129 Pisgah Ln,Tallahassee,FL,32309,870000,5,3.5,6 Lot LTD Partition,3549,130680,2017,33,245,17,Active,,,https://www.redfin.com/FL/Tallahassee/6129-Pisgah-Ln-32309/home/140194072,CATRS,365218,N,Y,30.552954,-84.169863
MLS Listing,,Single Family Residential,2111 Great Oak Dr,Tallahassee,FL,32303,275000,3,2.0,Holly Hills,1758,24829,1964,33,156,,Active,,,https://www.redfin.com/FL/Tallahassee/2111-Great-Oak-Dr-32303/home/139721395,CATRS,365210,N,Y,30.469669,-84.3082005
MLS Listing,,Single Family Residential,1423 N Duval St,Tallahassee,FL,32303,275000,2,1.0,LAKEVIEW,1240,7405,1940,33,222,,Active,,,https://www.redfin.com/FL/Tallahassee/1423-N-Duval-St-32303/home/139244638,CATRS,365199,N,Y,30.4587847,-84.2828304
MLS Listing,,Single Family Residential,8801 Green Oak Dr,Tallahassee,FL,32317,445000,4,3.0,Green Oaks of Chaires,2328,79714,1987,33,191,14,Active,,,https://www.redfin.com/FL/Tallahassee/8801-Green-Oak-Dr-32317/home/139810910,CATRS,365196,N,Y,30.443514,-84.1335574
MLS Listing,,Single Family Residential,2912 N Settlers Blvd,Tallahassee,FL,32303,289000,3,2.0,Settlers Springs,1524,10018,1984,33,190,,Active,,,https://www.redfin.com/FL/Tallahassee/2912-N-Settlers-Blvd-32303/home/139940251,CATRS,365050,N,Y,30.4900928,-84.3365183
MLS Listing,,Single Family Residential,2124 Atchena Nene,Tallahassee,FL,32301,349500,3,2.0,Indian Head Acres,1820,18295,1964,34,192,,Active,,,https://www.redfin.com/FL/Tallahassee/2124-Atchena-Nene-32301/home/139809503,CATRS,365174,N,Y,30.4191063,-84.2591981
MLS Listing,,Single Family Residential,1208 Claude Pichard Dr,Tallahassee,FL,32308,795000,4,4.0,Brockswood Park,2403,12196,2023,34,331,,Active,,,https://www.redfin.com/FL/Tallahassee/1208-Claude-Pichard-Dr-32308/home/188218705,CATRS,365068,N,Y,30.4539017,-84.2639253
MLS Listing,,Vacant Land,XXX Miccosukee Rd,Tallahassee,FL,32309,124900,,,,,304920,,34,,,Active,,,https://www.redfin.com/FL/Miccosukee/Miccosukee-Rd-32309/home/148471529,CATRS,365149,N,Y,30.569492,-84.066103
MLS Listing,,Vacant Land,Lot 8 Rhoden Hill Way,Tallahassee,FL,32312,229000,,,Rhoden Hill,,21780,,34,,,Active,,,https://www.redfin.com/FL/Tallahassee/Lot-8-Rhoden-Hill-Way-32312/home/174818462,CATRS,365146,N,Y,30.51402244,-84.28806876
MLS Listing,,Vacant Land,146 Sinclair Rd,Tallahassee,FL,32312,59900,,,WELLSWOOD,,17859,,35,,,Active,,,https://www.redfin.com/FL/Tallahassee/146-Sinclair-Rd-32312/home/188210637,CATRS,365135,N,Y,30.4837216,-84.2792087
MLS Listing,,Condo/Co-op,1325 Stone Rd,Tallahassee,FL,32303,234500,3,2.5,PARK AT STONEBRIAR CONDOMINIUM,1785,871,2005,35,131,235,Active,,,https://www.redfin.com/FL/Tallahassee/1325-Stone-Rd-32303/home/188204041,CATRS,365125,N,Y,30.4751654,-84.3056928
MLS Listing,,Single Family Residential,6574 Man O War Trl,Tallahassee,FL,32309,329000,3,2.0,KILLEARN ACRES,1437,13939,1981,37,229,,Active,,,https://www.redfin.com/FL/Tallahassee/6574-Man-O-War-Trl-32309/home/139755795,CATRS,365111,N,Y,30.5407334,-84.2104475
MLS Listing,,Single Family Residential,3417 Drury St,Tallahassee,FL,32305,228500,3,2.0,Campbell Park,1233,7405,2006,37,185,,Active,,,https://www.redfin.com/FL/Tallahassee/3417-Drury-St-32305/home/140120791,CATRS,365083,N,Y,30.3999946,-84.272013
MLS Listing,,Single Family Residential,3510 W Kilkenny Dr,Tallahassee,FL,32309,398000,4,2.5,Killearn Estates,2091,28314,1969,37,190,13,Active,,,https://www.redfin.com/FL/Tallahassee/3510-Kilkenny-W-32309/home/139288285,CATRS,365102,N,Y,30.5089577,-84.2399192
MLS Listing,,Single Family Residential,2132 Armistead Rd,Tallahassee,FL,32308,550000,4,3.0,BETTON HILLS,2247,23958,1970,37,245,,Active,,,https://www.redfin.com/FL/Tallahassee/2132-Armistead-Rd-32308/home/140075548,CATRS,365098,N,Y,30.4752525,-84.2615638
MLS Listing,,Single Family Residential,3745 Suffolk Dr,Tallahassee,FL,32309,540000,4,4.0,SHANNON FOREST,2842,19602,1975,38,190,,Active,,,https://www.redfin.com/FL/Tallahassee/3745-Suffolk-Dr-32309/home/139375761,CATRS,365091,N,Y,30.5174545,-84.2298143
MLS Listing,,Single Family Residential,2910 Bayshore Dr,Tallahassee,FL,32309,310000,3,2.0,Killearn Estates / Tree Harbor,1695,7840,1985,38,183,17,Active,,,https://www.redfin.com/FL/Tallahassee/2910-Bayshore-Dr-32309/home/139281817,CATRS,364800,N,Y,30.5307661,-84.2161257
MLS Listing,,Single Family Residential,2507 Chamberlin Dr,Tallahassee,FL,32308,435000,4,3.0,Betton Hill,2051,18730,1976,38,212,,Active,,,https://www.redfin.com/FL/Tallahassee/2507-Chamberlin-Dr-32308/home/139297740,CATRS,365090,N,Y,30.4749614,-84.2549396
MLS Listing,,Vacant Land,3512 Shirley Dr,Tallahassee,FL,32311,100000,,,-,,53578,,38,,,Active,,,https://www.redfin.com/FL/Tallahassee/3512-Shirley-Dr-32311/home/139190088,CATRS,365084,N,Y,30.431799,-84.215227
MLS Listing,,Vacant Land,1039 Shirley Dr,Tallahassee,FL,32311,50000,,,-,,17859,,38,,,Active,,,https://www.redfin.com/FL/Tallahassee/1039-Shirley-Dr-32311/home/139729556,CATRS,365082,N,Y,30.431581,-84.214451
MLS Listing,,Vacant Land,0 Shirley Dr,Tallahassee,FL,32311,50000,,,-,,17859,,38,,,Active,,,https://www.redfin.com/FL/Tallahassee/Shirley-Dr-32311/home/139729103,CATRS,365081,N,Y,30.431709,-84.214825
MLS Listing,,Single Family Residential,1317 N M L King Jr Blvd,Tallahassee,FL,32303,499000,3,2.5,Lakeview addition,1952,10018,2021,38,256,,Active,,,https://www.redfin.com/FL/Tallahassee/1317-N-M-L-King-Jr-Blvd-32303/home/174814944,CATRS,365063,N,Y,30.457025,-84.285204
MLS Listing,,Single Family Residential,930 Old Farm Rd,Tallahassee,FL,32317,1200000,4,4.5,,3581,481338,2021,38,335,83,Active,,,https://www.redfin.com/FL/Tallahassee/930-Old-Farm-Rd-32317/home/139670702,CATRS,364935,N,Y,30.461196,-84.1184034
MLS Listing,,Condo/Co-op,2403 Hartsfield Rd #604,Tallahassee,FL,32303,169000,3,3.0,Hartsfield Green Condominium,1216,435,2004,38,139,195,Active,,,https://www.redfin.com/FL/Tallahassee/2403-Hartsfield-Rd-32303/unit-604/home/139748640,CATRS,365060,N,Y,30.4726321,-84.3276591
MLS Listing,,Single Family Residential,133 Bienville Pl,Tallahassee,FL,32308,536374,4,2.5,Fallschase,2572,7405,2023,38,209,25,Active,,,https://www.redfin.com/FL/Tallahassee/133-Bienville-Pl-32308/home/188191175,CATRS,365058,N,Y,30.457184,-84.2082635
MLS Listing,,Single Family Residential,2113 Trescott Dr,Tallahassee,FL,32308,850000,4,3.5,Betton Hills,3740,30927,1954,38,227,,Active,,,https://www.redfin.com/FL/Tallahassee/2113-Trescott-Dr-32308/home/139975258,CATRS,365052,N,Y,30.4694236,-84.2636209
MLS Listing,,Single Family Residential,2894 Fontana St,Tallahassee,FL,32308,374500,3,2.5,Canopy,1554,3484,2019,39,241,6,Active,,,https://www.redfin.com/FL/Tallahassee/2894-Fontana-St-32308/home/170266433,CATRS,365047,N,Y,30.4870388,-84.220737
MLS Listing,,Single Family Residential,10038 Journeys End,Tallahassee,FL,32312,1250000,4,3.5,JOURNEYS END,3093,111949,2023,39,404,10,Active,,,https://www.redfin.com/FL/Tallahassee/10038-Journeys-End-32312/home/139615968,CATRS,365045,N,Y,30.618487,-84.242028
MLS Listing,,Townhouse,2007 Fannie Dr Unit -,Tallahassee,FL,32304,186500,3,2.5,Trimfan,1296,3484,2005,39,144,,Active,,,https://www.redfin.com/FL/Tallahassee/2007-Fannie-Dr-32303/home/139748753,CATRS,365042,N,Y,30.4681355,-84.3365617
MLS Listing,,Single Family Residential,2915 Huntington Dr,Tallahassee,FL,32308,425000,5,3.5,Woodgate,2626,13068,1973,39,162,,Active,,,https://www.redfin.com/FL/Tallahassee/2915-Huntington-Dr-32308/home/140063247,CATRS,365040,N,Y,30.4804983,-84.250331
MLS Listing,,Single Family Residential,4912 Pimlico Dr,Tallahassee,FL,32309,299000,3,2.0,Killearn Acres,1398,11325,1986,39,214,,Active,,,https://www.redfin.com/FL/Tallahassee/4912-Pimlico-Dr-32309/home/139880839,CATRS,365039,N,Y,30.5360289,-84.2024134
MLS Listing,,Vacant Land,2134 Filmore Rd,Tallahassee,FL,32305,49995,,,ACREAGE & UNREC,,87120,,39,,,Active,,,https://www.redfin.com/FL/Tallahassee/2134-Filmore-Rd-32305/home/139956273,Stellar MLS as Distributed by MLS Grid,O6152835,N,Y,30.3034032,-84.2413185
MLS Listing,,Townhouse,2786 Blair Stone Ct,Tallahassee,FL,32301,195000,3,2.5,BLAIRSTONE TWNHS,1680,4356,1974,39,116,125,Active,,,https://www.redfin.com/FL/Tallahassee/2786-Blair-Stone-Ct-32301/home/140112861,Stellar MLS as Distributed by MLS Grid,A4587107,N,Y,30.4205535,-84.2514789
MLS Listing,,Single Family Residential,2812 Duffton Loop,Tallahassee,FL,32303,274900,3,2.0,Huntington Woods,1638,12632,1975,39,168,,Active,,,https://www.redfin.com/FL/Tallahassee/2812-Duffton-Loop-32303/home/139944983,CATRS,365023,N,Y,30.4808977,-84.3385317
MLS Listing,,Vacant Land,0 Wild Berry Ln,Tallahassee,FL,32305,40000,,,Southwind Pines,,36590,,39,,,Active,,,https://www.redfin.com/FL/Tallahassee/Wild-Berry-Ln-32305/home/139769736,CATRS,365016,N,Y,30.326293,-84.296203
MLS Listing,,Vacant Land,8364 Wild Berry Ln,Tallahassee,FL,32305,40000,,,Southwind Pines,,36590,,39,,,Active,,,https://www.redfin.com/FL/Tallahassee/8364-Wild-Berry-Ln-32305/home/139194300,CATRS,365014,N,Y,30.325819,-84.296206
MLS Listing,,Single Family Residential,1967 Rob Way,Tallahassee,FL,32303,243000,3,2.0,RACQUET CLUB THE,1250,7405,1991,39,194,13,Active,,,https://www.redfin.com/FL/Tallahassee/1967-Rob-Way-32303/home/139945453,CATRS,365006,N,Y,30.4700094,-84.3315051
MLS Listing,,Single Family Residential,2652 Nantucket Ln,Tallahassee,FL,32309,325000,3,2.0,KINSAIL Unit 1,1376,4791,1993,40,236,42,Active,,,https://www.redfin.com/FL/Tallahassee/2652-Nantucket-Ln-32309/home/139702494,CATRS,364995,N,Y,30.5349057,-84.220446
MLS Listing,,Vacant Land,0 Jackson View Dr,Tallahassee,FL,32303,589000,,,Harbinwood North,,1131253,,40,,,Active,,,https://www.redfin.com/FL/Tallahassee/Jackson-View-Dr-32303/home/139210987,CATRS,364970,N,Y,30.52285209,-84.33025269
MLS Listing,,Single Family Residential,3239 Sharer Rd,Tallahassee,FL,32312,310000,3,2.0,KIRKWOOD,1594,20908,1971,40,194,,Active,,,https://www.redfin.com/FL/Tallahassee/3239-Sharer-Rd-32312/home/139386765,CATRS,364969,N,Y,30.4997914,-84.2945917
MLS Listing,,Townhouse,1908 Hidden Vly,Tallahassee,FL,32308,220000,2,2.0,HIDDEN VALLEY UNRECORDED,1056,5662,1984,40,208,7,Active,,,https://www.redfin.com/FL/Tallahassee/1908-Hidden-Vly-32308/home/139879413,CATRS,364965,N,Y,30.4757866,-84.2221751
MLS Listing,,Single Family Residential,1966 Setting Sun Trl,Tallahassee,FL,32303,375000,3,2.0,Hartfield Plantation,1709,17424,1991,40,219,9,Active,,,https://www.redfin.com/FL/Tallahassee/1966-Setting-Sun-Trl-32303/home/139790989,CATRS,364961,N,Y,30.4843915,-84.3265532
MLS Listing,,Mobile/Manufactured Home,8279 Wakulla Springs Rd,Tallahassee,FL,32305,219900,3,2.0,,1380,40075,2023,40,159,,Active,,,https://www.redfin.com/FL/Tallahassee/8279-Wakulla-Springs-Rd-32305/home/139946916,CATRS,364957,N,Y,30.327869,-84.310817
MLS Listing,,Multi-Family (2-4 Unit),1244 Continental Ct #1244,Tallahassee,FL,32304,436380,4,4.0,Continental Court Townhouses,640,,1982,41,682,,Active,,,https://www.redfin.com/FL/Tallahassee/1244-Continental-Ct-32304/unit-1244/home/188167362,CATRS,364956,N,Y,30.4546611,-84.3190518
MLS Listing,,Single Family Residential,3624 Barbary Dr,Tallahassee,FL,32309,349500,4,3.0,Shannon Forest,2533,37897,1979,41,138,,Active,,,https://www.redfin.com/FL/Tallahassee/3624-Barbary-Dr-32309/home/139690746,CATRS,364740,N,Y,30.5152482,-84.2341569
MLS Listing,,Single Family Residential,7009 Foxglove Ln,Tallahassee,FL,32312,329995,3,2.5,KILLEARN LAKE UN 1,1950,20473,1977,41,169,,Active,,,https://www.redfin.com/FL/Tallahassee/7009-Foxglove-Ln-32312/home/139694209,Stellar MLS as Distributed by MLS Grid,A4587040,N,Y,30.5655883,-84.2202018
MLS Listing,,Single Family Residential,1833 Wales Dr,Tallahassee,FL,32303,245000,3,2.5,Astoria Park,1464,9583,1971,41,167,,Active,,,https://www.redfin.com/FL/Tallahassee/1833-Wales-Dr-32303/home/139236256,CATRS,364955,N,Y,30.476581,-84.319669
MLS Listing,,Single Family Residential,7746 Mcclure Dr,Tallahassee,FL,32312,449900,1,1.0,MCBRIDE HILLS UNREC,540,295772,1987,41,833,,Active,,,https://www.redfin.com/FL/Tallahassee/7746-McClure-Dr-32312/home/139385252,CATRS,364953,N,Y,30.5672163,-84.2387668
MLS Listing,,Single Family Residential,605 Lothian Dr,Tallahassee,FL,32312,695000,5,3.0,Waverly Hills,3127,24393,1957,41,222,,Active,,,https://www.redfin.com/FL/Tallahassee/605-Lothian-Dr-32312/home/139995040,CATRS,364936,N,Y,30.4845669,-84.2745633
MLS Listing,,Vacant Land,8920 Hickory Woods Trl,Tallahassee,FL,32312,137999,,,ACREAGE & UNREC,,131116,,41,,50,Active,,,https://www.redfin.com/FL/Tallahassee/8920-Hickory-Woods-Trl-32312/home/188162167,Stellar MLS as Distributed by MLS Grid,A4586920,N,Y,30.5929094,-84.2761482
MLS Listing,,Vacant Land,5485 Maria Ash Pl,Tallahassee,FL,32311,60000,,,not,,282704,,41,,,Active,,,https://www.redfin.com/FL/Tallahassee/5485-Maria-Ash-Pl-32311/home/139216549,CATRS,364931,N,Y,30.387427,-84.104018
MLS Listing,,Vacant Land,0 Shiloh Way,Tallahassee,FL,32309,129900,,,Shiloh Unrec,,74923,,41,,,Active,,,https://www.redfin.com/FL/Tallahassee/Shiloh-Way-W-32308/home/174825107,CATRS,364929,N,Y,30.53688152,-84.16271073
MLS Listing,,Single Family Residential,5512 Westview Ln,Tallahassee,FL,32310,209900,4,2.0,Pineridge Estates,1925,14374,1977,41,109,,Active,,,https://www.redfin.com/FL/Tallahassee/5512-Westview-Ln-32310/home/139257624,CATRS,364924,N,Y,30.4264495,-84.3700691
MLS Listing,,Single Family Residential,2984 Compton Ct,Tallahassee,FL,32309,475000,4,3.5,Wellington Park Phase I,2554,20037,1992,42,186,15,Active,,,https://www.redfin.com/FL/Tallahassee/2984-Compton-Ct-32309/home/139920847,CATRS,364917,N,Y,30.538536,-84.2185137
MLS Listing,,Vacant Land,00 Robinson Oak Dr Lot 3A,Tallahassee,FL,32303,50000,,,TALLAHASSEE,,43560,,42,,,Active,,,https://www.redfin.com/FL/Tallahassee/Robinson-Oak-Dr-32303/unit-3A/home/188157979,CATRS,364908,N,Y,30.48326934,-84.35748248
MLS Listing,,Single Family Residential,2010 Indian Springs Ct,Tallahassee,FL,32303,369900,4,2.0,Hartsfield Plantation,2080,28314,1996,42,178,9,Active,,,https://www.redfin.com/FL/Tallahassee/2010-Indian-Springs-Ct-32303/home/139428381,CATRS,364846,N,Y,30.4855494,-84.3299846
MLS Listing,,Single Family Residential,4312 Cool Emerald Dr,Tallahassee,FL,32303,320000,3,2.5,LAKESIDE,1916,6098,1995,42,167,7,Active,,,https://www.redfin.com/FL/Tallahassee/4312-Cool-Emerald-Dr-32303/home/139900704,CATRS,364892,N,Y,30.5232128,-84.3578374
MLS Listing,,Townhouse,2263 Shady Timbers Cir Unit B,Tallahassee,FL,32304,148000,2,1.5,TIMBERS,987,1306,1980,42,150,13,Active,,,https://www.redfin.com/FL/Tallahassee/2263-Shady-Timbers-Cir-32304/unit-B/home/139431866,CATRS,364889,N,Y,30.4509667,-84.3245195
MLS Listing,,Vacant Land,XXX Peggy Dr,Tallahassee,FL,32305,35000,,,Annawood,,10890,,42,,,Active,,,https://www.redfin.com/FL/Tallahassee/Peggy-Dr-32305/home/140195548,CATRS,364886,N,Y,30.384471,-84.267461
MLS Listing,,Single Family Residential,3605 Meadow Vista Ln,Tallahassee,FL,32308,320820,3,2.5,Canopy,1280,3484,2023,42,251,15,Active,,,https://www.redfin.com/FL/Tallahassee/3605-Meadow-Hill-Rd-32308/home/188150482,CATRS,364883,N,Y,30.48380792,-84.21282879
MLS Listing,,Single Family Residential,505 Coldstream Dr,Tallahassee,FL,32312,350000,3,2.0,Waverly Hills,1510,27878,1958,42,232,,Active,,,https://www.redfin.com/FL/Tallahassee/505-Coldstream-Dr-32312/home/139207496,CATRS,364537,N,Y,30.4798048,-84.2743576
MLS Listing,,Single Family Residential,11124 Regiment Loop,Tallahassee,FL,32305,225000,4,2.0,Natural Bridge Acres,1741,226512,1977,43,129,,Active,,,https://www.redfin.com/FL/Tallahassee/11124-Regiment-Loop-32305/home/139475049,CATRS,364873,N,Y,30.2896341,-84.1564357
MLS Listing,,Vacant Land,2049 E Oak Ridge Rd,Tallahassee,FL,32305,27000,,,,,21780,,43,,,Active,,,https://www.redfin.com/FL/Tallahassee/2049-Oak-Ridge-Rd-E-32305/home/139803518,CATRS,364870,N,Y,30.3211543,-84.2427178
MLS Listing,,Vacant Land,XXX Mexico Ln,Tallahassee,FL,32301,40000,,,,,23522,,44,,,Active,,,https://www.redfin.com/FL/Tallahassee/Mexico-Ln-32301/home/139815554,CATRS,364863,N,Y,30.417261,-84.270134
MLS Listing,,Single Family Residential,2604 Napoleon Bonaparte Dr,Tallahassee,FL,32308,515000,3,3.0,Lafayette Oaks,2879,47044,1981,44,179,42,Active,,,https://www.redfin.com/FL/Tallahassee/2604-Napoleon-Bonaparte-Dr-32308/home/139867730,CATRS,364855,N,Y,30.4880229,-84.1851077
MLS Listing,,Single Family Residential,613 Knotted Pine Dr,Tallahassee,FL,32312,605170,4,3.5,HAMMOCK at OAK GROVE,2146,9147,2024,44,282,90,Active,,,https://www.redfin.com/FL/Tallahassee/613-Knotted-Pine-Dr-32312/home/188774173,CATRS,364842,N,Y,30.5818321,-84.2695568
MLS Listing,,Townhouse,2577 Chandalar Ln,Tallahassee,FL,,239000,3,2.5,WOODRUN GARDEN HOMES,1579,10890,2007,45,151,,Active,,,https://www.redfin.com/FL/Tallahassee/2577-Chandalar-Ln-32311/home/139430792,CATRS,364833,N,Y,30.41337,-84.142823
MLS Listing,,Vacant Land,xxx Vinnedge Ride,Tallahassee,FL,32303,259000,,,DURWARD 2ND 3RD 4TH & 5TH,,23958,,45,,,Active,,,https://www.redfin.com/FL/Tallahassee/Vinnedge-Ride-32303/home/181273460,CATRS,364827,N,Y,30.47404003,-84.27445324
MLS Listing,,Single Family Residential,881 Stone House Rd,Tallahassee,FL,32301,220000,3,2.0,CAMELOT PARK,1292,10890,1989,45,170,,Active,,,https://www.redfin.com/FL/Tallahassee/881-Stone-House-Rd-32301/home/140082801,Stellar MLS as Distributed by MLS Grid,A4586601,N,Y,30.4346623,-84.2380671
MLS Listing,,Multi-Family (2-4 Unit),306 S Lipona Rd Unit -,Tallahassee,FL,32304,2160000,24,24.0,Prince Murat Hills,11808,,2005,45,183,,Active,,,https://www.redfin.com/FL/Tallahassee/306-S-Lipona-Rd-32304/Unit/home/188135530,CATRS,364820,N,Y,30.4370606,-84.3149094
MLS Listing,,Vacant Land,821 Pine Bluff Trl,Tallahassee,FL,32312,399000,,,RIVERS EDGE,,494841,,45,,,Active,,,https://www.redfin.com/FL/Tallahassee/821-Pine-Bluff-Trl-32312/home/140180223,CATRS,364816,N,Y,30.676247,-84.290509
