SALE TYPE,SOLD DATE,PROPERTY TYPE,ADDRESS,CITY,STATE OR PROVINCE,ZIP OR POSTAL CODE,PRICE,BEDS,BATHS,LOCATION,SQUARE FEET,LOT SIZE,YEAR BUILT,DAYS ON MARKET,$/SQUARE FEET,HOA/MONTH,STATUS,NEXT OPEN HOUSE START TIME,NEXT OPEN HOUSE END TIME,URL (SEE https://www.redfin.com/buy-a-home/comparative-market-analysis FOR INFO ON PRICING),SOURCE,MLS#,FAVORITE,INTERESTED,LATITUDE,LONGITUDE
"In accordance with local MLS rules, some MLS listings are not included in the download"
MLS Listing,,Single Family Residential,126 Pueblo St,Tavernier,FL,33070,1275000,3,2.0,INDIAN HARBOR,2597,6600,1989,1,491,13,Active,,,https://www.redfin.com/FL/Tavernier/126-Pueblo-St-33070/home/139420625,MARMLS,A11495030,N,Y,24.9852099,-80.5488148
MLS Listing,,Single Family Residential,113 Oleander Cir,Key Largo,FL,33037,4500000,4,4.5,Key Largo Beach Addition,2507,15375,1999,1,1795,,Active,,,https://www.redfin.com/FL/Key-Largo/113-Oleander-Cir-33037/home/139490596,FLKMLS,607660,N,Y,25.0861798,-80.4347601
MLS Listing,,Condo/Co-op,413 Porter Ln,Key West,FL,33040,1475000,2,2.5,Porter Court,1036,,1991,1,1424,1267,Active,,,https://www.redfin.com/FL/Key-West/413-Porter-Ln-33040/home/186305543,FLKMLS,607659,N,Y,24.554624,-81.805759
MLS Listing,,Vacant Land,31112 Hollerich Dr,Big Pine Key,FL,33043,490000,,,Hollerich Sub,,5400,,1,,,Active,,,https://www.redfin.com/FL/Big-Pine-Key/31112-Hollerich-Dr-33043/home/139676748,FLKMLS,607658,N,Y,24.6765168,-81.3463656
MLS Listing,,Single Family Residential,207 Russell St,Upper Matecumbe Key Islamorada,FL,33036,1495000,3,2.0,Coral View,1424,8100,1963,2,1050,,Active,,,https://www.redfin.com/FL/Islamorada/207-Russell-St-33036/home/139373298,FLKMLS,607656,N,Y,24.9340139,-80.6188373
MLS Listing,,Condo/Co-op,101 Gulfview Dr #308,Lower Matecumbe,FL,33036,1895000,3,2.5,Bay Harbour,2026,,2003,2,935,2087,Active,,,https://www.redfin.com/FL/Islamorada/101-Gulfview-Dr-33036/unit-308/home/139657277,FLKMLS,607657,N,Y,24.8574391,-80.7294539
MLS Listing,,Single Family Residential,6 Cypress Ave,Key Haven,FL,33040,3399000,3,2.5,Key Haven 7th Add,2144,6000,2020,2,1585,,Active,,,https://www.redfin.com/FL/Key-West/6-Cypress-Ave-33040/home/139632316,FLKMLS,607654,N,Y,24.5820238,-81.7380411
MLS Listing,,Single Family Residential,10 Cormorant Ln,Geiger Key,FL,33040,1450000,3,3.0,Boca Chica Ocean Shr,2562,13000,1973,2,566,,Active,,,https://www.redfin.com/FL/Key-West/10-Cormorant-Ln-33040/home/139487151,FLKMLS,607655,N,Y,24.5834647,-81.6498075
MLS Listing,,Single Family Residential,150 Valencia Dr,Plantation Key,FL,33036,2800000,2,2.0,Venetian Shores,990,10000,1971,2,2828,13,Active,,,https://www.redfin.com/FL/Islamorada/150-Valencia-Dr-33036/home/139546306,FLKMLS,607653,N,Y,24.9570907,-80.587391
MLS Listing,,Single Family Residential,164 Tortuga Ln,Cudjoe Key,FL,33042,1499000,3,2.0,Cudjoe Cove,1600,6000,1990,2,937,,Active,,,https://www.redfin.com/FL/Cudjoe-Key/164-Tortuga-Ln-33042/home/139521515,FLKMLS,607652,N,Y,24.6624738,-81.4844711
MLS Listing,,Single Family Residential,850 E 105th Street Ocean,Marathon,FL,33050,1450000,4,3.0,"Palms, The",2152,4306,2009,2,674,,Active,,,https://www.redfin.com/FL/Marathon/850-105th-Street-Ocean-E-33050/home/139476694,FLKMLS,607651,N,Y,24.7255916,-81.0401579
MLS Listing,,Condo/Co-op,15 Sombrero Blvd Unit 108W,Marathon,FL,33050,359000,1,1.0,Marathon Country C W,685,,1972,2,524,620,Active,,,https://www.redfin.com/FL/Marathon/15-Sombrero-Blvd-33050/unit-108W/home/139650737,FLKMLS,607650,N,Y,24.7130462,-81.0795619
MLS Listing,,Single Family Residential,322 Elizabeth St,Key West,FL,33040,3400000,3,3.0,Old Town - Unrecord,2446,4269,1924,2,1390,,Active,,,https://www.redfin.com/FL/Key-West/322-Elizabeth-St-33040/home/139170055,FLKMLS,607649,N,Y,24.5588219,-81.8016294
MLS Listing,,Single Family Residential,31011 Avenue C,Big Pine Key,FL,33043,725000,4,2.0,Sands Sub,1566,5000,2003,3,463,,Active,,,https://www.redfin.com/FL/Big-Pine-Key/31011-Avenue-C-33043/home/139510997,FLKMLS,607648,N,Y,24.6711307,-81.3479124
MLS Listing,,Single Family Residential,205 S Point Dr,Sugarloaf Key,FL,33042,2375000,5,4.0,Sugarloaf Shores,2772,12500,1985,3,857,,Active,,,https://www.redfin.com/FL/Sugarloaf-Key/205-S-Point-Dr-33042/home/139586420,FLKMLS,607647,N,Y,24.6406743,-81.5683403
MLS Listing,,Single Family Residential,96 W Plaza Del Sol,Lower Matecumbe,FL,33036,4450000,4,4.0,Port Antigua,3004,8500,2019,3,1481,42,Active,,,https://www.redfin.com/FL/Islamorada/96-W-Plaza-del-Sol-33036/home/139578780,FLKMLS,607646,N,Y,24.8617945,-80.7304283
MLS Listing,,Single Family Residential,255 Mars Ln,Geiger Key,FL,33040,948000,3,2.5,Geiger Mobile Home,1536,5196,2007,3,617,,Active,,,https://www.redfin.com/FL/Key-West/255-Mars-Ln-33040/home/139610913,FLKMLS,607645,N,Y,24.5800973,-81.6554256
MLS Listing,,Single Family Residential,163 Fontaine Dr,Islamorada,FL,33070,2195000,3,2.0,FONTAINE LAKE ESTATES,2669,14500,2001,3,822,,Active,,,https://www.redfin.com/FL/Tavernier/163-Fontaine-Dr-33070/home/139421115,MARMLS,A11493477,N,Y,24.9959179,-80.5353588
MLS Listing,,Single Family Residential,81801 Overseas Hwy #727,Upper Matecumbe Key Islamorada,FL,33036,680000,1,1.0,Strattons,358,,1988,3,1899,1768,Active,,,https://www.redfin.com/FL/Islamorada/81801-Overseas-Hwy-33036/unit-727/home/139597264,FLKMLS,607644,N,Y,24.916243,-80.6347982
MLS Listing,,Single Family Residential,9 Bamboo Ter,Key Haven,FL,33040,2200000,3,3.0,Key Haven 5th Add,1968,7850,1966,3,1118,,Active,,,https://www.redfin.com/FL/Key-West/9-Bamboo-Ter-33040/home/139585585,FLKMLS,607643,N,Y,24.5808331,-81.7356473
MLS Listing,,Condo/Co-op,1101 W Ocean Dr #30,Key Colony,FL,33051,429000,2,2.0,Sea Isle Condominium,990,,1973,3,433,733,Active,,,https://www.redfin.com/FL/Key-Colony-Beach/1101-W-Ocean-Dr-33051/unit-30/home/176146992,FLKMLS,607642,N,Y,24.7173887,-81.023209
MLS Listing,,Single Family Residential,713 Grouper Ln,Key Largo,FL,33037,2850000,5,6.0,Sunrise Point (95.0),,,2007,3,,,Active,December-4-2023 10:00 AM,December-4-2023 02:00 PM,https://www.redfin.com/FL/Key-Largo/713-Grouper-Ln-33037/home/139446453,MARMLS,A11494620,N,Y,25.0452065,-80.4873768
MLS Listing,,Single Family Residential,1037 82nd St,Marathon,FL,33050,2100000,4,4.5,Marathon,2160,7405,2021,3,972,,Active,,,https://www.redfin.com/FL/Marathon/1037-82nd-Street-Ocean-33050/home/139568662,NAPLESMLS,223089240,N,Y,24.72,-81.0559209
MLS Listing,,Single Family Residential,183 Orlando Dr,Plantation Key,FL,33036,1150000,3,3.0,Key Heights,1596,7200,1987,3,721,,Active,,,https://www.redfin.com/FL/Islamorada/183-Plantation-Blvd-33036/home/139690641,FLKMLS,607641,N,Y,24.9689363,-80.5635705
MLS Listing,,Single Family Residential,76200 Overseas Hwy,Lower Matecumbe,FL,33036,2995000,2,2.0,Misc Lower Matacumbe,1361,14400,1958,3,2201,,Active,,,https://www.redfin.com/FL/Islamorada/76200-Overseas-Hwy-33036/home/139152267,FLKMLS,607640,N,Y,24.8708841,-80.7060431
MLS Listing,,Single Family Residential,171 Bougainvillea St,Tavernier,FL,33070,3389000,5,4.5,PLANTATION KEY COLONY REV,3355,6600,2018,3,1010,,Active,,,https://www.redfin.com/FL/Tavernier/171-Bougainvillea-St-33070/home/139315273,MARMLS,A11494097,N,Y,24.9986683,-80.5432156
MLS Listing,,Condo/Co-op,104500 Overseas Hwy Unit B401,Key Largo,FL,33037,969999,3,2.0,TAMARIND BAY CLUB CONDOMI,1577,,1981,3,615,784,Active,,,https://www.redfin.com/FL/Key-Largo/104500-Overseas-Hwy-33037/unit-B401/home/139506453,MARMLS,A11494557,N,Y,25.151328,-80.392844
MLS Listing,,Condo/Co-op,500 Burton Dr #2212,Key Largo,FL,33070,637500,2,2.0,Ocean Pointe,826,3005640,1991,3,772,1087,Active,,,https://www.redfin.com/FL/Tavernier/500-Burton-Dr-33070/unit-2212/home/139639122,FLKMLS,607638,N,Y,25.020931,-80.5048665
MLS Listing,,Condo/Co-op,104350 Overseas Hwy Unit A501,Key Largo,FL,33037,985000,2,1.5,MOON BAY,947,,1976,3,1040,1920,Active,,,https://www.redfin.com/FL/Key-Largo/104350-Overseas-Hwy-33037/unit-A501/home/139555334,MARMLS,A11492823,N,Y,25.1484054,-80.3948952
MLS Listing,,Single Family Residential,104160 Overseas Hwy,Key Largo,FL,33037,5500000,3,4.5,Baywood,2797,28250,2018,3,1966,,Active,,,https://www.redfin.com/FL/Key-Largo/104160-Overseas-Hwy-33037/home/139424690,FLKMLS,607635,N,Y,25.1464124,-80.3959823
MLS Listing,,Vacant Land,94825 Overseas Hwy 26,Key Largo,FL,33037,435000,,,KEY LARGO OCEAN RESORT CO,,1632,,3,,,Active,,,https://www.redfin.com/FL/Key-Largo/94825-Overseas-Hwy-33037/unit-26/home/139642408,MARMLS,A11494370,N,Y,25.043697,-80.489776
MLS Listing,,Single Family Residential,241 W Indies Dr,Ramrod Key,FL,33042,1900000,4,3.0,Breezeswept Bch Est,2008,9090,2021,3,946,,Active,,,https://www.redfin.com/FL/Summerland-Key/241-W-Indies-Dr-33042/home/139637242,FLKMLS,607633,N,Y,24.65944,-81.403001
MLS Listing,,Townhouse,101 Front St #18,Key West,FL,33040,1450000,2,2.5,The Foundry,1216,780,1995,3,1192,471,Active,,,https://www.redfin.com/FL/Key-West/101-Front-St-33040/unit-18/home/139247439,FLKMLS,607631,N,Y,24.5554082,-81.8067688
MLS Listing,,Vacant Land,Lot 16 Avon Ave,Little Torch Key,FL,33042,89000,,,Torch Key Estates,,5000,,3,,,Active,,,https://www.redfin.com/FL/Unknown/Lot-16-Avon-Ave-33042/home/188785605,FLKMLS,607629,N,Y,24.680666,-81.396002
MLS Listing,,Single Family Residential,17398 E Dolphin St,Sugarloaf Key,FL,33042,3200000,4,3.0,Sugarloaf Shores,2404,22975,2021,3,1331,,Active,,,https://www.redfin.com/FL/Sugarloaf-Key/17398-Dolphin-St-33042/home/168047874,FLKMLS,607630,N,Y,24.6366435,-81.5502798
MLS Listing,,Single Family Residential,116 Poinciana Dr,Key Largo,FL,33037,899000,2,2.0,Holiday Hmestes,1012,11250,1973,3,888,,Active,,,https://www.redfin.com/FL/Key-Largo/116-Poinciana-Dr-33037/home/139589972,FLKMLS,607628,N,Y,25.0971373,-80.4353685
MLS Listing,,Single Family Residential,70 Bay Dr,Saddlebunch,FL,33040,2849000,5,2.0,Bay Point Amd & 1st,2450,7385,1993,3,1163,,Active,,,https://www.redfin.com/FL/Key-West/70-Bay-Dr-33040/home/139664139,FLKMLS,607627,N,Y,24.619586,-81.592392
MLS Listing,,Condo/Co-op,1800 Atlantic Blvd Unit 214A,Key West,FL,33040,1075000,2,2.0,1800 Atlantic,1357,,1984,3,792,1413,Active,,,https://www.redfin.com/FL/Key-West/1800-Atlantic-Blvd-33040/unit-A214/home/139557182,FLKMLS,607625,N,Y,24.5509826,-81.7776127
MLS Listing,,Condo/Co-op,1101 W Ocean Dr #23,Key Colony,FL,33051,488000,2,2.0,Sea Isle Condominium,990,,1973,3,493,733,Active,,,https://www.redfin.com/FL/Key-Colony-Beach/1101-W-Ocean-Dr-33051/unit-23/home/176153776,FLKMLS,607620,N,Y,24.7173887,-81.023209
MLS Listing,,Single Family Residential,544 30th Ocean St,Marathon,FL,33050,1350000,3,3.0,Marathon,1797,8000,1975,3,751,,Active,,,https://www.redfin.com/FL/Marathon/544-30th-Street-Ocean-33050/home/139473269,SCMLS,980788,N,Y,24.709,-81.096217
MLS Listing,,Single Family Residential,20 Shore,Big Coppitt,FL,33040,899000,2,2.0,Coppitt Sub Amd,1513,12150,1953,4,594,,Active,,,https://www.redfin.com/FL/Big-Coppitt-Key/20-Shore-33040/home/188781162,FLKMLS,607624,N,Y,24.594302,-81.666694
MLS Listing,,Single Family Residential,811 Bonito Ln,Key Largo,FL,33037,1775000,3,2.0,Sunrise Point,1280,6630,1989,4,1387,,Active,,,https://www.redfin.com/FL/Key-Largo/811-Bonito-Ln-33037/home/139138533,FLKMLS,607623,N,Y,25.0457555,-80.4866384
MLS Listing,,Single Family Residential,2697 Sombrero Blvd,Marathon,FL,33050,2475000,3,2.0,Sombrero Properties,1524,11850,1989,4,1624,,Active,,,https://www.redfin.com/FL/Marathon/2697-Sombrero-Blvd-33050/home/139263512,FLKMLS,607622,N,Y,24.7048258,-81.0847574
MLS Listing,,Single Family Residential,116 Coral Ave,Plantation Key,FL,33070,995000,6,4.0,Edenaire,2400,5500,1982,4,415,21,Active,,,https://www.redfin.com/FL/Plantation-Key/116-Coral-AVE-33036/home/176151853,FLKMLS,607621,N,Y,25.005936,-80.535551
MLS Listing,,Mobile/Manufactured Home,701 Spanish Main Dr #48,Cudjoe Key,FL,33042,859900,2,2.0,Venture Out,849,1950,1992,4,1013,340,Active,,,https://www.redfin.com/FL/Cudjoe-Key/701-Spanish-Main-Dr-33042/unit-48/home/139551030,FLKMLS,607618,N,Y,24.6541106,-81.4735653
MLS Listing,,Mobile/Manufactured Home,357 King Ave,Key Largo,FL,33037,1099000,3,3.5,Key Largo Mob Homesites,1600,6300,1972,4,687,,Active,,,https://www.redfin.com/FL/Key-Largo/357-King-Ave-33037/home/139590268,FLKMLS,607619,N,Y,25.149742,-80.386546
MLS Listing,,Mobile/Manufactured Home,325 Calusa Street Unit10,Key Largo,FL,33037,410000,1,1.0,Calusa Campground,350,,2016,4,1171,173,Active,,,https://www.redfin.com/FL/Key-Largo/325-Calusa-St-33037/unit-10/home/139597863,MARMLS,A11493807,N,Y,25.1106372,-80.4302616
MLS Listing,,Multi-Family (2-4 Unit),1304 White St,Key West,FL,33040,2890000,7,7.0,George W Nichols Sub,3336,4162,1953,4,866,,Active,,,https://www.redfin.com/FL/Key-West/1304-White-St-33040/home/139397595,FLKMLS,607617,N,Y,24.5526068,-81.7888051
MLS Listing,,Single Family Residential,701 12Th St,Key Colony,FL,33051,2995000,3,3.0,Coury Sub,2509,9600,1989,4,1194,,Active,,,https://www.redfin.com/FL/Key-Colony-Beach/701-12th-St-33051/home/139166701,FLKMLS,607616,N,Y,24.7244276,-81.0265314
MLS Listing,,Single Family Residential,17396 Jamaica Ln,Sugarloaf Key,FL,33042,989000,3,2.0,Orchid Park Sub,1224,8000,1992,4,808,,Active,,,https://www.redfin.com/FL/Sugarloaf-Key/17396-Jamaica-Ln-33042/home/139503707,FLKMLS,607613,N,Y,24.6287035,-81.5417086
MLS Listing,,Multi-Family (2-4 Unit),211 120Th Street Gulf,Marathon,FL,33050,950000,4,2.0,Hawaiian Village,1456,7500,1973,4,652,,Active,,,https://www.redfin.com/FL/Marathon/211-120-St-Gulf-33050/home/117642517,FLKMLS,607615,N,Y,24.731374,-81.027715
MLS Listing,,Single Family Residential,31342 Avenue I,Big Pine Key,FL,33043,699000,1,1.0,Grieser Sub,552,5250,2021,4,1266,,Active,,,https://www.redfin.com/FL/Big-Pine-Key/31342-Avenue-I-33043/home/139413703,FLKMLS,607614,N,Y,24.6746382,-81.3433147
MLS Listing,,Condo/Co-op,918 Southard St #104,Key West,FL,33040,925000,1,1.0,Southard Sq #2,751,,1987,4,1232,800,Active,,,https://www.redfin.com/FL/Key-West/918-Southard-St-33040/unit-104/home/139161502,FLKMLS,607609,N,Y,24.5579776,-81.796688
MLS Listing,,Townhouse,96000 Overseas Hwy Unit J7,Key Largo,FL,33037,1375000,2,2.5,Buttonwood Bay,1266,,1972,4,1086,1306,Active,,,https://www.redfin.com/FL/Key-Largo/96000-Overseas-Hwy-33037/unit-J7/home/139408667,FLKMLS,607610,N,Y,25.0614365,-80.4764738
MLS Listing,,Single Family Residential,205 Sunset Blvd,Key Largo,FL,33037,1325000,4,3.0,Buttonwood Shores,2266,9000,1982,4,585,,Active,,,https://www.redfin.com/FL/Key-Largo/205-Sunset-Blvd-33037/home/139478729,FLKMLS,607611,N,Y,25.0986533,-80.438237
MLS Listing,,Single Family Residential,1014 Southard St,Key West,FL,33040,5999000,4,3.5,Old Town - Unlisted,3026,8397,1899,4,1982,,Active,,,https://www.redfin.com/FL/Key-West/1014-Southard-St-33040/home/139660333,FLKMLS,607607,N,Y,24.5587678,-81.7955646
MLS Listing,,Single Family Residential,1016 Watson Ln,Key West,FL,33040,925000,2,2.0,Gwynn Sub,849,1470,1928,4,1090,,Active,,,https://www.redfin.com/FL/Key-West/1016-Watson-Ln-33040/home/139660739,FLKMLS,607605,N,Y,24.5547767,-81.7920621
MLS Listing,,Single Family Residential,914 1/2 White St,Key West,FL,33040,775000,2,2.0,Old Town Condos,974,1718,1928,4,796,,Active,,,https://www.redfin.com/FL/Key-West/914-1-2-White-St-33040/home/139176815,FLKMLS,607608,N,Y,24.5564117,-81.7918674
MLS Listing,,Vacant Land,58734 Overseas Hwy,Marathon,FL,33050,1299000,,,Crains Sub,,20100,,4,,,Active,,,https://www.redfin.com/FL/Grassy-Key/58734-Overseas-Hwy-33050/home/139309793,FLKMLS,607606,N,Y,24.7637929,-80.9467135
MLS Listing,,Condo/Co-op,6403 Gulf Of Mexico Blvd #403,Marathon,FL,33050,875000,3,2.0,Seawatch,1602,740520,1983,4,546,1591,Active,,,https://www.redfin.com/FL/Marathon/6403-Gulf-of-Mexico-Blvd-33050/unit-403/home/139179282,FLKMLS,607603,N,Y,24.734291,-81.030194
MLS Listing,,Mobile/Manufactured Home,325 Calusa Street #406,Key Largo,FL,33037,399999,2,1.0,CALUSA CAMPGROUND,,1750,2000,5,,176,Active,,,https://www.redfin.com/FL/Key-Largo/325-Calusa-St-33037/unit-406/home/139698668,MARMLS,A11493390,N,Y,25.1106372,-80.4302616
MLS Listing,,Townhouse,88540 Overseas Hwy #701,Plantation Key,FL,33070,1650000,2,2.5,Futura Yacht Club,1298,,1985,5,1271,250,Active,,,https://www.redfin.com/FL/Tavernier/88540-Overseas-Hwy-33070/unit-701/home/139580640,FLKMLS,607602,N,Y,24.9748457,-80.5550863
MLS Listing,,Single Family Residential,27440 W Indies Dr,Ramrod Key,FL,33042,3195000,4,3.5,Breezeswept Bch Est,2607,10900,2023,5,1226,,Active,,,https://www.redfin.com/FL/Ramrod-Key/27440-W-Indies-Dr-33042/home/139451076,FLKMLS,607599,N,Y,24.6617836,-81.4046091
MLS Listing,,Single Family Residential,401 3 St,Key Largo,FL,33037,824000,2,2.0,LARGO SOUND VILLAGE,,,1968,5,,,Active,,,https://www.redfin.com/FL/Key-Largo/401-3rd-St-33037/home/139425886,MARMLS,A11492323,N,Y,25.1408867,-80.3949387
MLS Listing,,Single Family Residential,391 5Th St,Key Colony,FL,33051,940000,2,2.5,Key Colony Bch 2nd Addn,1344,3300,1989,5,699,,Active,,,https://www.redfin.com/FL/Key-Colony-Beach/391-5th-St-33051/home/139343587,FLKMLS,607598,N,Y,24.723017,-81.017372
MLS Listing,,Single Family Residential,1114 17Th St,Key West,FL,33040,1150000,4,2.0,Pearlman Heights,1858,5700,1965,5,619,,Active,,,https://www.redfin.com/FL/Key-West/1114-17th-St-33040/home/139391690,FLKMLS,607597,N,Y,24.5686558,-81.7596671
MLS Listing,,Vacant Land,6099 Overseas Hwy Unit 93E,Marathon,FL,33050,210000,,,Keys RV/Mobile Home Condominium,,808,,5,,180,Active,,,https://www.redfin.com/FL/Marathon/6099-Overseas-Hwy-33050/unit-93E/home/139328493,FLKMLS,607596,N,Y,24.7173943,-81.0703558
MLS Listing,,Vacant Land,325 Calusa St,Key Largo,FL,33037,269500,,,CALUSA CAMPGROUND,,1750,,5,,,Active,,,https://www.redfin.com/FL/Key-Largo/325-Calusa-St-33037/home/139442320,MARMLS,A11492430,N,Y,25.1106372,-80.4302616
MLS Listing,,Single Family Residential,,Key Largo,FL,33037,2465000,5,3.0,,,,1958,5,,,Active,,,https://www.redfin.com/FL/Key-Largo/Undisclosed-address-33037/home/139652866,MARMLS,A11492801,N,Y,25.1338681,-80.3980912
MLS Listing,,Townhouse,300 El Capitan Dr Unit A-2,Lower Matecumbe,FL,33036,1025000,2,2.5,Port Ant Twnhs,1741,,1974,6,589,700,Active,,,https://www.redfin.com/FL/Islamorada/300-El-Capitan-Dr-33036/unit-A-2/home/139685883,FLKMLS,607594,N,Y,24.8593033,-80.7279847
MLS Listing,,Vacant Land,325 Calusa St #38,Key Largo,FL,33037,269500,,,Calusa Campground,,1750,,6,,,Active,,,https://www.redfin.com/FL/Key-Largo/325-Calusa-St-33037/unit-38/home/139488704,FLKMLS,607593,N,Y,25.1106316,-80.4301746
MLS Listing,,Vacant Land,87462 Old Hwy,Plantation Key,FL,33036,1485000,,,Plant Beach,,33905,,6,,,Active,,,https://www.redfin.com/FL/Islamorada/87462-Old-Hwy-33036/home/139686350,FLKMLS,607591,N,Y,24.9667749,-80.560931
MLS Listing,,Condo/Co-op,88540 Overseas Hwy Unit A503,Plantation Key,FL,33036,800000,2,2.0,Futura Yacht Club,853,,1985,6,938,893,Active,,,https://www.redfin.com/FL/Plantation-Key/88540-Overseas-HWY-33036/unit-A503/home/188744220,FLKMLS,607590,N,Y,24.974888,-80.554821
MLS Listing,,Single Family Residential,225 Gasparilla Dr Dr,Key Largo,FL,33037,689000,3,2.0,Pirates Cove,1162,6000,1970,6,593,125,Active,,,https://www.redfin.com/FL/Key-Largo/225-Gasparilla-Dr-33037/home/139436937,FLKMLS,607589,N,Y,25.0819207,-80.4568797
MLS Listing,,Single Family Residential,1130 Calle Ensenada,Marathon,FL,33050,2398000,3,3.0,WALORISS SUBD,2492,21000,2017,6,962,,Active,,,https://www.redfin.com/FL/Marathon/1130-Calle-Ensenada-33050/home/139685133,MARMLS,A11492533,N,Y,24.6962522,-81.0851885
MLS Listing,,Single Family Residential,226 Navajo St,Plantation Key,FL,33070,3595000,4,4.0,Indian Waterways,3100,6600,2023,6,1160,21,Active,,,https://www.redfin.com/FL/Tavernier/226-Navajo-St-33070/home/168050447,FLKMLS,607584,N,Y,24.987715,-80.5483689
MLS Listing,,Single Family Residential,19514 Canal Dr,Sugarloaf Key,FL,33042,809999,3,2.0,Perez Sub,1200,14000,1995,6,675,,Active,,,https://www.redfin.com/FL/Sugarloaf-Key/19514-Canal-Dr-33042/home/139406713,FLKMLS,607583,N,Y,24.6635722,-81.5290644
MLS Listing,,Single Family Residential,825 65Th St,Marathon,FL,33050,675000,3,2.0,Puerta Del Sol,1040,5017,1958,6,649,,Active,,,https://www.redfin.com/FL/Marathon/825-65th-Street-Ocean-33050/home/139601378,FLKMLS,607582,N,Y,24.7160551,-81.067902
MLS Listing,,Condo/Co-op,104500 Overseas Hwy Unit C301,Key Largo,FL,33037,989000,3,2.0,Tamarind Bay,1577,,1981,6,627,784,Active,,,https://www.redfin.com/FL/Key-Largo/104500-Overseas-Hwy-33037/unit-C301/home/139529830,FLKMLS,607581,N,Y,25.151328,-80.392844
MLS Listing,,Condo/Co-op,,Key Largo,FL,33037,320000,2,1.5,,,,1974,6,,488,Active,,,https://www.redfin.com/FL/Key-Largo/Undisclosed-address-33037/home/139165102,MARMLS,A11492141,N,Y,25.0969306,-80.4367811
MLS Listing,,Single Family Residential,84961 Old Hwy #19,Windley Key,FL,33036,689000,1,1.0,Windy Cove,300,1495,1988,6,2297,139,Active,,,https://www.redfin.com/FL/Islamorada/84961-Old-Hwy-33036/unit-19/home/139389760,FLKMLS,607579,N,Y,24.9484189,-80.5952537
MLS Listing,,Single Family Residential,334 King Ave,Key Largo,FL,33037,2285000,3,4.5,Key Largo Mob Homesites,1692,6000,2011,7,1350,,Active,,,https://www.redfin.com/FL/Key-Largo/334-King-Ave-33037/home/139297293,FLKMLS,607578,N,Y,25.1501763,-80.3865242
MLS Listing,,Vacant Land,0 W 75Th St,Marathon,FL,33050,255000,,,Paraiso Estate,,35719,,7,,,Active,,,https://www.redfin.com/FL/Marathon/W-75th-St-33050/home/182305675,FLKMLS,607577,N,Y,24.720665,-81.059717
MLS Listing,,Single Family Residential,1017 Eaton St,Key West,FL,33040,2499000,4,3.5,Old Town - Unlisted,1494,4282,1938,7,1673,,Active,,,https://www.redfin.com/FL/Key-West/1017-Eaton-St-33040/home/139534689,FLKMLS,607572,N,Y,24.5610818,-81.7972687
MLS Listing,,Vacant Land,2950 Overseas Hwy #5,Saddlebunch,FL,33040,975000,,,Saddlebunch RV Park,,2385,,7,,417,Active,,,https://www.redfin.com/FL/Key-West/2950-Overseas-Hwy-33040/unit-5/home/139165363,FLKMLS,607571,N,Y,24.6209841,-81.6005139
MLS Listing,,Condo/Co-op,97501 Overseas Hwy #534,Key Largo,FL,33037,1599000,3,2.5,Key Largo North - Marnier's Club,1876,958320,2005,7,852,1419,Active,,,https://www.redfin.com/FL/Key-Largo/97501-Overseas-Hwy-33037/unit-534/home/139121624,FLKMLS,607570,N,Y,25.0721842,-80.4627671
MLS Listing,,Condo/Co-op,87851 Old Hwy Unit M36,Plantation Key,FL,33036,1800000,3,2.0,Ocean Harbor,2150,,1989,7,837,1100,Active,,,https://www.redfin.com/FL/Islamorada/87851-Old-Hwy-33036/unit-M36/home/139270058,FLKMLS,607569,N,Y,24.9672743,-80.5587318
MLS Listing,,Single Family Residential,1004 96Th St,Marathon,FL,33050,1699000,3,3.0,Sadowski Sub,1872,6930,1957,7,908,,Active,,,https://www.redfin.com/FL/Marathon/1004-96th-Street-Ocean-33050/home/139416002,FLKMLS,607563,N,Y,24.7232389,-81.0465919
MLS Listing,,Single Family Residential,2800 Staples Ave,Key West,FL,33040,1349000,6,3.0,Lime Grove,2058,7341,1953,7,655,,Active,,,https://www.redfin.com/FL/Key-West/2800-Staples-Ave-33040/home/139161930,FLKMLS,607568,N,Y,24.5603485,-81.7703068
MLS Listing,,Condo/Co-op,620 Thomas St #257,Key West,FL,33040,995000,2,2.0,Shipyard PH 1,740,,1991,7,1345,1015,Active,,,https://www.redfin.com/FL/Key-West/620-Thomas-St-33040/unit-257/home/139205911,FLKMLS,607566,N,Y,24.5524583,-81.8047845
MLS Listing,,Multi-Family (2-4 Unit),2318 Staples Ave,Key West,FL,33040,1400000,4,3.0,Key West Realty Cos Sub,1481,5000,1955,7,945,,Active,,,https://www.redfin.com/FL/Key-West/2318-Staples-Ave-33040/home/139239490,FLKMLS,607562,N,Y,24.5583997,-81.7759465
MLS Listing,,Single Family Residential,508 28th Street Ocean,Marathon,FL,33050,749500,3,2.0,SOMBRERO SUBD NO 4,1451,5000,1971,8,517,,Active,,,https://www.redfin.com/FL/Marathon/508-28th-Street-Ocean-33050/home/139303282,MARMLS,A11491289,N,Y,24.7091058,-81.0979492
MLS Listing,,Single Family Residential,239 Atlantic Blvd,Key Largo,FL,33037,2599000,5,3.5,PORT LARGO 2ND ADD,3898,9375,1987,8,667,,Active,,,https://www.redfin.com/FL/Key-Largo/239-Atlantic-Blvd-33037/home/139288361,MARMLS,A11491187,N,Y,25.0917944,-80.4353903
MLS Listing,,Single Family Residential,227 Julia St,Key West,FL,33040,1299000,1,2.0,Old Town - Unlisted,824,1050,2004,9,1576,,Active,,,https://www.redfin.com/FL/Key-West/227-Julia-St-33040/home/139442962,FLKMLS,607561,N,Y,24.5492809,-81.8013465
MLS Listing,,Single Family Residential,221 S Anglers Dr,Marathon,FL,33050,2100000,4,3.0,Sombrero Anglers C S,1880,10000,1989,9,1117,,Active,,,https://www.redfin.com/FL/Marathon/221-Anglers-Dr-S-33050/home/139146612,FLKMLS,607560,N,Y,24.7006759,-81.0814806
MLS Listing,,Vacant Land,14 67 26 Saddlebunch,Saddlebunch,FL,33040,199999,,,Saddlebunch Shores,,1339465,,9,,,Active,,,https://www.redfin.com/FL/Saddlebunch/14-67-26-Saddlebunch-33040/home/188698345,FLKMLS,607559,N,Y,24.61351,-81.631937
MLS Listing,,Townhouse,5023 Sunset Village Dr #5023,Duck Key,FL,33050,690000,2,1.5,Village at Hawks Cay,780,928,1998,9,885,585,Active,,,https://www.redfin.com/FL/Marathon/5023-Sunset-Village-Dr-33050/unit-5023/home/188261137,FLKMLS,607249,N,Y,24.7770602,-80.9145683
MLS Listing,,Single Family Residential,27 Gasparilla Dr,Key Largo,FL,33037,625000,2,1.0,Caribbean Heights,1137,6000,1957,9,550,,Active,,,https://www.redfin.com/FL/Key-Largo/27-Gasparilla-Dr-33037/home/139355887,FLKMLS,607557,N,Y,25.081916,-80.4560975
MLS Listing,,Single Family Residential,29955 Ocean Ln,Big Pine Key,FL,33043,785000,3,2.0,Pine Key Acres,1416,39000,1982,9,554,,Active,,,https://www.redfin.com/FL/Big-Pine-Key/29955-Ocean-Ln-33043/home/139660286,FLKMLS,607558,N,Y,24.6802188,-81.3642815
MLS Listing,,Single Family Residential,1703 Seminary St,Key West,FL,33040,3395000,4,4.0,Key West Investment Co Sub,2791,10450,1958,9,1216,,Active,,,https://www.redfin.com/FL/Key-West/1703-Seminary-St-33040/home/139206239,FLKMLS,607556,N,Y,24.5562311,-81.7835194
MLS Listing,,Single Family Residential,235 W Seaview Cir,Duck Key,FL,33050,1200000,3,3.0,Plantation Island,1512,7938,1971,9,794,350,Active,,,https://www.redfin.com/FL/Duck-Key/235-W-Seaview-Cir-33050/home/139452396,FLKMLS,607555,N,Y,24.7670726,-80.9155949
MLS Listing,,Vacant Land,1 1 Transferable Rogo Exemption,Key West,FL,33040,199000,,,Key West Investment Co Sub,,,,9,,,Active,,,https://www.redfin.com/FL/Key-West/1-1-Transferable-Rogo-Exemption-33040/home/188697981,FLKMLS,607554,N,Y,24.565087,-81.773007
MLS Listing,,Single Family Residential,191 S Ocean Shores Dr,Key Largo,FL,33037,959000,3,2.0,Key Largo Ocn Shores,1440,6900,1998,9,666,,Active,,,https://www.redfin.com/FL/Key-Largo/191-S-Ocean-Shores-Dr-33037/home/139288182,FLKMLS,607552,N,Y,25.0822985,-80.4407142
MLS Listing,,Vacant Land,36 Park Rd,Upper Matecumbe Key Islamorada,FL,33036,650000,,,Bay Hammock,,11317,,10,,,Active,,,https://www.redfin.com/FL/Islamorada/36-Park-Rd-33036/home/139400651,FLKMLS,607549,N,Y,24.937112,-80.616472
MLS Listing,,Single Family Residential,1380 Ocean Bay Dr,Key Largo,FL,33037,895000,4,4.0,Key Largo Ocn Shores,2322,7000,1969,10,385,,Active,,,https://www.redfin.com/FL/Key-Largo/1380-Ocean-Bay-Dr-33037/home/139509922,FLKMLS,607551,N,Y,25.0855455,-80.4419746
MLS Listing,,Single Family Residential,16 S Kyle Way,Marathon,FL,33050,357000,2,2.0,Knights Key Village,1215,5040,1987,10,294,,Active,,,https://www.redfin.com/FL/Marathon/16-Kyle-Way-E-33050/home/139682673,Beaches MLS,F10371087,N,Y,24.7055658,-81.1221609
MLS Listing,,Single Family Residential,816 Ashe St,Key West,FL,33040,2649000,3,3.5,Old Town - Unlisted,1522,2687,1906,10,1740,,Active,,,https://www.redfin.com/FL/Key-West/816-Ashe-St-33040/home/139485708,FLKMLS,607548,N,Y,24.5569988,-81.7927947
MLS Listing,,Single Family Residential,15800 Old State Road 4A Rd Unit 4A,Sugarloaf Key,FL,33042,2999000,2,3.0,Sugarloaf Beach,1548,14150,2006,10,1937,,Active,,,https://www.redfin.com/FL/Summerland-Key/15800-Old-State-Road-4a-33042/unit-4A/home/188696278,FLKMLS,607547,N,Y,24.6117735,-81.5549935
MLS Listing,,Condo/Co-op,3229 Flagler Ave #208,Key West,FL,33040,519000,2,1.0,Flagler Center PH 3,750,,1997,11,692,250,Active,,,https://www.redfin.com/FL/Key-West/3229-Flagler-Ave-33040/unit-208/home/139658086,FLKMLS,607545,N,Y,24.5623361,-81.7632779
MLS Listing,,Condo/Co-op,15 Sombrero Blvd Unit 204W,Marathon,FL,33050,400000,1,1.0,Marathon Country C W,687,,1972,12,582,620,Active,,,https://www.redfin.com/FL/Marathon/15-Sombrero-Blvd-33050/unit-204W/home/139564207,FLKMLS,607543,N,Y,24.7130462,-81.0795619
MLS Listing,,Condo/Co-op,1215 97Th St #8,Marathon,FL,33050,537999,2,1.0,Sea View Condo,888,,1967,12,606,750,Active,,,https://www.redfin.com/FL/Marathon/1215-97th-Street-Ocean-33050/unit-8/home/139508698,FLKMLS,607544,N,Y,24.7232099,-81.0460305
MLS Listing,,Single Family Residential,1612 Johnson St,Key West,FL,33040,2595000,3,4.5,Land Buyers Assn,2165,3608,2023,12,1199,,Active,,,https://www.redfin.com/FL/Key-West/1612-Johnson-St-33040/home/139363939,FLKMLS,607538,N,Y,24.5526625,-81.7822266
MLS Listing,,Multi-Family (2-4 Unit),537 91st St Ocean,Marathon,FL,33050,429000,2,1.0,Sea Crest Heights,1830,8400,2021,12,234,,Active,,,https://www.redfin.com/FL/Marathon/537-91st-Street-Ocean-33050/home/139473365,FLKMLS,607536,N,Y,24.7231596,-81.0506465
MLS Listing,,Condo/Co-op,500 Burton Dr #2313,Key Largo,FL,33070,529000,1,1.0,Ocean Pointe,577,3005640,1991,12,917,1019,Active,,,https://www.redfin.com/FL/Tavernier/500-Burton-Dr-33070/unit-2313/home/139554303,FLKMLS,607539,N,Y,25.020931,-80.5048665
MLS Listing,,Multi-Family (2-4 Unit),539 91st St Ocean,Marathon,FL,33050,429000,2,1.0,Sea Crest Heights,915,8400,2021,12,469,,Active,,,https://www.redfin.com/FL/Marathon/539-91st-Saint-Ocean-33050/home/187404338,FLKMLS,607537,N,Y,24.7229944,-81.0504425
MLS Listing,,Single Family Residential,242 W Seaview Cir,Duck Key,FL,33050,3400000,4,3.0,Plantation Island,2578,11663,1971,12,1319,29,Active,,,https://www.redfin.com/FL/Duck-Key/242-W-Seaview-Cir-33050/home/139578447,FLKMLS,607534,N,Y,24.7667668,-80.9165828
MLS Listing,,Single Family Residential,232 W Seaview Dr,Duck Key,FL,33050,3000000,2,2.0,Plantation Island,1596,8630,1985,12,1880,,Active,,,https://www.redfin.com/FL/Marathon/232-W-Seaview-Dr-33050/home/139349557,FLKMLS,607532,N,Y,24.7677695,-80.9183327
MLS Listing,,Single Family Residential,296 Buttonwood Shores Dr,Key Largo,FL,33037,2700000,3,2.5,Buttonwood Shores,2034,,1959,12,1327,,Active,,,https://www.redfin.com/FL/Key-Largo/296-Buttonwood-Shores-Dr-33037/home/139512055,MARMLS,A11488769,N,Y,25.098472,-80.439534
MLS Listing,,Condo/Co-op,109 Avenue D #305,Marathon,FL,33050,499000,1,1.5,Coco Plum Terraces,600,,1974,12,832,601,Active,,,https://www.redfin.com/FL/Marathon/109-Avenue-D-33050/unit-305/home/139568750,FLKMLS,607530,N,Y,24.7277975,-81.0110619
MLS Listing,,Single Family Residential,1 Driftwood Ter,Key Haven,FL,33040,2500000,5,3.0,Key Haven 10th Add,3014,11667,1998,13,829,,Active,,,https://www.redfin.com/FL/Key-West/1-Driftwood-Dr-33040/home/139401325,FLKMLS,607529,N,Y,24.5855234,-81.7409201
MLS Listing,,Single Family Residential,8053 Porpoise Dr,Marathon,FL,33050,889000,3,2.0,N Marathon Shores,1209,8250,1985,13,735,,Active,,,https://www.redfin.com/FL/Marathon/8053-Porpoise-Dr-33050/home/139246559,FLKMLS,607528,N,Y,24.7290186,-81.0578925
MLS Listing,,Vacant Land,159 Florida Ave,Key Largo,FL,33070,1200000,,,Burtons Add Tavenier,,11150,,13,,,Active,,,https://www.redfin.com/FL/Tavernier/159-Florida-Ave-33070/home/139691936,FLKMLS,607526,N,Y,25.00956,-80.518858
MLS Listing,,Single Family Residential,128 Zane Grey Creek Dr,Middle Keys,FL,33001,1298000,2,1.0,LONG KEY ESTATES 1ST ADD,780,4875,1976,13,1664,,Active,,,https://www.redfin.com/FL/Layton/128-Zane-Gray-Creek-Dr-33001/home/179181954,MARMLS,A11489883,N,Y,24.8221334,-80.815481
MLS Listing,,Single Family Residential,117 Avenue E,Marathon,FL,33050,2798000,4,4.0,COCO PLUM BEACH,3069,12100,1994,13,912,,Active,,,https://www.redfin.com/FL/Marathon/117-Avenue-E-33050/home/139678677,MARMLS,A11489903,N,Y,24.7300081,-81.0095946
MLS Listing,,Townhouse,3314 Northside Dr #97,Key West,FL,33040,550000,2,1.5,Solana Village,1050,1309,1986,13,524,117,Active,,,https://www.redfin.com/FL/Key-West/3314-Northside-Dr-33040/unit-97/home/139486452,FLKMLS,607523,N,Y,24.5690455,-81.7631476
MLS Listing,,Vacant Land,5645 Macdonald Ave,Stock Island,FL,33040,1150000,,,Maloney Sub,,6250,,13,,,Active,,,https://www.redfin.com/FL/Stock-Island/5645-Macdonald-Ave-33040/home/162369442,FLKMLS,607524,N,Y,24.5731133,-81.7368613
MLS Listing,,Single Family Residential,27399 Jamaica Ln,Ramrod Key,FL,33042,1075000,3,2.0,Breezeswept Bch Est,1288,6000,2012,13,835,,Active,,,https://www.redfin.com/FL/Ramrod-Key/27399-Jamaica-Ln-33042/home/139648512,FLKMLS,607522,N,Y,24.6549203,-81.4052961
MLS Listing,,Single Family Residential,80 Coral Way,Key Largo,FL,33037,1339000,3,2.5,Harborage,,,2023,13,,173,Active,,,https://www.redfin.com/FL/Key-Largo/80-Coral-Way-33037/home/139692416,MARMLS,A11489937,N,Y,25.0718465,-80.4637555
MLS Listing,,Single Family Residential,25 Sunset Key Dr,Key West,FL,33040,6650000,4,3.0,Sunset Key,2682,8436,2000,13,2479,4314,Active,,,https://www.redfin.com/FL/Key-West/25-Sunset-Key-Dr-33040/home/139160517,FLKMLS,607521,N,Y,24.5607469,-81.8135121
MLS Listing,,Moorage,5555 College Rd #10,Key West,FL,33040,375000,,,Sunset Marina,,,2000,13,,563,Active,,,https://www.redfin.com/FL/Key-West/5555-College-Rd-33040/unit-10/home/176147038,FLKMLS,607520,N,Y,24.5781649,-81.7512269
MLS Listing,,Single Family Residential,125 Giardino Dr,Islamorada,FL,33036,2900000,4,4.5,VENETIAN SHORES NO 3,2720,7000,2002,13,1066,13,Active,,,https://www.redfin.com/FL/Islamorada/125-Giardino-Dr-33036/home/139574989,MARMLS,A11489654,N,Y,24.9596431,-80.5878248
MLS Listing,,Mobile/Manufactured Home,906 S Emerald Dr,Key Largo,FL,33037,375000,2,2.0,SILVER SHORES MOBILE HOME,984,,1979,13,381,484,Active,,,https://www.redfin.com/FL/Key-Largo/906-S-Emerald-Dr-33037/home/139453631,MARMLS,A11489735,N,Y,25.0534518,-80.4821644
MLS Listing,,Single Family Residential,18 Coral Dr,Key Largo,FL,33037,1250000,5,3.0,Key Largo Beach,1800,6600,2023,13,694,,Active,,,https://www.redfin.com/FL/Key-Largo/18-Coral-Dr-33037/home/139385410,FLKMLS,607518,N,Y,25.0892235,-80.4400714
MLS Listing,,Condo/Co-op,1901 S Roosevelt Unit 202N,Key West,FL,33040,675000,1,1.0,La Brisa North,960,,1984,13,703,685,Active,,,https://www.redfin.com/FL/Key-West/1901-S-Roosevelt-Blvd-33040/unit-202N/home/176147772,FLKMLS,607517,N,Y,24.5516044,-81.7759251
MLS Listing,,Single Family Residential,1104 Packer St,Key West,FL,33040,2100000,3,3.5,GG Watson Sub,1733,3500,1928,13,1212,,Active,,,https://www.redfin.com/FL/Key-West/1104-Packer-St-33040/home/139660596,FLKMLS,607519,N,Y,24.553223,-81.7931991
MLS Listing,,Single Family Residential,1105 17Th St,Key West,FL,33040,1385000,3,2.0,Pearlman Heights,1554,5700,1967,13,891,,Active,,,https://www.redfin.com/FL/Key-West/1105-17th-St-33040/home/139222466,FLKMLS,607509,N,Y,24.5689939,-81.7591116
MLS Listing,,Single Family Residential,1613 Bayview Dr,Little Torch Key,FL,33042,947000,3,2.0,Coral Shores Estates,1242,4500,2019,14,762,,Active,,,https://www.redfin.com/FL/Little-Torch-Key/1613-Bayview-Dr-33042/home/139525877,FLKMLS,607515,N,Y,24.6877962,-81.3984261
MLS Listing,,Single Family Residential,145 Plantation Dr,Plantation Key,FL,33070,1944000,4,2.0,Tropical Atlantic Shores,1456,7340,1971,14,1335,,Active,December-10-2023 01:00 PM,December-10-2023 04:00 PM,https://www.redfin.com/FL/Tavernier/145-Plantation-Dr-33070/home/139273350,FLKMLS,607512,N,Y,24.9994868,-80.5351851
MLS Listing,,Townhouse,333 25Th St,Marathon,FL,33050,599000,3,2.5,Sombrero Sub,1512,827,2006,14,396,250,Active,,,https://www.redfin.com/FL/Marathon/333-25th-Street-Ocean-33050/home/139130857,FLKMLS,607510,N,Y,24.7085582,-81.1007349
MLS Listing,,Single Family Residential,321 Margaret St,Key West,FL,33040,1175000,2,2.0,Old Town - Unrecord,720,1375,1938,14,1632,,Active,,,https://www.redfin.com/FL/Key-West/321-Margaret-St-33040/home/139459416,FLKMLS,607511,N,Y,24.5604021,-81.7991633
MLS Listing,,Single Family Residential,2600 Patterson Ave,Key West,FL,33040,1425000,3,2.0,Key West Realty Cos Sub,1673,5000,1948,14,852,,Active,,,https://www.redfin.com/FL/Key-West/2600-Patterson-Ave-33040/home/139132176,FLKMLS,607507,N,Y,24.5621685,-81.7741094
MLS Listing,,Condo/Co-op,21 Sombrero Blvd #315,Marathon,FL,33050,425000,1,1.0,Sombrero Sub,547,,1986,14,777,495,Active,,,https://www.redfin.com/FL/Marathon/21-Sombrero-Blvd-33050/unit-315/home/139504887,FLKMLS,607505,N,Y,24.7128139,-81.0801862
MLS Listing,,Single Family Residential,54 Mutiny Pl,Key Largo,FL,33037,1675000,3,2.0,Buccaneer Pt Largo Sound,2824,12000,1999,14,593,,Active,,,https://www.redfin.com/FL/Key-Largo/54-Mutiny-Pl-33037/home/139682527,Beaches MLS,F10410517,N,Y,25.0915882,-80.4605946
MLS Listing,,Single Family Residential,28532 Dirk Rd,Little Torch Key,FL,33042,1499000,3,2.0,Jolly Roger Estates,1530,9330,1985,14,980,,Active,,,https://www.redfin.com/FL/Little-Torch-Key/28532-Dirk-Rd-33042/home/139415384,FLKMLS,607504,N,Y,24.6631076,-81.3863806
MLS Listing,,Single Family Residential,3127 Stewart Rd,Lower Keys,FL,33042,1990000,3,2.0,MIDDLE TORCH KEY ESTATE A,1841,71765,1987,14,1081,,Active,,,https://www.redfin.com/FL/Middle-Torch-Key/3127-Stewart-Rd-33042/home/139595169,MARMLS,A11489066,N,Y,24.6997263,-81.4138827
MLS Listing,,Single Family Residential,1301 First St,Key West,FL,33040,1795000,4,3.5,Key West Realty Cos Sub,1424,5100,1958,14,1261,,Active,,,https://www.redfin.com/FL/Key-West/1301-1st-St-33040/home/139667593,FLKMLS,607502,N,Y,24.5573091,-81.7816425
MLS Listing,,Single Family Residential,361 E Caribbean Dr,Summerland Key,FL,33042,1675000,3,2.5,Summerland Key Cove,1880,6000,1988,14,891,,Active,,,https://www.redfin.com/FL/Summerland-Key/361-Caribbean-Dr-E-33042/home/139234974,FLKMLS,607503,N,Y,24.6588748,-81.4471039
MLS Listing,,Multi-Family (2-4 Unit),65620 Overseas Hwy,Long Key,FL,33001,4299000,4,2.0,Long Key Ocean Bay Colony,1647,27134,1972,14,2610,,Active,,,https://www.redfin.com/FL/Long-Key/65620-Overseas-Hwy-33001/home/139349742,FLKMLS,607501,N,Y,24.8033344,-80.8482661
MLS Listing,,Single Family Residential,850 Palmetto Ave,Key Largo,FL,33070,895000,2,1.5,Palma Sola,579,20000,1950,14,1546,,Active,,,https://www.redfin.com/FL/Tavernier/850-Palmetto-Ave-33070/home/139492057,FLKMLS,607500,N,Y,25.0217067,-80.5006995
MLS Listing,,Single Family Residential,219 Lobstertail Rd,Big Pine Key,FL,33043,775000,3,2.0,Cahill Pines & Palms,1170,6000,1977,14,662,,Active,,,https://www.redfin.com/FL/Big-Pine-Key/219-Lobstertail-Rd-33043/home/139346338,FLKMLS,607499,N,Y,24.6665698,-81.3661716
MLS Listing,,Single Family Residential,1446 Calle Bogota,Summerland Key,FL,33042,7149000,4,4.0,Summerland Beach,4706,16000,2010,14,1519,,Active,,,https://www.redfin.com/FL/Summerland-Key/1446-Calle-Bogota-33042/home/139667212,FLKMLS,607497,N,Y,24.6435449,-81.4437996
MLS Listing,,Single Family Residential,1017 Angela St,Key West,FL,33040,3250000,3,3.5,Old Town - Unrecord,1962,3360,1908,14,1656,,Active,,,https://www.redfin.com/FL/Key-West/1017-Angela-St-33040/home/139525419,FLKMLS,607496,N,Y,24.5581029,-81.7947744
MLS Listing,,Single Family Residential,29153 Cedar Dr,Big Pine Key,FL,33043,1095000,2,2.0,Eden Pines Colony,1056,10000,1986,15,1037,,Active,,,https://www.redfin.com/FL/Big-Pine-Key/29153-Cedar-Dr-33043/home/139561033,FLKMLS,607495,N,Y,24.6935485,-81.3768244
MLS Listing,,Townhouse,713 Emma St #3,Key West,FL,33040,1300000,3,2.5,Old Town - Unlisted,1156,,2005,15,1125,647,Active,,,https://www.redfin.com/FL/Key-West/713-Emma-St-33040/unit-3/home/139590374,FLKMLS,607493,N,Y,24.55144,-81.804182
MLS Listing,,Vacant Land,"Lots 98,99,98a,99a Dominica Ln",Ramrod Key,FL,33042,799000,,,Breezeswept Bch Est,,12700,,15,,,Active,,,https://www.redfin.com/FL/Ramrod-Key/Dominica-Ln-33042/home/139213166,FLKMLS,607492,N,Y,24.649035,-81.405462
MLS Listing,,Single Family Residential,30891 Granada Ave,Big Pine Key,FL,33043,1499997,3,2.0,Doctors Arm,1568,8480,1987,15,957,,Active,,,https://www.redfin.com/FL/Big-Pine-Key/30891-Granada-Ave-33043/home/139395774,FLKMLS,607491,N,Y,24.7030676,-81.3504045
MLS Listing,,Single Family Residential,974 73Rd St,Marathon,FL,33050,370000,2,1.0,Fields Sub,948,4500,1976,15,390,,Active,,,https://www.redfin.com/FL/Marathon/974-73rd-Street-Ocean-33050/home/139269826,FLKMLS,607490,N,Y,24.7174669,-81.0616058
MLS Listing,,Single Family Residential,490 11th St St,Key Colony,FL,33051,2275000,4,4.0,Key Colony Bch 1st Addn Amd Plat,2309,4125,2021,16,985,,Active,,,https://www.redfin.com/FL/Key-Colony-Beach/490-11th-St-33051/home/177332139,FLKMLS,607488,N,Y,24.7225071,-81.0244546
MLS Listing,,Single Family Residential,271 W Indies Dr,Ramrod Key,FL,33042,3290000,4,3.5,Breezeswept Bch Est,2320,9038,2023,16,1418,,Active,,,https://www.redfin.com/FL/Summerland-Key/271-W-Indies-Dr-33042/home/178353663,FLKMLS,607486,N,Y,24.658493,-81.4040522
MLS Listing,,Single Family Residential,850 69Th St,Marathon,FL,33050,389000,1,1.0,Sea Crest,492,4000,1958,16,791,,Active,,,https://www.redfin.com/FL/Marathon/850-69th-ST-33050/home/186322544,FLKMLS,607485,N,Y,24.716833,-81.064608
MLS Listing,,Vacant Land,1 Transferable Rogo Exemption,Summerland Key,FL,33042,199000,,,Misc Summerland Key,,,,17,,,Active,,,https://www.redfin.com/FL/Summerland-Key/1-Transferable-ROGO-Exemption-33042/home/178650685,FLKMLS,607481,N,Y,24.66323,-81.465232
MLS Listing,,Single Family Residential,1219 Royal St,Key West,FL,33040,2995000,3,3.0,Investment Co Sub,1620,4278,1965,17,1849,,Active,,,https://www.redfin.com/FL/Key-West/1219-Royal-St-33040/home/139614460,FLKMLS,607479,N,Y,24.5512683,-81.7931375
MLS Listing,,Vacant Land,1 Transferable ROGO Exemption,Duck Key,FL,33050,199000,,,Misc Duck Key,,,,17,,,Active,,,https://www.redfin.com/FL/Duck-Key/1-Transferable-ROGO-Exemption-33050/home/179570307,FLKMLS,607480,N,Y,24.78386,-80.904446
MLS Listing,,Single Family Residential,474 W Shore Dr,Summerland Key,FL,33042,2200000,4,3.0,Summerland Key Cove,2162,6000,2020,17,1018,,Active,,,https://www.redfin.com/FL/Summerland-Key/474-W-Shore-Dr-33042/home/139255070,FLKMLS,607478,N,Y,24.6543324,-81.4416968
MLS Listing,,Single Family Residential,25 N Blackwater Ln,Key Largo,FL,33037,2049500,3,3.0,PARADISE POINT COVE,1831,6750,1979,17,1119,,Active,,,https://www.redfin.com/FL/Key-Largo/25-N-Blackwater-Ln-33037/home/139694786,MARMLS,A11488418,N,Y,25.1589552,-80.3892857
MLS Listing,,Single Family Residential,29667 Forrestal Ave,Big Pine Key,FL,33043,1990000,3,2.0,Pine Channel Estates,1592,7500,1990,17,1250,,Active,,,https://www.redfin.com/FL/Big-Pine-Key/29667-Forrestal-Ave-33043/home/139284267,FLKMLS,607476,N,Y,24.6760402,-81.3692216
MLS Listing,,Vacant Land,Vacant Lot Diane Rd,Big Pine Key,FL,33043,64900,,,Port Pine Heights,,5390,,17,,,Active,,,https://www.redfin.com/FL/Big-Pine-Key/Vacant-Lot-Diane-Rd-33043/home/188599709,FLKMLS,607475,N,Y,24.725854,-81.396796
MLS Listing,,Condo/Co-op,109 Front St #114,Key West,FL,33040,2475000,2,2.5,Harbour Place,1296,,1991,17,1910,1285,Active,,,https://www.redfin.com/FL/Key-West/109-Front-St-33040/unit-114/home/139170124,FLKMLS,607473,N,Y,24.5557758,-81.8071456
MLS Listing,,Vacant Land,6099 Overseas Hwy Unit 53E,Marathon,FL,33050,250000,,,Keys RV/Mobile Home Condominium,,1028,,17,,180,Active,,,https://www.redfin.com/FL/Marathon/6099-Overseas-Hwy-33050/unit-53E/home/139321808,FLKMLS,607472,N,Y,24.7173943,-81.0703558
MLS Listing,,Single Family Residential,549 95th St,Marathon,FL,33050,779000,3,3.0,Buttonwood Acres,1775,10500,1973,17,439,,Active,,,https://www.redfin.com/FL/Marathon/549-95th-Street-Ocean-33050/home/139508682,FLKMLS,607474,N,Y,24.7240339,-81.047584
MLS Listing,,Single Family Residential,1213 1St St,Key West,FL,33040,586000,2,1.0,Sunshine Sub Plat 3,750,3793,1950,17,781,,Active,,,https://www.redfin.com/FL/Key-West/1213-1st-St-33040/home/139711895,FLKMLS,607471,N,Y,24.5588365,-81.7827912
MLS Listing,,Condo/Co-op,15 Sombrero Blvd Unit 112W,Marathon,FL,33050,499000,2,2.0,Marathon Country C W,965,,1972,17,517,620,Active,,,https://www.redfin.com/FL/Marathon/15-Sombrero-Blvd-33050/unit-112W/home/139504856,FLKMLS,607469,N,Y,24.7130462,-81.0795619
MLS Listing,,Townhouse,236 Golf Club Dr,Key West,FL,33040,1100000,2,2.5,Key West Golf Club Dev,1120,1820,1999,17,982,425,Active,,,https://www.redfin.com/FL/Key-West/236-Golf-Club-Dr-33040/home/139697640,FLKMLS,607470,N,Y,24.5754776,-81.7454784
MLS Listing,,Condo/Co-op,7201 Gulf Of Mexico Blvd #201,Marathon,FL,33050,849000,3,2.0,Seawatch,1602,740520,1983,17,530,1590,Active,,,https://www.redfin.com/FL/Marathon/7201-Gulf-of-Mexico-Blvd-33050/unit-201/home/139549723,FLKMLS,607467,N,Y,24.733132,-81.029348
MLS Listing,,Single Family Residential,93 Palm Dr,Saddlebunch,FL,33040,1190000,3,3.0,Bay Point Trlr Pk,1325,2800,2016,18,898,,Active,,,https://www.redfin.com/FL/Key-West/93-Palm-Dr-33040/home/139712438,FLKMLS,607466,N,Y,24.621917,-81.5928104
MLS Listing,,Condo/Co-op,88181 Old Hwy Unit 43G and 30' slip 52,Plantation Key,FL,33036,1100000,3,2.0,Coral Harbour,1593,,1979,18,691,1271,Active,,,https://www.redfin.com/FL/Islamorada/88181-Old-Hwy-33036/unit-G43/home/139578987,FLKMLS,607462,N,Y,24.972015,-80.553305
MLS Listing,,Vacant Land,31 Treasure Blvd,Key Largo,FL,33037,319000,,,PIRATES COVE,,2500,,18,,,Active,,,https://www.redfin.com/FL/Key-Largo/31-Treasure-Blvd-33037/home/177905448,MARMLS,A11487659,N,Y,25.083208,-80.454948
MLS Listing,,Single Family Residential,1050 81st St,Marathon,FL,33050,3490000,4,3.0,Linda Sub,2428,,2017,18,1437,,Active,,,https://www.redfin.com/FL/Marathon/1050-81st-Street-Ocean-33050/home/139654212,Beaches MLS,RX-10936683,N,Y,24.7191269,-81.0562536
MLS Listing,,Condo/Co-op,1509 Josephine St #2,Key West,FL,33040,449000,2,1.0,New Town - Unlisted,479,5200,1948,18,937,210,Active,,,https://www.redfin.com/FL/Key-West/1509-Josephine-St-33040/unit-2/home/139454705,FLKMLS,607460,N,Y,24.5544624,-81.780061
MLS Listing,,Single Family Residential,150 Rushton Ln,Key Largo,FL,33070,2499000,3,3.0,Seven Acres,1743,13800,1973,18,1434,75,Active,December-7-2023 10:00 AM,December-7-2023 12:30 PM,https://www.redfin.com/FL/Tavernier/150-Rushton-Ln-33070/home/139138386,FLKMLS,607461,N,Y,25.0373051,-80.5001023
MLS Listing,,Vacant Land,17 Hibiscus Ln,Key Largo,FL,33037,300000,,,Hibiscus Park,,7000,,18,,,Active,,,https://www.redfin.com/FL/Key-Largo/17-Hibiscus-Ln-33037/home/139589961,FLKMLS,607459,N,Y,25.1113064,-80.4204161
MLS Listing,,Vacant Land,Palm Dr,Key Largo,FL,33037,185000,,,Seaside Sub,,6224,,18,,,Active,,,https://www.redfin.com/FL/Key-Largo/Palm-Dr-33037/home/139481449,FLKMLS,607456,N,Y,25.122243,-80.414009
MLS Listing,,Single Family Residential,309 Jasmine St,Duck Key,FL,33050,1249000,3,2.0,Yacht Club Island,1659,8000,1972,18,753,,Active,,,https://www.redfin.com/FL/Marathon/309-Jasmine-St-33050/home/139277301,FLKMLS,607453,N,Y,24.7744293,-80.908438
MLS Listing,,Vacant Land,23 Bonita Ave,Key Largo,FL,33037,209000,,,Bowens Addn Riviera Village,,6450,,18,,,Active,,,https://www.redfin.com/FL/Key-Largo/23-Bunting-Dr-33037/home/139438177,FLKMLS,607457,N,Y,25.1634701,-80.384676
MLS Listing,,Vacant Land,15 Hibiscus Ln,Key Largo,FL,33037,300000,,,Hibiscus Park,,7000,,18,,,Active,,,https://www.redfin.com/FL/Key-Largo/15-Hibiscus-Ln-33037/home/139559234,FLKMLS,607451,N,Y,25.1112896,-80.4206878
MLS Listing,,Townhouse,64 Merganser Ln,Key West,FL,33040,670000,2,1.5,Key West Golf Club Dev,780,1032,1995,18,859,425,Active,,,https://www.redfin.com/FL/Key-West/64-Merganser-Ln-33040/home/139541879,FLKMLS,607452,N,Y,24.5776262,-81.7388721
MLS Listing,,Mobile/Manufactured Home,701 Spanish Main Dr #247,Cudjoe Key,FL,33042,650000,2,2.0,Venture Out,864,2076,2008,18,752,340,Active,,,https://www.redfin.com/FL/Cudjoe-Key/701-Spanish-Main-Dr-33042/unit-247/home/139664244,FLKMLS,607450,N,Y,24.6541106,-81.4735653
MLS Listing,,Single Family Residential,201 Dexter Ct,Key Largo,FL,33070,1899000,3,2.0,Hammer Point,1134,6452,1986,18,1675,6,Active,,,https://www.redfin.com/FL/Tavernier/201-Dexter-Ct-33070/home/139152715,FLKMLS,607448,N,Y,25.02476,-80.5120009
MLS Listing,,Condo/Co-op,3675 Seaside Dr #342,Key West,FL,33040,695000,2,2.0,Salt Pond,772,,2000,19,900,700,Active,,,https://www.redfin.com/FL/Key-West/3675-Seaside-Dr-33040/unit-342/home/139606098,FLKMLS,607447,N,Y,24.5612379,-81.7530049
MLS Listing,,Mobile/Manufactured Home,187 W Avenue A,Key Largo,FL,33037,850000,3,2.0,KEY LARGO TRAILER VILLAGE,1584,3600,1977,19,537,25,Active,,,https://www.redfin.com/FL/Key-Largo/187-W-Avenue-A-33037/home/139291210,MARMLS,A11487265,N,Y,25.1140762,-80.4277623
MLS Listing,,Single Family Residential,21 Ocean Bay Dr,Key Largo,FL,33037,740000,2,2.0,Key Largo Beach,1223,6519,1974,19,605,,Active,,,https://www.redfin.com/FL/Key-Largo/21-Ocean-Bay-Dr-33037/home/139173767,FLKMLS,607443,N,Y,25.0892305,-80.4414965
MLS Listing,,Vacant Land,174 Ocean Shores Dr,Key Largo,FL,33037,265000,,,Key Largo Ocn Shores,,11560,,19,,,Active,,,https://www.redfin.com/FL/Key-Largo/174-Ocean-Shores-Dr-33037/home/139692123,FLKMLS,607222,N,Y,25.085586,-80.43884
MLS Listing,,Single Family Residential,45 Tarpon Ave,Key Largo,FL,33037,1200000,3,2.0,"Riviera Village, Rec Amd",1530,5250,2020,19,784,21,Active,,,https://www.redfin.com/FL/Key-Largo/45-Tarpon-Ave-33037/home/139439886,FLKMLS,607441,N,Y,25.1566243,-80.3901119
MLS Listing,,Single Family Residential,201 12th St,Key Colony,FL,33051,2395000,3,2.0,Coury Sub,2088,8200,1998,19,1147,,Active,,,https://www.redfin.com/FL/Key-Colony-Beach/201-12th-St-33051/home/139340991,FLKMLS,607440,N,Y,24.7192951,-81.0252801
MLS Listing,,Single Family Residential,73 Coral Dr,Key Colony,FL,33051,930000,2,2.0,Key Colony Beach Botel,1290,2810,1972,19,721,,Active,,,https://www.redfin.com/FL/Key-Colony-Beach/73-Coral-Ln-33051/home/139399086,FLKMLS,607439,N,Y,24.7305445,-81.0196708
MLS Listing,,Single Family Residential,11295 5th Ave Unit Ocean,Marathon,FL,33050,3185000,3,2.0,Little Venice,1739,7570,2019,19,1832,,Active,,,https://www.redfin.com/FL/Marathon/11295-5th-Ave-33050/unit-Ocean/home/188581145,FLKMLS,607438,N,Y,24.732063,-81.0349444
MLS Listing,,Single Family Residential,129 Seaside Ave,Key Largo,FL,33037,2000000,3,2.0,Seaside Sub,1720,16678,2000,19,1163,,Active,,,https://www.redfin.com/FL/Key-Largo/129-Seaside-Ave-33037/home/139554670,FLKMLS,607437,N,Y,25.0409136,-80.4919808
MLS Listing,,Condo/Co-op,799 W Ocean Dr #304,Key Colony,FL,33051,1300000,2,2.0,Castillo Del Sol,1650,,1990,19,788,1657,Active,,,https://www.redfin.com/FL/Key-Colony-Beach/799-W-Ocean-Dr-33051/unit-304/home/176146006,FLKMLS,607436,N,Y,24.7196322,-81.0205554
MLS Listing,,Single Family Residential,224 Tide Ave,Plantation Key,FL,33070,7500000,4,5.5,Edenaire,3830,12800,2023,19,1958,25,Active,,,https://www.redfin.com/FL/Tavernier/224-Tide-Ave-33070/home/139435666,FLKMLS,607435,N,Y,25.0070025,-80.5307887
MLS Listing,,Vacant Land,66 Cannon Royal Dr,Shark Key,FL,33040,950000,,,Shark Key,,21750,,19,,,Active,,,https://www.redfin.com/FL/Key-West/66-Cannon-Royal-Dr-33040/home/139533749,FLKMLS,607431,N,Y,24.611125,-81.651241
MLS Listing,,Townhouse,80450 Overseas Hwy #101,Upper Matecumbe Key Islamorada,FL,33036,589000,2,2.5,Sand Pebbles,1232,,1983,19,478,1267,Active,,,https://www.redfin.com/FL/Islamorada/80450-Overseas-Hwy-33036/unit-101/home/139223959,FLKMLS,607429,N,Y,24.905785,-80.6506834
MLS Listing,,Condo/Co-op,97652 Overseas Hwy Unit P12,Key Largo,FL,33037,699000,2,1.5,Rock Harbor Condo,1130,609840,1975,20,619,1033,Active,,,https://www.redfin.com/FL/Key-Largo/97652-Overseas-Hwy-33037/unit-P12/home/139406261,FLKMLS,607426,N,Y,25.075798,-80.46306
MLS Listing,,Single Family Residential,22957 Drake Ln,Cudjoe Key,FL,33042,949000,2,2.0,Cutthroat Harbor Est,1008,6000,1986,20,941,,Active,,,https://www.redfin.com/FL/Cudjoe-Key/22957-Drake-Ln-33042/home/139468915,FLKMLS,607418,N,Y,24.6529389,-81.4754206
MLS Listing,,Single Family Residential,1500 W Copa D Oro,Marathon,FL,33050,4500000,4,3.5,Flamingo Island,2272,19256,2020,20,1981,,Active,,,https://www.redfin.com/FL/Marathon/1500-Copa-D-Oro-33050/home/139677397,FLKMLS,607415,N,Y,24.7029537,-81.086525
MLS Listing,,Condo/Co-op,97652 Overseas Hwy Unit HH23,Key Largo,FL,33037,675000,1,1.5,Rock Harbor Condo,1150,609840,1975,21,587,638,Active,,,https://www.redfin.com/FL/Key-Largo/97652-Overseas-Hwy-33037/unit-HH23/home/139257563,FLKMLS,607414,N,Y,25.075798,-80.46306
MLS Listing,,Vacant Land,0 SW Palace Ter,Other City - In The State Of Florida,FL,33052,45000,,,Beaver Woods,,217800,,21,,,Active,,,https://www.redfin.com/FL/Other-City-In-The-State-Of-Florida/0-SW-Palace-TER-33052/home/188559371,MARMLS,A11486005,N,Y,24.7154301,-81.0789325
MLS Listing,,Single Family Residential,5409 3rd Ave,Stock Island,FL,33040,799000,3,2.0,Robyn Sub,1075,3457,2006,21,743,,Active,,,https://www.redfin.com/FL/Stock-Island/5409-3rd-Ave-33040/home/139302483,FLKMLS,607413,N,Y,24.5695974,-81.7398791
MLS Listing,,Condo/Co-op,3930 S Roosevelt Blvd Unit E201,Key West,FL,33040,659000,3,2.0,Las Salinas,1072,,1991,21,615,518,Active,,,https://www.redfin.com/FL/Key-West/3930-S-Roosevelt-Blvd-33040/unit-201E/home/139252753,FLKMLS,607410,N,Y,24.5597032,-81.7510446
MLS Listing,,Single Family Residential,311 Caribbean Dr,Key Largo,FL,33037,2499000,5,4.5,PORT LARGO 3RD ADD,2882,12438,2002,21,867,325,Active,,,https://www.redfin.com/FL/Key-Largo/311-Caribbean-Dr-33037/home/139379780,MARMLS,A11484898,N,Y,25.0930041,-80.4367159
MLS Listing,,Single Family Residential,94825 Overseas Hwy 281,Key Largo,FL,33037,1125000,4,3.5,KEY LARGO OCEAN RESORT CO,1540,1658,2020,21,731,434,Active,,,https://www.redfin.com/FL/Key-Largo/94825-Overseas-Hwy-33037/unit-281/home/139389927,MARMLS,A11484868,N,Y,25.043697,-80.489776
MLS Listing,,Single Family Residential,94825 Overseas Hwy 282,Key Largo,FL,33037,1125000,4,3.5,KEY LARGO OCEAN RESORT CO,1470,1658,2020,21,765,434,Active,,,https://www.redfin.com/FL/Key-Largo/94825-Overseas-Hwy-33037/unit-282/home/139446345,MARMLS,A11484860,N,Y,25.043697,-80.489776
MLS Listing,,Condo/Co-op,9812 Windward Ave #68,Key Largo,FL,33037,1500000,3,3.0,LANDINGS OF LARGO,1271,,1981,21,1180,2464,Active,,,https://www.redfin.com/FL/Key-Largo/9812-Windward-Ave-33037/unit-68/home/139209202,MARMLS,A11485661,N,Y,25.0794412,-80.4582701
MLS Listing,,Vacant Land,0 Niles Rd,Summerland Key,FL,33042,250000,,,Summerland Key Gard,,58806,,21,,,Active,,,https://www.redfin.com/FL/Summerland-Key/Niles-Rd-33042/home/139341586,FLKMLS,607406,N,Y,24.68116,-81.445983
MLS Listing,,Single Family Residential,732 Windsor Ln,Key West,FL,33040,1850000,2,2.0,Old Town - Unlisted,1080,1549,1933,21,1713,,Active,,,https://www.redfin.com/FL/Key-West/732-Windsor-Ln-33040/home/139216633,FLKMLS,607407,N,Y,24.55527,-81.7975538
MLS Listing,,Single Family Residential,805 Virginia St,Key West,FL,33040,1590000,3,2.0,Tropical Sub,1415,2115,1933,21,1124,,Active,,,https://www.redfin.com/FL/Key-West/805-Virginia-St-33040/home/139363502,FLKMLS,607408,N,Y,24.5528313,-81.7945796
MLS Listing,,Single Family Residential,55 Ocean Dr,Key Largo,FL,33037,2155000,3,2.5,Harborage,2716,5725,2011,21,793,248,Active,,,https://www.redfin.com/FL/Key-Largo/55-Ocean-Dr-33037/home/139386131,FLKMLS,607403,N,Y,25.0703051,-80.4624412
MLS Listing,,Mobile/Manufactured Home,207 Antigua Rd,Key Largo,FL,33070,375000,2,2.0,Harris Ocean Park,1016,6080,1961,21,369,,Active,,,https://www.redfin.com/FL/Tavernier/207-Antigua-Rd-33070/home/139435966,FLKMLS,607404,N,Y,25.0239965,-80.5024149
MLS Listing,,Single Family Residential,1416 White St,Key West,FL,33040,3500000,4,4.0,Webb Realty Co Sub,2263,3849,2004,21,1547,,Active,,,https://www.redfin.com/FL/Key-West/1416-White-St-33040/home/139607699,FLKMLS,607402,N,Y,24.5512653,-81.7877864
MLS Listing,,Single Family Residential,20864 W 4th Ave,Cudjoe Key,FL,33042,2698000,3,3.5,Cudjoe Gardens,3056,12500,2004,21,883,6,Active,,,https://www.redfin.com/FL/Cudjoe-Key/20864-4th-Ave-W-33042/home/139487292,FLKMLS,607401,N,Y,24.6616091,-81.508186
MLS Listing,,Townhouse,29 Kingfisher Ln,Key West,FL,33040,825000,2,2.5,Key West Golf Club Dev,1115,1615,1996,21,740,425,Active,,,https://www.redfin.com/FL/Key-West/29-Kingfisher-Ln-33040/home/139208609,FLKMLS,607400,N,Y,24.5751172,-81.7397509
MLS Listing,,Townhouse,105 Golf Club Dr,Key West,FL,33040,685000,2,2.0,Key West Golf Club Dev,780,2158,1996,21,878,425,Active,,,https://www.redfin.com/FL/Key-West/105-Golf-Club-Dr-33040/home/139506383,FLKMLS,607398,N,Y,24.5764745,-81.7426684
MLS Listing,,Single Family Residential,1221 20Th St,Key West,FL,33040,1250000,3,2.0,Pearlman Est,1826,6900,1965,21,685,,Active,,,https://www.redfin.com/FL/Key-West/1221-20th-St-33040/home/139629415,FLKMLS,607397,N,Y,24.5693234,-81.7541971
MLS Listing,,Vacant Land,142 Gulfview Dr,Lower Matecumbe,FL,33036,1650000,,,White Marlin Bch,,7000,,21,,8,Active,,,https://www.redfin.com/FL/Islamorada/142-Gulfview-Dr-33036/home/139421470,FLKMLS,607390,N,Y,24.8581047,-80.731848
MLS Listing,,Single Family Residential,166 Dove Creek Dr,Key Largo,FL,33070,900000,4,2.5,Harris Ocean Park,1868,5500,1975,22,482,,Active,,,https://www.redfin.com/FL/Tavernier/166-Dove-Creek-Dr-33070/home/139379511,FLKMLS,607396,N,Y,25.0278054,-80.4943696
MLS Listing,,Single Family Residential,264 Hibiscus St,Plantation Key,FL,33070,625000,2,1.0,Plant Key Colony,884,5250,1962,22,707,21,Active,,,https://www.redfin.com/FL/Tavernier/264-Hibiscus-St-33070/home/139382652,FLKMLS,607395,N,Y,24.9954974,-80.5424343
MLS Listing,,Single Family Residential,101551 Overseas Hwy Lot 11,Key Largo,FL,33037,489000,2,1.0,Key Largo Kampground,360,1769,2019,22,1358,184,Active,,,https://www.redfin.com/FL/Key-Largo/101551-Overseas-Hwy-33037/unit-11/home/139474816,MARMLS,A11484962,N,Y,25.1143291,-80.416808
MLS Listing,,Single Family Residential,1312 Ocean Dr,Summerland Key,FL,33042,1550000,3,3.0,Snug Harbor Sub,1350,8000,2002,22,1148,,Active,,,https://www.redfin.com/FL/Summerland-Key/1312-Ocean-Dr-33042/home/139134656,FLKMLS,607394,N,Y,24.6451424,-81.4437674
MLS Listing,,Mobile/Manufactured Home,6099 Overseas Hwy Unit 86E,Marathon,FL,33050,360000,0,,Keys RV/Mobile Home Condominium,,1133,1976,22,,180,Active,,,https://www.redfin.com/FL/Marathon/6099-Overseas-Hwy-33050/unit-86E/home/139489355,FLKMLS,607393,N,Y,24.7173943,-81.0703558
MLS Listing,,Single Family Residential,27725 Sea Whip St,Little Torch Key,FL,33042,1100000,3,2.0,Coral Shores Estates,1400,4140,2020,22,786,,Active,,,https://www.redfin.com/FL/Summerland-Key/27725-Sea-Whip-St-33042/home/139346000,FLKMLS,607392,N,Y,24.689247,-81.399368
MLS Listing,,Moorage,1801 N Roosevelt Blvd Unit M24,Key West,FL,33040,475000,,,Monroe Investement Co Sub,,,1998,23,,,Active,,,https://www.redfin.com/FL/Key-West/1801-N-Roosevelt-Blvd-33040/unit-M24/home/185008313,FLKMLS,604882,N,Y,24.560083,-81.7843985
MLS Listing,,Single Family Residential,432 4Th Rd,Key Largo,FL,33037,845000,3,2.0,Largo Sound Vill,1341,6000,2015,23,630,17,Active,,,https://www.redfin.com/FL/Key-Largo/432-4th-Rd-33037/home/139575543,FLKMLS,607389,N,Y,25.1435598,-80.3930254
MLS Listing,,Single Family Residential,,Key Largo,FL,33037,459000,2,2.0,,804,6000,1979,23,571,,Active,,,https://www.redfin.com/FL/Key-Largo/Undisclosed-address-33037/home/139465157,MARMLS,A11484556,N,Y,25.1716974,-80.3761735
MLS Listing,,Multi-Family (2-4 Unit),909 Pohalski St,Key West,FL,33040,1599900,2,2.5,Old Town - Unlisted,1268,1496,1928,23,1262,,Active,,,https://www.redfin.com/FL/Key-West/909-Pohalski-St-33040/home/139205380,FLKMLS,607388,N,Y,24.5564026,-81.7921203
MLS Listing,,Single Family Residential,1550 4Th St,Key West,FL,33040,925000,2,2.0,Ser-Deb Estates,1022,5184,1968,24,905,,Active,,,https://www.redfin.com/FL/Key-West/1550-4th-St-33040/home/139671895,FLKMLS,607386,N,Y,24.5552541,-81.7765446
MLS Listing,,Condo/Co-op,87851 Old Hwy Unit K5 & boat slip 42,Plantation Key,FL,33036,1155000,2,2.0,Ocean Harbor,1536,,1989,24,752,1005,Active,,,https://www.redfin.com/FL/Islamorada/87851-Old-Hwy-33036/unit-K5-boat-slip-42/home/186101219,FLKMLS,607383,N,Y,24.9672743,-80.5587318
MLS Listing,,Single Family Residential,235 Buttonwood Shores Dr,Key Largo,FL,33037,1149000,3,2.5,Buttonwood Shores,2511,7200,1999,24,458,,Active,,,https://www.redfin.com/FL/Key-Largo/235-Buttonwood-Shores-Dr-33037/home/139435239,FLKMLS,607384,N,Y,25.0981824,-80.4387585
MLS Listing,,Condo/Co-op,87455 Old Hwy #123,Plantation Key,FL,33036,463000,2,2.0,Plant By The Sea,993,,1977,24,466,654,Active,,,https://www.redfin.com/FL/Islamorada/87455-Old-Hwy-33036/unit-123/home/139272243,FLKMLS,607382,N,Y,24.9667557,-80.5603185
MLS Listing,,Vacant Land,0 Lots 5 & 6 Vacant Land Way,Big Pine Key,FL,33043,350000,,,Doctors Arm 1st Add,,10775,,24,,,Active,,,https://www.redfin.com/FL/Big-Pine-Key/Lots-5-6-Vacant-Land-WAY-33043/home/188536639,Beaches MLS,RX-10935175,N,Y,24.702795,-81.34985
MLS Listing,,Single Family Residential,904 25Th St,Marathon,FL,33050,763500,2,2.0,Harbor Isle,971,4125,1970,24,786,,Active,,,https://www.redfin.com/FL/Marathon/904-25th-Street-Ocean-33050/home/139322340,FLKMLS,607379,N,Y,24.7070397,-81.099669
MLS Listing,,Single Family Residential,47 Coconut Dr,Key Largo,FL,33037,814999,3,2.5,Key Largo Park,,,2019,24,,,Active,,,https://www.redfin.com/FL/Key-Largo/47-Coconut-Dr-33037/home/139595766,MARMLS,A11484734,N,Y,25.1043878,-80.4327499
MLS Listing,,Single Family Residential,186 186 Dove Creek Dr,Key Largo,FL,33070,675000,0,,Harris Ocean Park,,,2024,24,,,Active,,,https://www.redfin.com/FL/Tavernier/186-Dove-Creek-Dr-33070/home/139264490,MARMLS,A11484704,N,Y,25.028472,-80.494336
MLS Listing,,Condo/Co-op,3930 S Roosevelt Blvd Unit N211,Key West,FL,33040,579000,2,2.0,Las Salinas,806,,1991,24,718,377,Active,,,https://www.redfin.com/FL/Key-West/3930-S-Roosevelt-Blvd-33040/unit-211N/home/139340721,FLKMLS,607378,N,Y,24.5597032,-81.7510446
MLS Listing,,Single Family Residential,1108 Truman Ave,Key West,FL,33040,1395000,2,2.0,Gwynn Sub,1380,3134,1928,24,1011,,Active,,,https://www.redfin.com/FL/Key-West/1108-Truman-Ave-33040/home/139248656,FLKMLS,607377,N,Y,24.5554946,-81.7919233
MLS Listing,,Single Family Residential,10987 County Rd,Key Largo,FL,33037,8999000,3,3.5,Cardsound Point 1,3649,20850,1984,24,2466,,Active,December-5-2023 11:00 AM,December-5-2023 02:00 PM,https://www.redfin.com/FL/Key-Largo/10987-County-RD-33037/home/182577705,FLKMLS,607375,N,Y,25.210703,-80.336924
MLS Listing,,Condo/Co-op,620 Thomas St #168,Key West,FL,33040,859000,1,1.0,Shipyard PH 1,604,,1991,24,1422,1015,Active,,,https://www.redfin.com/FL/Key-West/620-Thomas-St-33040/unit-168/home/139610213,FLKMLS,607374,N,Y,24.5524583,-81.8047845
MLS Listing,,Condo/Co-op,500 Burton Dr #3304,Key Largo,FL,33070,575000,1,1.0,Ocean Pointe,577,3005640,1991,24,997,1070,Active,,,https://www.redfin.com/FL/Tavernier/500-Burton-Dr-33070/unit-3304/home/139281499,FLKMLS,607371,N,Y,25.020931,-80.5048665
MLS Listing,,Single Family Residential,311 Stirrup Key Blvd,Marathon,FL,33050,2999997,4,3.0,Stirrup Key Sub,2462,27600,1997,24,1219,200,Active,,,https://www.redfin.com/FL/Marathon/311-Stirrup-Key-Blvd-33050/home/139245780,FLKMLS,607372,N,Y,24.7361148,-81.043939
MLS Listing,,Single Family Residential,24347 W Caribbean Dr,Summerland Key,FL,33042,1295000,3,2.0,Summerland Key Cove,1232,6000,1993,24,1051,,Active,,,https://www.redfin.com/FL/Summerland-Key/24347-Caribbean-Dr-W-33042/home/139228296,FLKMLS,607373,N,Y,24.6611064,-81.4527466
MLS Listing,,Single Family Residential,542 Sands Rd,Big Pine Key,FL,33043,825000,3,2.0,Whispering Pines,1323,10318,1969,24,624,,Active,,,https://www.redfin.com/FL/Big-Pine-Key/542-Sands-Rd-33043/home/139637662,FLKMLS,607370,N,Y,24.6772676,-81.3482132
MLS Listing,,Single Family Residential,314 E Seaview Dr,Duck Key,FL,33050,5600000,4,3.5,Yacht Club Island,3295,7500,2020,24,1700,,Active,,,https://www.redfin.com/FL/Duck-Key/314-E-Seaview-Dr-33050/home/139420705,FLKMLS,607358,N,Y,24.7681368,-80.9107714
MLS Listing,,Single Family Residential,7 Higgs Ln,Key West,FL,33040,2695000,4,3.0,Old Town - Unrecord,2410,3838,1923,25,1118,,Active,,,https://www.redfin.com/FL/Key-West/7-Higgs-Ln-33040/home/139204790,FLKMLS,607365,N,Y,24.5585612,-81.801815
MLS Listing,,Condo/Co-op,79901 Overseas Hwy #312,Islamorada,FL,33036,635000,2,2.0,Palms Of Islamorada Condo,981,,1976,25,647,850,Active,,,https://www.redfin.com/FL/Islamorada/79901-Overseas-Hwy-33036/unit-312/home/139671326,Beaches MLS,F10408880,N,Y,24.8989056,-80.6566654
MLS Listing,,Single Family Residential,1407 Rose St,Key West,FL,33040,2260000,4,3.0,Macros Subd,2050,6000,1969,25,1102,,Active,,,https://www.redfin.com/FL/Key-West/1407-Rose-St-33040/home/139249692,FLKMLS,607363,N,Y,24.5506699,-81.7835891
MLS Listing,,Single Family Residential,1225 5Th St,Key West,FL,33040,1100000,3,2.0,Key West Realty Cos Sub,1412,5000,1963,25,779,,Active,December-10-2023 11:00 AM,December-10-2023 02:00 PM,https://www.redfin.com/FL/Key-West/1225-5th-St-33040/home/139535724,FLKMLS,607362,N,Y,24.5603682,-81.7782535
MLS Listing,,Single Family Residential,120 Plantation Dr,Plantation Key,FL,33070,1875000,3,3.0,Tropical Atlantic Shores 1st Addn,1944,8050,1984,25,965,,Active,,,https://www.redfin.com/FL/Tavernier/120-Plantation-Dr-33070/home/176144595,FLKMLS,607361,N,Y,24.9990651,-80.5364874
MLS Listing,,Mobile/Manufactured Home,65821 Overseas Hwy #306,Long Key,FL,33001,345000,1,1.5,Outdoor Resorts,819,1905,1978,25,421,360,Active,,,https://www.redfin.com/FL/Long-Key/65821-Overseas-Hwy-33001/unit-306/home/139373099,FLKMLS,607360,N,Y,24.8069559,-80.8429511
MLS Listing,,Single Family Residential,5 Ibis Ln,Geiger Key,FL,33040,1499000,3,2.0,Boca Chica Ocean Shr,1450,6000,1982,25,1034,,Active,,,https://www.redfin.com/FL/Key-West/5-Ibis-Ln-33040/home/139260576,FLKMLS,607359,N,Y,24.586214,-81.6488205
MLS Listing,,Mobile/Manufactured Home,31019 Avenue C,Big Pine Key,FL,33043,625000,3,2.0,Sands Sub,1566,5000,2003,25,399,,Active,,,https://www.redfin.com/FL/Big-Pine-Key/31019-Avenue-C-33043/home/139599922,FLKMLS,607333,N,Y,24.6711233,-81.3477835
MLS Listing,,Single Family Residential,1400 Olivia St,Key West,FL,33040,1850000,2,2.5,Benj Alburys Subd,1518,5270,1899,25,1219,,Active,,,https://www.redfin.com/FL/Key-West/1400-Olivia-St-33040/home/139521941,FLKMLS,607356,N,Y,24.5581489,-81.7899157
MLS Listing,,Single Family Residential,181 5th St,Key Colony,FL,33051,840000,2,2.0,KEY COLONY BEACH,885,3300,1969,25,949,,Active,,,https://www.redfin.com/FL/Key-Colony/181-5Th-ST-33051/home/178713306,MARMLS,A11482765,N,Y,24.721326,-81.016958
MLS Listing,,Single Family Residential,106 Tequesta St,Tavernier,FL,33070,2245000,4,4.0,INDIAN WATERWAYS,2800,6600,2022,25,802,,Active,,,https://www.redfin.com/FL/Tavernier/106-Tequesta-St-33070/home/139554148,MARMLS,A11483778,N,Y,24.9863389,-80.5449862
MLS Listing,,Single Family Residential,62900 Overseas Highway 51,Marathon,FL,33050,1990000,3,3.5,Coral Key Village,2206,4106,2009,26,902,70,Active,,,https://www.redfin.com/FL/Conch-Key/62900-Overseas-Hwy-33050/unit-51/home/139698691,MARMLS,A11483749,N,Y,24.7888115,-80.88804
MLS Listing,,Single Family Residential,835 Norwood Ave,Key Largo,FL,33037,499000,2,1.0,Largo Highlands,810,5000,1959,26,616,,Active,,,https://www.redfin.com/FL/Key-Largo/835-Norwood-Ave-33037/home/139198708,FLKMLS,607354,N,Y,25.1663771,-80.3805553
MLS Listing,,Mobile/Manufactured Home,270 83rd St,Marathon,FL,33050,445000,3,2.0,Lida Sub,1248,5000,1982,26,357,,Active,,,https://www.redfin.com/FL/Marathon/270-83rd-Street-Ocean-33050/home/139568630,FLKMLS,607353,N,Y,24.7222877,-81.054923
MLS Listing,,Single Family Residential,67 N Bay Hbr,Key Largo,FL,33037,899000,2,1.0,Sunset Point,1036,,1973,26,868,,Active,,,https://www.redfin.com/FL/Key-Largo/67-N-Bay-Harbor-Dr-33037/home/139436827,MARMLS,A11483563,N,Y,25.0486402,-80.4901132
MLS Listing,,Single Family Residential,1409 White St,Key West,FL,33040,3700000,4,4.5,Tropical Bldt & Investment Co Sub,2048,4678,1938,26,1807,,Active,,,https://www.redfin.com/FL/Key-West/1409-White-St-33040/home/139114968,FLKMLS,607352,N,Y,24.5520152,-81.7878292
MLS Listing,,Single Family Residential,87429 Old Hwy,Plantation Key,FL,33036,19990000,6,7.0,Plant Beach,6602,104310,2022,26,3028,,Active,,,https://www.redfin.com/FL/Islamorada/87429-Old-Hwy-33036/home/139431482,FLKMLS,607350,N,Y,24.9656016,-80.5616611
MLS Listing,,Single Family Residential,780 92Nd Street Ocean St,Marathon,FL,33050,1375000,3,2.0,Gulfstream Village,2600,3495,2011,26,529,,Active,,,https://www.redfin.com/FL/Marathon/780-92nd-Court-Ocean-33050/home/139419642,FLKMLS,607349,N,Y,24.7228575,-81.0494387
MLS Listing,,Single Family Residential,27351 Saint Croix Ln,Ramrod Key,FL,33042,799000,2,2.0,Breezeswept Bch Est,936,9000,1976,26,854,,Active,,,https://www.redfin.com/FL/Ramrod-Key/27351-Saint-Croix-Ln-33042/home/139238611,FLKMLS,607348,N,Y,24.6540853,-81.4059831
MLS Listing,,Moorage,97 Coco Plum Dr Unit A-12,Marathon,FL,33050,199000,,,Bonefish Marina,,,1985,26,,300,Active,,,https://www.redfin.com/FL/Marathon/97-Coco-Plum-Dr-33050/unit-A-12/home/176150869,FLKMLS,607346,N,Y,24.7250726,-81.0127398
MLS Listing,,Single Family Residential,846 Olivia St,Key West,FL,33040,1699000,3,3.0,Old Town - Unrecord,1817,2132,1908,26,935,,Active,,,https://www.redfin.com/FL/Key-West/846-Olivia-St-33040/home/139537388,FLKMLS,607324,N,Y,24.5552332,-81.7945125
MLS Listing,,Single Family Residential,472 Bahia Ave,Key Largo,FL,33037,2799000,3,2.0,Port Largo,1386,9375,1990,26,2019,27,Active,,,https://www.redfin.com/FL/Key-Largo/472-Bahia-Ave-33037/home/139613079,FLKMLS,607343,N,Y,25.0948826,-80.4317176
MLS Listing,,Single Family Residential,139 Bessie Rd #0,Plantation Key,FL,33070,1799900,3,2.0,Boatmans Colony,1152,12367,1983,26,1562,,Active,,,https://www.redfin.com/FL/Tavernier/139-Bessie-Rd-33070/home/139191398,FLKMLS,607341,N,Y,25.0012672,-80.5343169
MLS Listing,,Single Family Residential,516 Elizabeth St,Key West,FL,33040,1799000,2,2.5,Old Town - Unlisted,1495,1983,1892,27,1203,,Active,,,https://www.redfin.com/FL/Key-West/516-Elizabeth-St-33040/home/139478109,FLKMLS,607340,N,Y,24.5568679,-81.8001737
MLS Listing,,Single Family Residential,250 Key Honey Ln,Plantation Key,FL,33070,1695000,4,3.0,Randall Adams,2538,8025,1987,27,668,,Active,,,https://www.redfin.com/FL/Tavernier/250-Key-Honey-Ln-33070/home/139489003,FLKMLS,607337,N,Y,24.982561,-80.5504641
MLS Listing,,Mobile/Manufactured Home,27772 Astrangia Ave,Little Torch Key,FL,33042,575000,2,2.0,Coral Shores Estates,1012,4140,1978,27,568,,Active,,,https://www.redfin.com/FL/Little-Torch-Key/27772-Astrangia-Ave-33042/home/139463738,FLKMLS,607334,N,Y,24.689567,-81.3988125
MLS Listing,,Single Family Residential,114 Harbor Dr,Plantation Key,FL,33070,1500000,3,2.0,Tropical Atlantic Shores,1632,8050,1989,27,919,,Active,,,https://www.redfin.com/FL/Tavernier/114-Harbor-Dr-33070/home/139437143,FLKMLS,607335,N,Y,25.0000292,-80.5350549
MLS Listing,,Single Family Residential,26 Key Haven Rd,Key Haven,FL,33040,1699000,3,3.0,Key Haven 2nd Add,1520,6000,2002,27,1118,,Active,,,https://www.redfin.com/FL/Key-West/26-Key-Haven-Rd-33040/home/139218224,FLKMLS,607336,N,Y,24.5783698,-81.7335176
MLS Listing,,Single Family Residential,121 Lisbon Ct,Lower Matecumbe,FL,33036,2599000,2,2.0,Port Antigua,1228,7000,1980,27,2116,42,Active,,,https://www.redfin.com/FL/Islamorada/121-Lisbon-Ct-33036/home/139351181,FLKMLS,607330,N,Y,24.8631374,-80.7298653
MLS Listing,,Condo/Co-op,206 Southard St #4,Key West,FL,33040,875000,2,1.0,Shipyard PH 1,646,,1991,27,1354,1015,Active,,,https://www.redfin.com/FL/Key-West/206-Southard-St-33040/unit-4/home/176151686,FLKMLS,607331,N,Y,24.552364,-81.804795
MLS Listing,,Moorage,12411 Overseas Hwy Unit 4C,Marathon,FL,33050,25000,,,Boat House Marina,,,2006,27,,357,Active,,,https://www.redfin.com/FL/Marathon/12411-Overseas-Hwy-33050/unit-4C/home/176146381,FLKMLS,607327,N,Y,24.7306621,-81.0243093
MLS Listing,,Condo/Co-op,1500 Overseas Hwy #203,Marathon,FL,33050,950000,2,2.0,Casa Cayo,1137,,1986,27,836,1011,Active,,,https://www.redfin.com/FL/Marathon/1500-Overseas-Hwy-33050/unit-203/home/139615954,FLKMLS,607326,N,Y,24.7105806,-81.1092209
MLS Listing,,Mobile/Manufactured Home,55 Boca Chica Rd #69,Big Coppitt,FL,33040,389000,2,2.0,Seaside Resort TP,864,2312,1993,27,450,257,Active,,,https://www.redfin.com/FL/Key-West/55-Boca-Chica-Rd-33040/unit-69/home/139532992,FLKMLS,607328,N,Y,24.5986514,-81.651185
MLS Listing,,Single Family Residential,1025 Elgin Ln,Key West,FL,33040,1095000,2,2.0,Old Town - Unlisted,1110,,1928,27,986,,Active,,,https://www.redfin.com/FL/Key-West/1025-Elgin-Ln-33040/home/180409996,FLKMLS,607329,N,Y,24.5607689,-81.7969462
MLS Listing,,Vacant Land,213 Lignumvitae Dr,Key Largo,FL,33037,380000,,,Pamela Villa,,5350,,27,,,Active,,,https://www.redfin.com/FL/Key-Largo/213-Lignumvitae-Dr-33037/home/177583576,FLKMLS,607323,N,Y,25.120066,-80.415978
MLS Listing,,Single Family Residential,23076 Tarpon Ln,Cudjoe Key,FL,33042,2399000,4,3.5,Cudjoe Ocean Shores,1938,6500,2023,27,1238,,Active,,,https://www.redfin.com/FL/Cudjoe-Key/23076-Tarpon-Ln-33042/home/139507116,FLKMLS,607321,N,Y,24.659275,-81.4735331
MLS Listing,,Single Family Residential,94825 Overseas Hwy #104,Key Largo,FL,33037,1395000,3,2.5,KEY LARGO OCEAN RESORT CO,1642,1658,2023,27,850,434,Active,,,https://www.redfin.com/FL/Key-Largo/94825-Overseas-Hwy-33037/unit-104/home/139605962,MARMLS,A11475312,N,Y,25.043697,-80.489776
MLS Listing,,Single Family Residential,11 Harbor Dr,Key Largo,FL,33037,1695000,3,2.5,SUNSET WATERWAYS,1596,6000,1994,28,1062,,Active,,,https://www.redfin.com/FL/Key-Largo/11-Harbor-Dr-33037/home/139353023,MARMLS,A11482213,N,Y,25.1080702,-80.4299356
MLS Listing,,Multi-Family (2-4 Unit),2011 Flagler Ave,Key West,FL,33040,1200000,7,1.5,Key West Realty Cos Sub,1692,5000,1950,28,709,,Active,,,https://www.redfin.com/FL/Key-West/2011-Flagler-Ave-33040/home/176142664,FLKMLS,607318,N,Y,24.5561171,-81.7788516
MLS Listing,,Single Family Residential,180 S Airport Rd,Plantation Key,FL,33070,2250000,3,3.0,Tavernaero,2458,21390,1976,28,915,208,Active,,,https://www.redfin.com/FL/Tavernier/180-S-Airport-Rd-33070/home/139476413,FLKMLS,607316,N,Y,25.0045476,-80.5328627
MLS Listing,,Single Family Residential,451 E Shore Dr,Summerland Key,FL,33042,2995000,4,3.0,Summerland Estates,2416,47212,1993,28,1240,,Active,,,https://www.redfin.com/FL/Summerland-Key/451-E-Shore-Dr-33042/home/139257270,FLKMLS,607315,N,Y,24.6551552,-81.4367614
MLS Listing,,Single Family Residential,19831 Date Palm Dr,Sugarloaf Key,FL,33042,1250000,2,2.0,Gulf Shores,1008,10000,1983,28,1240,,Active,,,https://www.redfin.com/FL/Summerland-Key/19831-Date-Palm-Dr-33042/home/139529488,FLKMLS,607313,N,Y,24.6631556,-81.5241347
MLS Listing,,Vacant Land,20 Coco Plum Dr,Marathon,FL,33050,4500000,,,Coco Plum Beach,,30000,,28,,,Active,,,https://www.redfin.com/FL/Marathon/20-Coco-Plum-Dr-33050/home/139596933,FLKMLS,607311,N,Y,24.7337097,-81.013047
MLS Listing,,Vacant Land,82900 Overseas Hwy,Upper Matecumbe Key Islamorada,FL,33036,6750000,,,Peacon-Leatherman,,339102,,28,,,Active,,,https://www.redfin.com/FL/Islamorada/82900-Old-Hwy-33036/home/176142788,FLKMLS,607307,N,Y,24.9282277,-80.6226043
MLS Listing,,Single Family Residential,17123 W Green Turtle Ln,Sugarloaf Key,FL,33042,1349000,3,2.0,Sugarloaf Shores,1456,12500,2000,28,927,,Active,,,https://www.redfin.com/FL/Sugarloaf-Key/17123-Green-Turtle-Ln-W-33042/home/139236320,FLKMLS,607308,N,Y,24.6403093,-81.5589785
MLS Listing,,Mobile/Manufactured Home,405 Bahia Honda Rd,Key Largo,FL,33037,795000,3,2.0,LAKE SURPRISE ESTATES,770,5892,1993,28,1032,,Active,,,https://www.redfin.com/FL/Key-Largo/405-Bahia-Honda-Rd-33037/home/139692624,MARMLS,A11481541,N,Y,25.172928,-80.375532
MLS Listing,,Single Family Residential,211 120Th Street Gulf St Unit A,Marathon,FL,33050,499000,2,1.0,Hawaiian Village,728,3551,1973,29,685,,Active,,,https://www.redfin.com/FL/Marathon/211-120th-Street-Gulf-33050/unit-A/home/139596751,FLKMLS,607303,N,Y,24.731374,-81.027715
MLS Listing,,Single Family Residential,101 Admirals Ln,Key West,FL,33040,7900000,5,4.0,Old Town - Unrecord,3173,14183,1994,30,2490,441,Active,,,https://www.redfin.com/FL/Key-West/101-Admirals-Ln-33040/home/139396576,FLKMLS,607301,N,Y,24.5554037,-81.8063023
MLS Listing,,Single Family Residential,3746 Park Ave,Big Pine Key,FL,33043,1089000,2,2.0,Port Pine Heights,975,8625,1986,30,1117,,Active,,,https://www.redfin.com/FL/Big-Pine-Key/3746-Park-Ave-33043/home/139400382,FLKMLS,607299,N,Y,24.7224983,-81.3889788
MLS Listing,,Multi-Family (2-4 Unit),415 Bahama St,Key West,FL,33040,6200000,10,8.0,Old Town - Unlisted,3672,5962,1933,30,1688,,Active,,,https://www.redfin.com/FL/Key-West/415-Bahama-St-33040/home/176153010,FLKMLS,607300,N,Y,24.5569423,-81.8024302
MLS Listing,,Single Family Residential,1311 Grinnell St,Key West,FL,33040,4499000,5,6.0,Webb Realty Co Sub,2681,4555,1943,30,1678,,Active,,,https://www.redfin.com/FL/Key-West/1311-Grinnell-St-33040/home/139548250,FLKMLS,607297,N,Y,24.5516545,-81.79077
MLS Listing,,Single Family Residential,180 Galleon Rd,Plantation Key,FL,33036,19000000,6,8.0,Treasure Harbor,7160,16809,2023,30,2654,,Active,,,https://www.redfin.com/FL/Islamorada/180-Galleon-Rd-33036/home/139690563,FLKMLS,607298,N,Y,24.95383,-80.572567
MLS Listing,,Single Family Residential,1314 Virginia St,Key West,FL,33040,1270000,3,2.0,Island City Sub,1068,2207,1938,30,1189,,Active,,,https://www.redfin.com/FL/Key-West/1314-Virginia-St-33040/home/139664276,FLKMLS,607293,N,Y,24.5559897,-81.7889653
MLS Listing,,Single Family Residential,845 Gulf Dr,Summerland Key,FL,33042,1299000,2,2.0,Summerland Cove Isle,1008,6060,1987,30,1289,,Active,,,https://www.redfin.com/FL/Summerland-Key/845-Gulf-Dr-33042/home/139414827,FLKMLS,607294,N,Y,24.6544641,-81.4431988
MLS Listing,,Moorage,5950 Peninsular Ave #642,Stock Island,FL,33040,2750,,,Oceanside Marina,,,1996,30,,,Active,,,https://www.redfin.com/FL/Key-West/5950-Peninsular-Ave-33040/unit-642/home/176148658,FLKMLS,607296,N,Y,24.5635669,-81.7289463
MLS Listing,,Single Family Residential,30556 Anthony St,Big Pine Key,FL,33043,1100000,4,3.0,Whispering Pines,2448,17500,1963,30,449,,Active,,,https://www.redfin.com/FL/Big-Pine-Key/30556-Anthony-St-33043/home/139377052,FLKMLS,607292,N,Y,24.6842428,-81.3542714
MLS Listing,,Mobile/Manufactured Home,1361 Overseas Hwy Unit F-31,Marathon,FL,33050,179900,1,1.0,Riggs Sub (47.5),500,,2022,30,360,792,Active,December-4-2023 04:00 PM,December-4-2023 06:00 PM,https://www.redfin.com/FL/Marathon/1361-Overseas-Hwy-33050/unit-F31/home/184900122,Beaches MLS,RX-10933388,N,Y,24.7068629,-81.1103092
MLS Listing,,Condo/Co-op,9 Sombrero Blvd #205,Marathon,FL,33050,535000,2,2.0,Island Club,1001,,1973,30,534,836,Active,,,https://www.redfin.com/FL/Marathon/9-Sombrero-Blvd-33050/unit-205/home/139673131,FLKMLS,607291,N,Y,24.713594,-81.078298
MLS Listing,,Townhouse,9816 Magellan Dr #9816,Key Largo,FL,33037,899900,2,2.0,LANDINGS OF LARGO II,1029,,1988,30,875,1072,Active,,,https://www.redfin.com/FL/Key-Largo/9816-Magellan-Dr-33037/unit-9816/home/139520159,MARMLS,A11480921,N,Y,25.081389,-80.457733
MLS Listing,,Single Family Residential,352 E Seaview Dr,Duck Key,FL,33050,2300000,2,3.0,Yacht Club Island,1944,8298,1984,31,1183,29,Active,,,https://www.redfin.com/FL/Duck-Key/352-E-Seaview-Dr-33050/home/139382019,FLKMLS,607289,N,Y,24.7708535,-80.9078331
MLS Listing,,Single Family Residential,2412 Linda Ave,Key West,FL,33040,1785000,2,2.0,Key Est Resub Blk 2,1638,6472,1950,31,1090,,Active,,,https://www.redfin.com/FL/Key-West/2412-Linda-Ave-33040/home/139535921,FLKMLS,607288,N,Y,24.557346,-81.7743657
MLS Listing,,Vacant Land,701 Spanish Main Dr #236,Cudjoe Key,FL,33042,355000,,,Venture Out,,2023,,31,,340,Active,,,https://www.redfin.com/FL/Cudjoe-Key/701-Spanish-Main-Dr-33042/unit-236/home/139397240,FLKMLS,607286,N,Y,24.6541106,-81.4735653
MLS Listing,,Multi-Family (2-4 Unit),29527 & 29529 Constitution Ave,Big Pine Key,FL,33043,1085000,4,2.0,Pine Channel Estates,1680,7875,1982,31,646,,Active,,,https://www.redfin.com/FL/Big-Pine-Key/29527-Constitution-Ave-33043/home/176152619,FLKMLS,607284,N,Y,24.6712122,-81.3708149
MLS Listing,,Condo/Co-op,88500 Overseas Hwy #206,Islamorada,FL,33070,480000,2,1.5,SUMMER SEA,794,,1976,31,605,783,Active,,,https://www.redfin.com/FL/Tavernier/88500-Overseas-Hwy-33070/unit-206/home/139277058,MARMLS,A11480762,N,Y,24.973981,-80.555752
MLS Listing,,Single Family Residential,613 Portia Cir,Key Largo,FL,33037,1650000,3,3.5,KEY LARGO BEACH ADD,2515,7880,2009,31,656,,Active,,,https://www.redfin.com/FL/Key-Largo/613-Portia-Cir-33037/home/139490566,MARMLS,A11480681,N,Y,25.0860041,-80.439845
MLS Listing,,Single Family Residential,220 14th St,Key Colony,FL,33051,699000,5,5.0,Key Colony Beach,3669,8360,2021,31,191,,Active,,,https://www.redfin.com/FL/Key-Colony-Beach/220-14th-St-33051/home/139395482,FLKMLS,607283,N,Y,24.7221873,-81.0278905
MLS Listing,,Single Family Residential,168 Harborview Dr,Key Largo,FL,33070,5500000,4,3.0,Tavernier Harbor,1690,16170,1974,31,3254,,Active,,,https://www.redfin.com/FL/Tavernier/168-Harborview-Dr-33070/home/139429494,FLKMLS,607282,N,Y,25.0137918,-80.5162996
MLS Listing,,Single Family Residential,21082 6Th Ave #21082,Cudjoe Key,FL,33042,1200000,3,2.5,Cudjoe Gardens,2274,16730,1974,31,528,6,Active,,,https://www.redfin.com/FL/Summerland-Key/21082-6th-Ave-33042/unit-21082/home/188371871,FLKMLS,607278,N,Y,24.6599686,-81.5044127
MLS Listing,,Single Family Residential,913 Plantation Rd,Key Largo,FL,33037,650000,3,2.0,LAKE SURPRISE ESTATES,976,5000,1973,31,666,,Active,,,https://www.redfin.com/FL/Key-Largo/913-Plantation-Rd-33037/home/139555462,MARMLS,A11480139,N,Y,25.1675817,-80.3793376
MLS Listing,,Condo/Co-op,1101 W Ocean Dr #36,Key Colony,FL,33051,419000,2,2.0,Sea Isle Condominium,990,,1973,31,423,733,Active,,,https://www.redfin.com/FL/Key-Colony-Beach/1101-W-Ocean-Dr-33051/unit-36/home/176152499,FLKMLS,607276,N,Y,24.7173887,-81.023209
MLS Listing,,Mobile/Manufactured Home,325 Calusa St #443,Key Largo,FL,33037,399000,2,1.0,CALUSA CAMPGROUND,,2100,2000,31,,172,Active,,,https://www.redfin.com/FL/Key-Largo/325-Calusa-St-33037/unit-443/home/139387633,MARMLS,A11478082,N,Y,25.1106372,-80.4302616
MLS Listing,,Single Family Residential,410 Louisa St,Key West,FL,33040,2945000,3,3.0,Southernmost Hidaways,2002,3017,2002,31,1471,,Active,,,https://www.redfin.com/FL/Key-West/410-Louisa-St-33040/home/139609511,FLKMLS,607273,N,Y,24.5481882,-81.7981518
MLS Listing,,Single Family Residential,31028 Avenue H,Big Pine Key,FL,33043,729000,3,2.0,Sands Sub,1440,5000,2018,31,506,,Active,,,https://www.redfin.com/FL/Big-Pine-Key/31028-Avenue-H-33043/home/139571248,FLKMLS,607272,N,Y,24.6740195,-81.3477405
MLS Listing,,Single Family Residential,400 White St,Key West,FL,33040,2075000,3,2.5,Old Town - Unlisted,1845,1670,1933,31,1125,,Active,,,https://www.redfin.com/FL/Key-West/400-White-St-33040/home/139170175,FLKMLS,607271,N,Y,24.561783,-81.795599
MLS Listing,,Townhouse,9816 Magellan Dr,Key Largo,FL,33037,899900,2,2.0,Landings of Largo,1029,,1988,31,875,1015,Active,,,https://www.redfin.com/FL/Key-Largo/9816-Magellan-Dr-33037/home/186303802,FLKMLS,607270,N,Y,25.081389,-80.457733
MLS Listing,,Condo/Co-op,1101 W Ocean Dr #19,Key Colony,FL,33051,529000,2,2.0,Sea Isle Condominium,990,,1973,32,534,733,Active,,,https://www.redfin.com/FL/Key-Colony-Beach/1101-W-Ocean-Dr-33051/unit-19/home/176151620,FLKMLS,607269,N,Y,24.7173887,-81.023209
MLS Listing,,Condo/Co-op,88181 Old Hwy Unit g1 & 30' slip,Plantation Key,FL,33036,799000,3,2.0,Coral Harbour,1593,,1979,32,502,1271,Active,,,https://www.redfin.com/FL/Islamorada/88181-Old-Hwy-33036/unit-G1/home/139435502,FLKMLS,607265,N,Y,24.972015,-80.553305
MLS Listing,,Single Family Residential,3 Eagle Dr,Key Largo,FL,33037,897000,4,2.0,SEXTON COVES ESTATES,1628,3600,1984,32,551,8,Active,,,https://www.redfin.com/FL/Key-Largo/3-Eagle-Dr-33037/home/139482117,MARMLS,A11479135,N,Y,25.1665157,-80.3821536
MLS Listing,,Vacant Land,VACANT Land,Saddlebunch,FL,33040,199000,,,Saddlebunch Shores,,751407,,32,,,Active,,,https://www.redfin.com/FL/Boca-Chica-Key/Vacant-LAND-33040/home/176148343,FLKMLS,607262,N,Y,24.598479,-81.636162
MLS Listing,,Single Family Residential,677 Heck Ave,Little Torch Key,FL,33042,899000,2,2.0,Mates Beach,875,6456,1977,32,1027,,Active,,,https://www.redfin.com/FL/Little-Torch-Key/677-Heck-Ave-33042/home/139576522,FLKMLS,607259,N,Y,24.6752817,-81.3904389
MLS Listing,,Condo/Co-op,500 Burton Dr #3206,Key Largo,FL,33070,675000,2,2.0,Ocean Pointe,841,3005640,1991,32,803,1070,Active,,,https://www.redfin.com/FL/Tavernier/500-Burton-Dr-33070/unit-3206/home/139691965,FLKMLS,607260,N,Y,25.020931,-80.5048665
MLS Listing,,Single Family Residential,316 Julia St,Key West,FL,33040,1199000,3,2.0,Old Town - Unrecord,1100,2007,2016,32,1090,,Active,,,https://www.redfin.com/FL/Key-West/316-Julia-St-33040/home/139216558,FLKMLS,607257,N,Y,24.5495013,-81.8004977
MLS Listing,,Condo/Co-op,1101 W Ocean Dr #24,Key Colony,FL,33051,460000,2,2.0,Sea Isle Condominium,990,,1973,32,465,733,Active,,,https://www.redfin.com/FL/Key-Colony-Beach/1101-W-Ocean-Dr-33051/unit-24/home/176145068,FLKMLS,607258,N,Y,24.7173887,-81.023209
MLS Listing,,Condo/Co-op,3841 N Roosevelt Blvd #531,Key West,FL,33040,1495000,2,2.5,New Town - Unlisted,1357,,2006,33,1102,4567,Active,,,https://www.redfin.com/FL/Key-West/3841-N-Roosevelt-Blvd-33040/unit-531/home/139454728,FLKMLS,607252,N,Y,24.5713367,-81.7522739
MLS Listing,,Condo/Co-op,1001 W Ocean Dr Unit 1-204,Key Colony,FL,33051,849000,2,2.0,Monte Christo,1343,,1980,33,632,5285,Active,,,https://www.redfin.com/FL/Key-Colony-Beach/1001-W-Ocean-Dr-33051/unit-1-204/home/177445913,FLKMLS,607251,N,Y,24.7181571,-81.0220225
MLS Listing,,Single Family Residential,128 W Plaza Del Sol,Lower Matecumbe,FL,33036,3999000,6,5.0,Port Antigua,2843,14370,1986,33,1407,83,Active,,,https://www.redfin.com/FL/Islamorada/128-W-Plaza-del-Sol-33036/home/139477298,FLKMLS,607248,N,Y,24.8632372,-80.7314677
MLS Listing,,Vacant Land,136 S Bay Harbor Dr,Key Largo,FL,33037,214000,,,Bay Harbor,,4000,,33,,67,Active,,,https://www.redfin.com/FL/Key-Largo/136-Harbor-Dr-33037/home/139384362,FLKMLS,607247,N,Y,25.0868478,-80.4479282
MLS Listing,,Vacant Land,133 Orange Ln,Plantation Key,FL,33036,415000,,,Plant Beach,,10500,,33,,13,Active,,,https://www.redfin.com/FL/Islamorada/133-Orange-Ln-33036/home/139543417,FLKMLS,607244,N,Y,24.9689279,-80.562771
MLS Listing,,Single Family Residential,318 Margaret St,Key West,FL,33040,1925000,2,2.0,Old Town - Unlisted,1463,2889,1930,33,1316,,Active,,,https://www.redfin.com/FL/Key-West/318-Margaret-St-33040/home/139131286,FLKMLS,607242,N,Y,24.5603076,-81.7994609
MLS Listing,,Mobile/Manufactured Home,20 El Monte Ln,Big Coppitt,FL,33040,479000,2,1.0,Gulfrest Park #2,640,3200,1961,33,748,,Active,,,https://www.redfin.com/FL/Key-West/20-El-Monte-Ln-33040/home/139647846,FLKMLS,607240,N,Y,24.601124,-81.668416
MLS Listing,,Mobile/Manufactured Home,174 W Avenue C,Key Largo,FL,33037,775000,2,2.0,KEY LARGO TRAILER VILLAGE,1655,3600,1978,33,468,15,Active,,,https://www.redfin.com/FL/Key-Largo/174-W-Avenue-C-33037/home/139179814,MARMLS,A11478989,N,Y,25.1144132,-80.4276536
MLS Listing,,Single Family Residential,522 Simonton St,Key West,FL,33040,6850000,5,5.5,Old Town - Unlisted,3342,6610,1869,33,2050,,Active,,,https://www.redfin.com/FL/Key-West/522-Simonton-St-33040/home/139241939,FLKMLS,607237,N,Y,24.5559536,-81.8011917
MLS Listing,,Single Family Residential,3617 Park Ave,Big Pine Key,FL,33043,699000,2,1.0,Port Pine Heights,864,16100,1989,33,809,,Active,,,https://www.redfin.com/FL/Big-Pine-Key/3617-Park-Ave-33043/home/139412683,FLKMLS,607235,N,Y,24.7205897,-81.3885923
MLS Listing,,Single Family Residential,7006 Harbor Village Dr,Duck,FL,33050,715000,,,Hawks Cay Resort,,,2005,33,,585,Active,,,https://www.redfin.com/FL/Duck-Key/7006-Harbor-Village-Dr-33050/home/139309618,MARMLS,A11477602,N,Y,24.7728004,-80.9124457
MLS Listing,,Single Family Residential,81801 Overseas Hwy #722,Islamorada,FL,33036,710000,1,1.0,HOTEL CONDOMINIUM AT CHEE,550,,1988,34,1291,2761,Active,,,https://www.redfin.com/FL/Islamorada/81801-Overseas-Hwy-33036/unit-722/home/139443144,MARMLS,A11478800,N,Y,24.916243,-80.6347982
MLS Listing,,Condo/Co-op,3930 S Roosevelt Blvd Unit W308,Key West,FL,33040,589000,2,2.0,Las Salinas,803,,1991,34,733,377,Active,,,https://www.redfin.com/FL/Key-West/3930-S-Roosevelt-Blvd-33040/unit-308W/home/139173387,FLKMLS,607232,N,Y,24.5597032,-81.7510446
MLS Listing,,Townhouse,1407 12Th St,Key West,FL,33040,769000,2,2.0,New Town - Unrecord,1511,5156,1982,34,509,,Active,,,https://www.redfin.com/FL/Key-West/1407-12th-St-33040/home/139249312,FLKMLS,607230,N,Y,24.5620726,-81.7674563
MLS Listing,,Vacant Land,64th St,Marathon,FL,33050,1550000,,,Edmonds Acre Tracts,,43000,,34,,,Active,,,https://www.redfin.com/FL/Marathon/64th-St-33050/home/176142665,FLKMLS,607226,N,Y,24.714448,-81.068396
MLS Listing,,Single Family Residential,3820 Eagle Ave,Key West,FL,33040,3950000,5,5.5,Key West Fwdn Sub,4202,18000,1989,34,940,,Active,,,https://www.redfin.com/FL/Key-West/3820-Eagle-Ave-33040/home/139662137,FLKMLS,607225,N,Y,24.5662703,-81.7522739
MLS Listing,,Single Family Residential,94825 Overseas Highway #185,Key Largo,FL,33037,1085000,3,2.5,KEY LARGO OCEAN RESORT CO,1650,1658,2021,34,658,,Active,,,https://www.redfin.com/FL/Key-Largo/94825-Overseas-Hwy-33037/unit-185/home/139339002,MARMLS,A11476026,N,Y,25.043697,-80.489776
