SALE TYPE,SOLD DATE,PROPERTY TYPE,ADDRESS,CITY,STATE OR PROVINCE,ZIP OR POSTAL CODE,PRICE,BEDS,BATHS,LOCATION,SQUARE FEET,LOT SIZE,YEAR BUILT,DAYS ON MARKET,$/SQUARE FEET,HOA/MONTH,STATUS,NEXT OPEN HOUSE START TIME,NEXT OPEN HOUSE END TIME,URL (SEE https://www.redfin.com/buy-a-home/comparative-market-analysis FOR INFO ON PRICING),SOURCE,MLS#,FAVORITE,INTERESTED,LATITUDE,LONGITUDE
"In accordance with local MLS rules, some MLS listings are not included in the download"
MLS Listing,,Condo/Co-op,1751 Scenic Highway 98 Unit 706,Destin,FL,32541,624500,2,2.0,Destin Beaches West,977,,2001,101,639,1010,Active,,,https://www.redfin.com/FL/Destin/1751-Scenic-Highway-98-32541/unit-706/home/139389713,ECAR,930776,N,Y,30.3853195,-86.4585373
MLS Listing,,Single Family Residential,295 Ketch Ct,Destin,FL,32541,989000,3,3.5,Destin East of Hwy 293/Midbay Bridge Rd,3243,7840,2000,102,305,253,Active,,,https://www.redfin.com/FL/Destin/295-Ketch-Ct-32541/home/139208160,ECAR,930764,N,Y,30.3925079,-86.4053824
MLS Listing,,Condo/Co-op,1751 Scenic Hwy 98 #810,Destin,FL,32541,629999,2,2.0,Destin Beaches West,977,,2001,115,645,1010,Active,,,https://www.redfin.com/FL/Destin/1751-Scenic-Highway-98-32541/unit-810/home/140006506,ECAR,929687,N,Y,30.3853195,-86.4585373
MLS Listing,,Condo/Co-op,1751 Scenic Highway 98 Unit 306,Destin,FL,32541,569500,2,2.0,Destin Beaches West,977,,2001,115,583,1010,Active,,,https://www.redfin.com/FL/Destin/1751-Scenic-Highway-98-32541/unit-306/home/139895213,ECAR,929686,N,Y,30.3853195,-86.4585373
MLS Listing,,Single Family Residential,4482 Rainbird Rise Rd,Crestview,FL,32539,385000,4,2.0,25 - Crestview Area,1653,172933,1998,41,233,,Active,,,https://www.redfin.com/FL/Crestview/4482-Rainbird-Rise-Rd-32539/home/139328457,NAMLS,935272,N,Y,30.8233964,-86.4169314
MLS Listing,,Single Family Residential,1202 Sunshine Dr,Crestview,FL,32539,259900,3,1.5,25 - Crestview Area,1375,18295,1972,89,189,,Active,,,https://www.redfin.com/FL/Crestview/1202-Sunshine-Dr-32539/home/139683940,NAMLS,927488,N,Y,30.7810704,-86.5498893
MLS Listing,,Single Family Residential,6632 Spyglass Hill Rd,Laurel Hill,FL,32567,315000,4,2.0,25 - Crestview Area,1791,19166,2022,149,176,75,Active,,,https://www.redfin.com/FL/Laurel-Hill/6632-Spyglass-Hill-Rd-32567/home/139129177,NAMLS,927230,N,Y,30.876836,-86.530346
MLS Listing,,Mobile/Manufactured Home,5408 N Hilton Rd,Baker,FL,32531,174900,3,2.0,25 - Crestview Area,1321,48787,2007,89,132,,Active,,,https://www.redfin.com/FL/Baker/5408-Hilton-Rd-N-32531/home/139456212,NAMLS,923350,N,Y,30.7634135,-86.6769061
MLS Listing,,Condo/Co-op,4203 Indian Bayou Trl Unit 1104,Destin,FL,32541,359900,2,2.0,14 - Destin,970,,2007,108,371,,Active,,,https://www.redfin.com/FL/Destin/4203-Indian-Bayou-Trl-32541/unit-1104/home/139843253,NAMLS,930240,N,Y,30.3890339,-86.4553366
MLS Listing,,Vacant Land,0 Grady Baggett Rd,Baker,FL,32531,129900,,,,,548420,,53,,,Active,,,https://www.redfin.com/FL/Baker/Grady-Baggett-Rd-32531/home/139548128,CPARMLS,747833,N,Y,30.934076,-86.617718
MLS Listing,,Mobile/Manufactured Home,6172 Sundew St,Crestview,FL,32539,220000,3,2.0,25 - Crestview Area,2221,51836,1991,77,99,,Active,,,https://www.redfin.com/FL/Crestview/6172-Sundew-St-32539/home/139405347,NAMLS,932549,N,Y,30.821373,-86.5139646
MLS Listing,,Vacant Land,0 Fairchild Rd,Crestview,FL,32539,35500,,,25 - Crestview Area,,69260,,3,,,Active,,,https://www.redfin.com/FL/Crestview/Fairchild-Rd-32539/home/139879640,NAMLS,937636,N,Y,30.759597,-86.516371
MLS Listing,,Vacant Land,2853/2861 Airport Rd,Crestview,FL,32539,1600000,,,25 - Crestview Area,,422096,,202,,,Active,,,https://www.redfin.com/FL/Crestview/2853-Airport-Rd-32539/home/139434833,NAMLS,923347,N,Y,30.7950688,-86.554563
MLS Listing,,Townhouse,532 Parkview #9,Fort Walton Beach,FL,32547,199000,2,2.5,Park Place 3rd Add,1200,,1981,26,166,,Active,,,https://www.redfin.com/FL/Fort-Walton-Beach/532-Parkview-Rd-NW-32547/unit-9/home/139846190,CPARMLS,748995,N,Y,30.4563307,-86.6240967
MLS Listing,,Townhouse,180 5th Ave,Shalimar,FL,32579,195000,2,1.5,12 - Fort Walton Beach,1260,1742,1973,18,155,124,Active,,,https://www.redfin.com/FL/Shalimar/180-5th-Ave-32579/home/139553166,NAMLS,936721,N,Y,30.4397018,-86.5636773
MLS Listing,,Single Family Residential,34 Cinderella Ln,Fort Walton Beach,FL,32547,559998,4,3.0,12 - Fort Walton Beach,2184,11325,1973,10,256,,Active,,,https://www.redfin.com/FL/Fort-Walton-Beach/34-Cinderella-Ln-NW-32547/home/139937386,NAMLS,937212,N,Y,30.4534813,-86.6196357
MLS Listing,,Townhouse,216 Angler Ave Unit 7,Fort Walton Beach,FL,32548,369900,2,2.5,12 - Fort Walton Beach,1410,871,1973,66,262,160,Active,,,https://www.redfin.com/FL/Fort-Walton-Beach/216-Angler-Ave-32548/unit-7/home/139758160,NAMLS,933484,N,Y,30.3972761,-86.6021621
MLS Listing,,Single Family Residential,700 Brian Cir,Mary Esther,FL,32569,545000,3,2.0,[No Recorded Subdiv],2563,11326,1981,53,213,,Active,,,https://www.redfin.com/FL/Mary-Esther/700-Brian-Cir-32569/home/139343606,CPARMLS,747734,N,Y,30.4167807,-86.6609903
MLS Listing,,Condo/Co-op,900 Gulf Shore Dr #3053,Destin,FL,32541,549900,2,2.0,14 - Destin,1430,,1975,298,385,1136,Active,,,https://www.redfin.com/FL/Destin/900-Gulf-Shore-Dr-32541/unit-3053/home/139210063,NAMLS,916749,N,Y,30.384196,-86.479921
MLS Listing,,Single Family Residential,231 Paradise Palm Cir,Crestview,FL,32536,385000,3,2.0,[No Recorded Subdiv],2170,10890,2014,124,177,50,Active,,,https://www.redfin.com/FL/Crestview/231-Paradise-Palm-Cir-32536/home/140022426,CPARMLS,744683,N,Y,30.7736764,-86.60029
MLS Listing,,Ranch,3645 Hwy 2,Laurel Hill,FL,32567,1299999,3,2.0,25 - Crestview Area,1446,3354120,1980,53,899,,Active,,,https://www.redfin.com/FL/Laurel-Hill/3645-Highway-2-32567/home/139402032,NAMLS,933951,N,Y,30.926212,-86.487759
MLS Listing,,Single Family Residential,287 Ketch Ct,Destin,FL,32541,1850000,4,3.0,14 - Destin,3000,,2006,167,617,,Active,,,https://www.redfin.com/FL/Destin/287-Ketch-Ct-32541/home/139869152,NAMLS,925914,N,Y,30.3921888,-86.4052241
MLS Listing,,Single Family Residential,427 Bridgewater Ct,Mary Esther,FL,32569,359900,3,2.0,12 - Fort Walton Beach,1513,5227,1994,84,238,,Active,,,https://www.redfin.com/FL/Mary-Esther/427-Bridgewater-Ct-32569/home/139570383,NAMLS,932017,N,Y,30.4092519,-86.7558795
MLS Listing,,Single Family Residential,3271 Fairway Pl Pl,Crestview,FL,32539,299500,3,2.5,25 - Crestview Area,1756,17859,1987,108,171,,Active,,,https://www.redfin.com/FL/Crestview/3271-Fairway-Pl-32539/home/139893516,NAMLS,930321,N,Y,30.7968281,-86.5196086
MLS Listing,,Single Family Residential,271 Destin Dr,Mary Esther,FL,32569,410000,3,2.0,,1740,8276,1966,77,236,,Active,,,https://www.redfin.com/FL/Mary-Esther/271-Destin-Dr-32569/home/139811219,CPARMLS,746783,N,Y,30.41301,-86.6691947
MLS Listing,,Single Family Residential,,Laurel Hill,FL,32567,1400000,7,5.5,,8700,1437480,1978,14,161,,Active,,,https://www.redfin.com/FL/Laurel-Hill/Undisclosed-address-32567/home/188626258,NAMLS,936957,N,Y,30.965737,-86.4596718
MLS Listing,,Vacant Land,E Redstone Ave,Crestview,FL,32539,745000,,,25 - Crestview Area,,298821,,237,,,Active,,,https://www.redfin.com/FL/Crestview/E-E-Redstone-Ave-32539/home/185045954,NAMLS,920803,N,Y,30.736744,-86.554218
MLS Listing,,Single Family Residential,126 Peoria Blvd,Crestview,FL,32536,345000,3,2.0,25 - Crestview Area,1801,27007,2006,26,192,19,Active,,,https://www.redfin.com/FL/Crestview/126-Peoria-Blvd-32536/home/139427320,NAMLS,935905,N,Y,30.7071686,-86.5831867
MLS Listing,,Townhouse,194 Bent Arrow Dr,Destin,FL,32541,345000,3,2.0,14 - Destin,1350,,1981,56,256,,Active,,,https://www.redfin.com/FL/Destin/194-Bent-Arrow-Dr-32541/home/139213260,NAMLS,934133,N,Y,30.395678,-86.485868
MLS Listing,,Condo/Co-op,4203 Indian Bayou Trl Unit 11204,Destin,FL,32541,480000,2,2.0,14 - Destin,970,,2007,58,495,901,Active,,,https://www.redfin.com/FL/Destin/4203-Indian-Bayou-Trl-32541/unit-11204/home/139192696,NAMLS,934069,N,Y,30.3890339,-86.4553366
MLS Listing,,Vacant Land,0 C-180 Hwy,Baker,FL,32531,599900,,,,,5096520,,27,,,Active,,,https://www.redfin.com/FL/Baker/C-180-HWY-32531/home/188477534,CPARMLS,748960,N,Y,30.97192,-86.699251
MLS Listing,,Single Family Residential,104 Woodbine Cir,Fort Walton Beach,FL,32548,368000,4,2.0,12 - Fort Walton Beach,1862,10890,1977,123,198,,Active,,,https://www.redfin.com/FL/Fort-Walton-Beach/104-Woodbine-Cir-32548/home/139663658,NAMLS,929188,N,Y,30.4291679,-86.6460338
MLS Listing,,Single Family Residential,5845 Hunting Meadows Dr,Crestview,FL,32536,350000,5,3.0,25 - Crestview Area,2145,15681,1999,70,163,16,Active,,,https://www.redfin.com/FL/Crestview/5845-Hunting-Meadows-Dr-32536/home/140001218,NAMLS,933137,N,Y,30.800416,-86.5737261
MLS Listing,,Single Family Residential,212 Woodland Park Cir,Mary Esther,FL,32569,335000,4,2.0,12 - Fort Walton Beach,1567,3920,1989,26,214,,Active,,,https://www.redfin.com/FL/Mary-Esther/212-Woodland-Park-Cir-32569/home/139852834,NAMLS,936196,N,Y,30.413765,-86.7160539
MLS Listing,,Single Family Residential,1512 W Mariah Way,Fort Walton Beach,FL,32547,370000,3,2.5,Wright,1660,6534,1986,1,223,13,Active,,,https://www.redfin.com/FL/Fort-Walton-Beach/1512-Mariah-Way-W-32547/home/139183443,ECAR,937012,N,Y,30.4612733,-86.6367231
MLS Listing,,Condo/Co-op,862 Scallop Court Ct #203,Fort Walton Beach,FL,32548,409000,1,2.0,Okaloosa Island,765,,1983,1,535,611,Active,,,https://www.redfin.com/FL/Fort-Walton-Beach/862-Scallop-Ct-32548/unit-203/home/139922075,ECAR,937680,N,Y,30.3973105,-86.6274397
MLS Listing,,Condo/Co-op,862 Scallop Ct Unit 108,Fort Walton Beach,FL,32548,455000,1,1.5,Okaloosa Island,727,,1983,1,626,705,Active,,,https://www.redfin.com/FL/Fort-Walton-Beach/862-Scallop-Ct-32548/unit-108/home/139751902,ECAR,937666,N,Y,30.3973105,-86.6274397
MLS Listing,,Vacant Land,282 Champion Ct,Destin,FL,32541,424900,,,West Destin,,9583,,1,,,Active,,,https://www.redfin.com/FL/Destin/282-Champion-Ct-32541/home/139185543,ECAR,937712,N,Y,30.398632,-86.439725
MLS Listing,,Townhouse,368 Schneider Dr Unit 11,Fort Walton Beach,FL,32547,254900,2,2.0,Wright,1200,,1996,2,212,,Active,,,https://www.redfin.com/FL/Fort-Walton-Beach/368-Schneider-Dr-32547/unit-11/home/139628825,ECAR,937700,N,Y,30.460669,-86.644636
MLS Listing,,Single Family Residential,1600 E Mariah Way,Fort Walton Beach,FL,32547,425000,3,2.5,Wright,1883,6534,1986,2,226,15,Active,,,https://www.redfin.com/FL/Fort-Walton-Beach/1600-Mariah-Way-E-32547/home/139937298,ECAR,937677,N,Y,30.4614187,-86.6353844
MLS Listing,,Single Family Residential,4696 Falcon Way,Crestview,FL,32539,260000,3,2.0,E Shoal Rvr-Cnty Line,1351,10454,2006,2,192,,Active,,,https://www.redfin.com/FL/Crestview/4696-Falcon-Way-32539/home/140018597,ECAR,937675,N,Y,30.7489296,-86.3969958
MLS Listing,,Single Family Residential,405 Government Ave,Valparaiso,FL,32580,250000,3,1.5,Valp No of Tom's Bayou,1350,15245,1965,2,185,,Active,,,https://www.redfin.com/FL/Valparaiso/405-Government-Ave-32580/home/139159537,ECAR,937603,N,Y,30.5161833,-86.5062674
MLS Listing,,Single Family Residential,423 Verb St,Fort Walton Beach,FL,32547,379900,3,2.0,Kenwood/Golf Course,1738,9583,1978,3,219,,Active,,,https://www.redfin.com/FL/Fort-Walton-Beach/423-Verb-St-32547/home/139480754,ECAR,937669,N,Y,30.4533761,-86.625028
MLS Listing,,Single Family Residential,1551 Lena St,Baker,FL,32531,519123,4,3.0,Baker & Milligan,3040,21780,2011,3,171,,Active,,,https://www.redfin.com/FL/Baker/1551-Lena-St-32531/home/139458585,ECAR,937667,N,Y,30.7655727,-86.6675225
MLS Listing,,Single Family Residential,2747 Savannah Ln,Crestview,FL,32539,359900,4,2.0,Crestview Southeast,2001,10018,1988,3,180,,Active,,,https://www.redfin.com/FL/Crestview/2747-Savannah-Ln-32539/home/139549393,ECAR,937661,N,Y,30.7038857,-86.5649538
MLS Listing,,Single Family Residential,3000 Jane Ln,Crestview,FL,32539,339900,4,2.5,Crestview Southeast,1999,7405,2024,3,170,46,Active,,,https://www.redfin.com/FL/Crestview/3000-Jane-LN-Unknown/home/188800913,ECAR,937653,N,Y,30.745325,-86.534153
MLS Listing,,Condo/Co-op,4274 Calinda Ln Apt 215,Niceville,FL,32578,295000,2,2.0,Bluewater Bay Area,1198,,1999,3,246,500,Active,,,https://www.redfin.com/FL/Niceville/4274-Calinda-Ln-32578/unit-215/home/139887371,ECAR,937324,N,Y,30.495535,-86.4353129
MLS Listing,,Single Family Residential,6460 Kylito Cir,Crestview,FL,32539,299500,3,2.0,Auburn & Garden City,1501,14374,2023,3,200,,Active,,,https://www.redfin.com/FL/Crestview/6460-Kylito-Cir-32539/home/139184641,ECAR,937648,N,Y,30.844948,-86.526407
MLS Listing,,Single Family Residential,5439 Lee Farm Blvd,Crestview,FL,32536,359923,4,2.0,Crestview Northwest,2200,,2023,3,164,6,Active,,,https://www.redfin.com/FL/Crestview/5439-Lee-Farm-Blvd-32536/home/139681035,ECAR,937642,N,Y,30.7687612,-86.602654
MLS Listing,,Single Family Residential,6447 Georgia Ave,Crestview,FL,32539,334900,3,2.0,Auburn & Garden City,1622,29620,2022,3,206,,Active,,,https://www.redfin.com/FL/Crestview/6447-Georgia-Ave-32539/home/177863609,ECAR,937635,N,Y,30.841173,-86.5254269
MLS Listing,,Single Family Residential,4590 Ashton Cir,Crestview,FL,32536,629000,4,3.0,Crestview Southwest,2916,14374,2023,3,216,25,Active,,,https://www.redfin.com/FL/Crestview/4590-Ashton-Cir-32536/home/139877892,ECAR,937633,N,Y,30.709281,-86.602304
MLS Listing,,Single Family Residential,520 Sibert Ave,Destin,FL,32541,869000,4,4.0,West Destin,2294,2613,2017,3,379,,Active,,,https://www.redfin.com/FL/Destin/520-Sibert-Ave-32541/home/140021701,ECAR,937631,N,Y,30.4060603,-86.4982727
MLS Listing,,Single Family Residential,6732 Cambrian Rdg,Laurel Hill,FL,32567,323900,4,2.0,Laurel Hill,1787,15681,2024,3,181,100,Active,,,https://www.redfin.com/FL/Laurel-Hill/6732-Cambrian-Rdg-32567/home/139885004,ECAR,937622,N,Y,30.871831,-86.535706
MLS Listing,,Single Family Residential,6728 Cambrian Rdg,Laurel Hill,FL,32567,323900,4,2.0,Laurel Hill,1787,16552,2024,3,181,100,Active,,,https://www.redfin.com/FL/Laurel-Hill/6728-Cambrian-Rdg-32567/home/139883605,ECAR,937617,N,Y,30.871413,-86.535383
MLS Listing,,Single Family Residential,6736 Cambrian Rdg,Laurel Hill,FL,32567,323900,4,2.0,Laurel Hill,1787,16552,2024,3,181,100,Active,,,https://www.redfin.com/FL/Laurel-Hill/6736-Cambrian-Rdg-32567/home/139741875,ECAR,937615,N,Y,30.871683,-86.536309
MLS Listing,,Single Family Residential,6738 Cambrian Rdg,Laurel Hill,FL,32567,343900,5,3.0,Laurel Hill,2012,19602,2024,3,171,100,Active,,,https://www.redfin.com/FL/Laurel-Hill/6738-Cambrian-Rdg-32567/home/139191913,ECAR,937613,N,Y,30.871628,-86.536634
MLS Listing,,Single Family Residential,8123 5th St,Laurel Hill,FL,32567,259900,3,1.5,Laurel Hill,1380,19602,1989,3,188,,Active,,,https://www.redfin.com/FL/Laurel-Hill/8123-5th-St-32567/home/139293808,ECAR,937611,N,Y,30.9618935,-86.4632195
MLS Listing,,Single Family Residential,6730 Cambrian Rdg,Laurel Hill,FL,32567,343900,5,3.0,Laurel Hill,2012,16117,2024,3,171,100,Active,,,https://www.redfin.com/FL/Laurel-Hill/6730-Cambrian-Rdg-32567/home/139880084,ECAR,937610,N,Y,30.871664,-86.535461
MLS Listing,,Single Family Residential,6734 Cambrian Rdg,Laurel Hill,FL,32567,343900,5,3.0,Laurel Hill,2012,16552,2023,3,171,100,Active,,,https://www.redfin.com/FL/Laurel-Hill/6734-Cambrian-Rdg-32567/home/139892920,ECAR,937609,N,Y,30.871742,-86.536014
MLS Listing,,Single Family Residential,6740 Cambrian Rdg,Laurel Hill,FL,32567,343900,5,3.0,Laurel Hill,2012,18295,2023,3,171,100,Active,,,https://www.redfin.com/FL/Laurel-Hill/6740-Cambrian-Rdg-32567/home/139615250,ECAR,937608,N,Y,30.871474,-86.536937
MLS Listing,,Townhouse,4232 Jade Loop,Destin,FL,32541,460000,3,2.0,West Destin,1756,2613,2016,3,262,217,Active,,,https://www.redfin.com/FL/Destin/4232-Jade-Loop-32541/home/139439789,ECAR,937605,N,Y,30.391871,-86.450901
MLS Listing,,Single Family Residential,62 NW Silva Dr,Fort Walton Beach,FL,32548,335000,3,1.5,West Fort Walton Beach,1117,9147,1960,3,300,,Active,,,https://www.redfin.com/FL/Fort-Walton-Beach/62-Silva-Dr-NW-32548/home/139566348,ECAR,937601,N,Y,30.41864,-86.621499
MLS Listing,,Single Family Residential,2517 Rutgers Rd,Crestview,FL,32536,334900,4,2.0,Crestview Northwest,1830,23086,2024,3,183,32,Active,,,https://www.redfin.com/FL/Unknown/2517-Rutgers-Rd-32536/home/188790377,ECAR,937600,N,Y,30.827784,-86.588652
MLS Listing,,Single Family Residential,377 Iowa St,Valparaiso,FL,32580,535000,4,2.0,Valp No of Tom's Bayou,2147,10890,2020,3,249,,Active,,,https://www.redfin.com/FL/Valparaiso/377-Iowa-St-32580/home/139566004,ECAR,937599,N,Y,30.5162943,-86.5028525
MLS Listing,,Single Family Residential,2519 Rutgers Rd,Crestview,FL,32536,334900,4,2.0,Crestview Northwest,1830,23086,2024,3,183,32,Active,,,https://www.redfin.com/FL/Unknown/2519-Rutgers-Rd-32536/home/188789710,ECAR,937598,N,Y,30.827784,-86.588652
MLS Listing,,Single Family Residential,410 NW Oakland Cir,Ft Walton Beach,FL,32548,299900,4,2.0,Oakland,1686,9147,1971,3,178,,Active,,,https://www.redfin.com/FL/Fort-Walton-Beach/410-Oakland-Cir-NW-32548/home/139365842,PARMLS,637085,N,Y,30.4163332,-86.6320769
MLS Listing,,Single Family Residential,4601 Jayhawk Dr,Crestview,FL,32539,370215,3,2.0,Crestview Southeast,1925,10018,2024,3,192,38,Active,,,https://www.redfin.com/FL/Crestview/4601-Jayhawk-Dr-32539/home/188592202,ECAR,937588,N,Y,30.714522,-86.543208
MLS Listing,,Condo/Co-op,4203 Indian Bayou Trl Unit 1510,Destin,FL,32541,399000,2,2.0,West Destin,970,,2007,3,411,901,Active,,,https://www.redfin.com/FL/Destin/4203-Indian-Bayou-Trl-32541/unit-1510/home/139486259,ECAR,937585,N,Y,30.3890339,-86.4553366
MLS Listing,,Single Family Residential,3521 Sugar Maple Ln,Crestview,FL,32539,325000,4,2.0,Auburn & Garden City,1772,15245,2021,3,183,12,Active,,,https://www.redfin.com/FL/Crestview/3521-Sugar-Maple-Ln-32539/home/139423500,ECAR,937434,N,Y,30.8336857,-86.4993783
MLS Listing,,Single Family Residential,909 Merganser Way,Crestview,FL,32539,379900,4,2.5,Crestview Southeast,2360,,2019,4,161,65,Active,,,https://www.redfin.com/FL/Crestview/909-Merganser-Way-32539/home/150070676,ECAR,937582,N,Y,30.7294079,-86.5403632
MLS Listing,,Single Family Residential,2612 Saltgrass Way,Crestview,FL,32536,309900,4,2.0,Crestview Northwest,1787,11761,2024,4,173,38,Active,,,https://www.redfin.com/FL/Crestview/2612-Saltgrass-WAY-32536/home/188777234,ECAR,937571,N,Y,30.810853,-86.572127
MLS Listing,,Single Family Residential,2610 Saltgrass Way,Crestview,FL,32536,289900,4,2.0,Crestview Northwest,1387,11761,2024,4,209,38,Active,,,https://www.redfin.com/FL/Crestview/2610-Saltgrass-WAY-32536/home/188777118,ECAR,937570,N,Y,30.811201,-86.572268
MLS Listing,,Single Family Residential,2606 Saltgrass Way,Crestview,FL,32536,289900,4,2.0,Crestview Northwest,1387,21780,2024,4,209,38,Active,,,https://www.redfin.com/FL/Crestview/2606-Saltgrass-WAY-32536/home/188776679,ECAR,937569,N,Y,30.812171,-86.571131
MLS Listing,,Single Family Residential,2608 Saltgrass Way,Crestview,FL,32536,289900,4,2.0,Crestview Northwest,1387,12632,2024,4,209,38,Active,,,https://www.redfin.com/FL/Crestview/2608-Saltgrass-WAY-32536/home/188776663,ECAR,937568,N,Y,30.810937,-86.572254
MLS Listing,,Single Family Residential,2604 Saltgrass Way,Crestview,FL,32536,309900,4,2.0,Crestview Northwest,1787,,2024,4,173,38,Active,,,https://www.redfin.com/FL/Crestview/2604-Saltgrass-WAY-32536/home/188776660,ECAR,937567,N,Y,30.810217,-86.57231
MLS Listing,,Single Family Residential,2602 Saltgrass Way,Crestview,FL,32536,309900,4,2.0,Crestview Northwest,1787,12196,2024,4,173,38,Active,,,https://www.redfin.com/FL/Crestview/2602-Saltgrass-WAY-32536/home/188776650,ECAR,937565,N,Y,30.810403,-86.572959
MLS Listing,,Single Family Residential,816 W Ridgewood Cv,Niceville,FL,32578,499969,4,2.0,Bluewater Bay Area,2067,12196,2002,4,242,,Active,,,https://www.redfin.com/FL/Niceville/816-Ridgewood-Cv-W-32578/home/139925080,ECAR,937566,N,Y,30.4701515,-86.4148947
MLS Listing,,Single Family Residential,2600 Saltgrass Way,Crestview,FL,32536,289900,4,2.0,Crestview Northwest,1387,12632,2024,4,209,38,Active,,,https://www.redfin.com/FL/Crestview/2600-Saltgrass-WAY-32536/home/188776616,ECAR,937563,N,Y,30.810494,-86.571672
MLS Listing,,Vacant Land,15b Marlborough Rd,Shalimar,FL,32579,1100000,,,Poquito Bayou,,27007,,4,,,Active,,,https://www.redfin.com/FL/Shalimar/15-Marlborough-Rd-32579/home/139170361,ECAR,937559,N,Y,30.4612162,-86.5919164
MLS Listing,,Single Family Residential,118 Brendas Way,Crestview,FL,32536,334900,4,2.5,Crestview Northwest,1992,18730,2024,4,168,42,Active,,,https://www.redfin.com/FL/Crestview/118-Brendas-Way-32536/home/139892555,ECAR,937552,N,Y,30.797264,-86.595986
MLS Listing,,Single Family Residential,116 Brendas Way,Crestview,FL,32536,334900,4,2.5,Crestview Northwest,1992,24393,2024,4,168,42,Active,,,https://www.redfin.com/FL/Crestview/116-Brendas-Way-32536/home/139741452,ECAR,937550,N,Y,30.797092,-86.596205
MLS Listing,,Condo/Co-op,909 Santa Rosa Blvd Unit 510,Fort Walton Beach,FL,32548,345000,2,2.0,Okaloosa Island,1135,,1973,4,304,763,Active,,,https://www.redfin.com/FL/Fort-Walton-Beach/909-Santa-Rosa-Blvd-32548/unit-510/home/139135113,ECAR,937549,N,Y,30.398601,-86.632468
MLS Listing,,Single Family Residential,114 Brendas Way,Crestview,FL,32536,334900,4,2.5,Crestview Northwest,1992,18295,2024,4,168,42,Active,,,https://www.redfin.com/FL/Crestview/114-Brendas-Way-32536/home/139610566,ECAR,937548,N,Y,30.796835,-86.5962459
MLS Listing,,Single Family Residential,211 Emmett Dr,Niceville,FL,32578,589900,4,3.0,So of 20 to Valp Blvd,2259,13939,2003,4,261,,Active,,,https://www.redfin.com/FL/Niceville/211-Emmett-Dr-32578/home/139850391,ECAR,937523,N,Y,30.4951823,-86.4628837
MLS Listing,,Single Family Residential,42 NW Marilyn Ave,Fort Walton Beach,FL,32548,349000,4,2.0,West Fort Walton Beach,1485,10018,1972,4,235,,Active,,,https://www.redfin.com/FL/Fort-Walton-Beach/42-Marilyn-Ave-NW-32548/home/139946922,ECAR,937522,N,Y,30.4191221,-86.6435144
MLS Listing,,Timeshare,10 Harbor Blvd Unit E802C,Destin,FL,32541,35000,2,2.0,Destin Beaches West,1249,,2007,4,28,488,Active,,,https://www.redfin.com/FL/Destin/10-Harbor-Blvd-32541/unit-E802C/home/170417783,ECAR,937500,N,Y,30.3946039,-86.5121292
MLS Listing,,Condo/Co-op,720 Gulf Shore Dr Unit 907,Destin,FL,32541,1950000,3,3.0,Destin Beaches West,1988,,1995,4,981,2167,Active,,,https://www.redfin.com/FL/Destin/720-Gulf-Shore-Dr-32541/unit-907/home/139138814,ECAR,937493,N,Y,30.3842361,-86.4867266
MLS Listing,,Townhouse,1100 Crosswinds Lndg Unit 19,Fort Walton Beach,FL,32547,379000,2,2.0,Wright,1330,,1988,5,285,231,Active,,,https://www.redfin.com/FL/Fort-Walton-Beach/1100-Crosswinds-Lndg-32547/unit-19/home/139953391,ECAR,937492,N,Y,30.459176,-86.6356917
MLS Listing,,Single Family Residential,3272 Fairway Pl,Crestview,FL,32539,269900,3,2.0,Auburn & Garden City,1466,12632,1984,5,184,,Active,,,https://www.redfin.com/FL/Crestview/3272-Fairway-Pl-32539/home/139593663,ECAR,937491,N,Y,30.7962923,-86.5196875
MLS Listing,,Townhouse,734 Legion Dr #93,Destin,FL,32541,299000,3,2.5,West Destin,1280,3049,1984,5,234,77,Active,,,https://www.redfin.com/FL/Destin/734-Legion-Dr-32541/unit-93/home/139209518,ECAR,937490,N,Y,30.3961828,-86.4847966
MLS Listing,,Condo/Co-op,4000 Gulf Terrace Dr Unit 101,Destin,FL,32541,235000,1,1.0,West Destin,873,,1973,5,269,498,Active,,,https://www.redfin.com/FL/Destin/4000-Gulf-Terrace-Dr-32541/unit-101/home/139459239,ECAR,937484,N,Y,30.3877831,-86.4673087
MLS Listing,,Vacant Land,4+/- AC Steel Mill Crk,Laurel Hill,FL,32567,39900,,,Laurel Hill,,200375,,5,,,Active,,,https://www.redfin.com/FL/Laurel-Hill/4-AC-Steel-Mill-Creek-Rd-32567/home/188756019,ECAR,937483,N,Y,30.959242,-86.457658
MLS Listing,,Condo/Co-op,4207 Indian Bayou Trl Unit 2314,Destin,FL,32541,454000,2,2.0,West Destin,970,,2007,5,468,901,Active,,,https://www.redfin.com/FL/Destin/4207-Indian-Bayou-Trl-32541/unit-2314/home/139610974,ECAR,937482,N,Y,30.3890638,-86.456443
MLS Listing,,Single Family Residential,405 Tobago Ct,Crestview,FL,32536,330000,4,2.0,Crestview Northwest,2064,10890,2003,5,160,,Active,,,https://www.redfin.com/FL/Crestview/405-Tobago-Ct-32536/home/139869969,ECAR,937481,N,Y,30.7752478,-86.5969407
MLS Listing,,Single Family Residential,4793 Coronado Cir,Crestview,FL,32539,314000,3,2.0,Crestview Southeast,1926,19166,1995,5,163,,Active,,,https://www.redfin.com/FL/Crestview/4793-Coronado-Cir-32539/home/139860266,ECAR,937480,N,Y,30.7236401,-86.5342877
MLS Listing,,Townhouse,415 Twin Lakes Ln,Destin,FL,32541,360000,3,2.5,West Destin,1560,1742,2004,5,231,163,Active,,,https://www.redfin.com/FL/Destin/415-Twin-Lakes-Ln-32541/home/139850824,ECAR,937477,N,Y,30.395397,-86.474318
MLS Listing,,Vacant Land,30 NE Harbeson Ave,Fort Walton Beach,FL,32548,300000,,,East Fort Walton Beach,,9147,,5,,,Active,,,https://www.redfin.com/FL/Fort-Walton-Beach/30-Harbeson-Ave-NE-32548/home/139686861,ECAR,937460,N,Y,30.4155603,-86.609558
MLS Listing,,Single Family Residential,3017 Jane Ln,Crestview,FL,32539,309900,4,2.0,Crestview Southeast,1387,13939,2024,5,223,46,Active,,,https://www.redfin.com/FL/Crestview/3017-Jane-Ln-32539/home/187650748,ECAR,937448,N,Y,30.745042,-86.534374
MLS Listing,,Vacant Land,0000 E Kaycee Jean Rd,Defuniak Springs,FL,32433,9000,,,DEFUNIAK SPRINGS,,54450,,5,,,Active,,,https://www.redfin.com/FL/Defuniak-Springs/E-Kaycee-Jean-RD-Unknown/home/182900844,Stellar MLS as Distributed by MLS Grid,OM668700,N,Y,30.827201695,-86.42755086
MLS Listing,,Single Family Residential,630 Shrewsbury Rd,Mary Esther,FL,32569,295500,3,1.0,Mary Esther/East of Hurlburt,912,9147,1964,5,324,,Active,,,https://www.redfin.com/FL/Mary-Esther/630-Shrewsbury-Rd-32569/home/139575658,ECAR,937432,N,Y,30.4183522,-86.65121
MLS Listing,,Single Family Residential,1477 Cypress St,Niceville,FL,32578,459000,3,2.0,Bluewater Bay Area,1800,10890,2019,6,255,,Active,,,https://www.redfin.com/FL/Niceville/1477-Cypress-St-32578/home/170415151,ECAR,937420,N,Y,30.4797185,-86.404319
MLS Listing,,Vacant Land,xxx Fairchild Rd,Crestview,FL,32539,350000,,,Auburn & Garden City,,953092,,6,,,Active,,,https://www.redfin.com/FL/Crestview/Fairchild-Rd-32539/home/139321262,ECAR,937417,N,Y,30.763791,-86.510087
MLS Listing,,Single Family Residential,117 Hope Dr,Crestview,FL,32536,299900,3,2.0,Crestview Southwest,1248,12196,1988,6,240,,Active,,,https://www.redfin.com/FL/Crestview/117-Hope-Dr-32536/home/139834328,ECAR,937277,N,Y,30.7090182,-86.5835809
MLS Listing,,Townhouse,1822 17th St #28,Niceville,FL,32578,365000,3,2.5,So of 20 to Valp Blvd,1317,,1984,6,277,130,Active,,,https://www.redfin.com/FL/Niceville/1822-17th-St-32578/unit-28/home/178829610,ECAR,937415,N,Y,30.5014718,-86.4552236
MLS Listing,,Townhouse,145 4th Ave Unit B3,Shalimar,FL,32579,199900,2,1.5,Shalimar/Port Dixie,1260,1742,1973,6,159,124,Active,,,https://www.redfin.com/FL/Shalimar/145-4th-Ave-32579/unit-B3/home/139123488,ECAR,937408,N,Y,30.4390811,-86.5645752
MLS Listing,,Single Family Residential,2515 Highway 98,Mary Esther,FL,32569,925000,3,2.0,Mary Esther/West of Hurlburt,2231,92782,1970,6,415,,Active,,,https://www.redfin.com/FL/Mary-Esther/2515-W-Highway-98-32569/home/139331861,ECAR,937407,N,Y,30.4091398,-86.7642427
MLS Listing,,Single Family Residential,36 NW Holmes Blvd,Fort Walton Beach,FL,32548,368500,4,2.0,West Fort Walton Beach,1453,9583,1958,6,254,,Active,,,https://www.redfin.com/FL/Fort-Walton-Beach/36-Holmes-Blvd-NW-32548/home/139502854,ECAR,936974,N,Y,30.4191697,-86.6182539
MLS Listing,,Condo/Co-op,1010 Hwy 98 East #1104,Destin,FL,32541,928500,2,2.0,Destin Beaches West,1453,,1982,6,639,1217,Active,,,https://www.redfin.com/FL/Destin/1010-Highway-98-E-32541/unit-1104/home/139196491,ECAR,937395,N,Y,30.3846848,-86.4712611
MLS Listing,,Townhouse,110 Skinner Cir Unit C,Fort Walton Beach,FL,32547,205000,2,1.5,Ocean City,1188,2178,1983,6,173,,Active,,,https://www.redfin.com/FL/Fort-Walton-Beach/110-Skinner-Cir-32547/unit-C/home/139490509,ECAR,931044,N,Y,30.4356245,-86.6078036
MLS Listing,,Vacant Land,2.49 Acres Rececca Rd,Crestview,FL,32539,35000,,,Auburn & Garden City,,108464,,6,,,Active,,,https://www.redfin.com/FL/Unknown/2-49-Acres-Rebecca-Rd-32539/home/188732783,ECAR,937387,N,Y,30.807817,-86.430393
MLS Listing,,Vacant Land,2.57 Acres Rececca Rd,Crestview,FL,32539,35000,,,Auburn & Garden City,,111949,,6,,,Active,,,https://www.redfin.com/FL/Unknown/2-57-Acres-Rebecca-Rd-32539/home/188732776,ECAR,937386,N,Y,30.80837,-86.430285
MLS Listing,,Townhouse,21 Cape Dr NW Unit D,Fort Walton Beach,FL,32548,230000,3,2.0,West Fort Walton Beach,1146,4791,1982,6,201,,Active,,,https://www.redfin.com/FL/Fort-Walton-Beach/21-Cape-Dr-NW-32548/unit-D/home/139998649,ECAR,937368,N,Y,30.415685,-86.640109
MLS Listing,,Single Family Residential,3100 Allison Cir,Crestview,FL,32539,329900,4,2.0,Crestview Southeast,1787,14374,2024,6,185,46,Active,,,https://www.redfin.com/FL/Crestview/3100-Alison-Cir-32539/home/188591494,ECAR,937364,N,Y,30.744468,-86.53432
MLS Listing,,Townhouse,611 VIRGINIA OAK Ct,Fort Walton Beach,FL,32548,230000,3,2.0,Overbrook/Pinedale,1368,1306,1997,6,168,,Active,,,https://www.redfin.com/FL/Fort-Walton-Beach/611-Virginia-Oak-Ct-32548/home/139992763,ECAR,937361,N,Y,30.4310247,-86.6416345
MLS Listing,,Single Family Residential,4825 Bone Creek Rd,Holt,FL,32564,89900,1,1.0,Baker & Milligan,792,85813,1990,6,114,,Active,,,https://www.redfin.com/FL/Holt/4825-Bone-Creek-Rd-32564/home/139826107,ECAR,937360,N,Y,30.728054,-86.7347025
MLS Listing,,Single Family Residential,3941 Balsam Dr,Niceville,FL,32578,370000,3,2.0,Niceville North,1507,5662,1992,6,246,,Active,,,https://www.redfin.com/FL/Niceville/3941-Balsam-Dr-32578/home/139498100,ECAR,937355,N,Y,30.5337398,-86.4791792
MLS Listing,,Single Family Residential,3172 Maples St,Crestview,FL,32539,129000,3,2.0,Auburn & Garden City,1150,10454,1982,7,112,,Active,,,https://www.redfin.com/FL/Crestview/3172-Maple-St-32539/home/139569972,ECAR,937345,N,Y,30.8408491,-86.5271361
MLS Listing,,Single Family Residential,419 Benning Dr,Destin,FL,32541,579900,4,3.0,West Destin,2730,13939,1978,7,212,,Active,,,https://www.redfin.com/FL/Destin/419-Benning-Dr-32541/home/139918929,ECAR,937344,N,Y,30.3999854,-86.4955681
MLS Listing,,Single Family Residential,3004 Jane Ln,Crestview,FL,32539,329900,4,2.0,Crestview Southeast,1787,7840,2024,7,185,46,Active,,,https://www.redfin.com/FL/Crestview/3004-Jane-Ln-32539/home/188591493,ECAR,937339,N,Y,30.745322,-86.534383
MLS Listing,,Single Family Residential,3002 Jane Ln,Crestview,FL,32539,329900,4,2.0,Crestview Southeast,1787,7840,2024,7,185,46,Active,,,https://www.redfin.com/FL/Crestview/3002-Jane-Ln-32539/home/188591492,ECAR,937336,N,Y,30.746803,-86.534331
MLS Listing,,Single Family Residential,3539 Shadbush Ln,Crestview,FL,32539,350000,4,2.0,Auburn & Garden City,1734,16552,2021,7,202,11,Active,,,https://www.redfin.com/FL/Crestview/3539-Shadbush-Ln-32539/home/139870395,ECAR,937329,N,Y,30.8327867,-86.4965357
MLS Listing,,Single Family Residential,3169 Pinewoods Dr,Crestview,FL,32539,254000,3,2.0,Auburn & Garden City,1171,14374,1980,7,217,,Active,,,https://www.redfin.com/FL/Crestview/3169-Pinewoods-Dr-32539/home/139848127,ECAR,937327,N,Y,30.7632616,-86.5284481
MLS Listing,,Single Family Residential,248 S Booker St,Crestview,FL,32536,175000,3,2.0,Crestview Southwest,1601,,1959,7,109,,Active,,,https://www.redfin.com/FL/Crestview/248-S-Booker-St-32536/home/139782680,ECAR,937321,N,Y,30.7537599,-86.571846
MLS Listing,,Single Family Residential,4588 Ashton Cir,Crestview,FL,32536,629000,4,3.0,Crestview Southwest,2916,14810,2023,7,216,25,Active,,,https://www.redfin.com/FL/Crestview/4588-Ashton-Cir-32536/home/139896891,ECAR,937319,N,Y,30.708813,-86.602302
MLS Listing,,Condo/Co-op,775 Gulf Shore Dr #8111,Destin,FL,32541,284000,0,1.0,Destin Beaches West,468,,1984,7,607,472,Active,,,https://www.redfin.com/FL/Destin/775-Gulf-Shore-Dr-32541/unit-8111/home/139743680,ECAR,937307,N,Y,30.3839652,-86.484147
MLS Listing,,Single Family Residential,775 Gulf Shore Dr Unit 19,Destin,FL,32541,585000,3,2.0,Destin Beaches West,1375,,1980,7,425,1582,Active,,,https://www.redfin.com/FL/Destin/775-Gulf-Shore-Dr-32541/unit-19/home/139236791,ECAR,937306,N,Y,30.3839652,-86.484147
MLS Listing,,Single Family Residential,849 Blvd De L'Orleans,Mary Esther,FL,32569,349500,3,2.0,Mary Esther/West of Hurlburt,1400,8712,1985,7,250,,Active,,,https://www.redfin.com/FL/Mary-Esther/849-Boulevard-de-Lorleans-32569/home/139993778,ECAR,937304,N,Y,30.4134531,-86.7796147
MLS Listing,,Single Family Residential,500 Ross Rd,Fort Walton Beach,FL,32547,370000,4,2.0,Ocean City,1719,11761,1961,7,215,,Active,,,https://www.redfin.com/FL/Fort-Walton-Beach/500-Ross-Rd-32547/home/139716615,ECAR,937295,N,Y,30.439851,-86.6135416
MLS Listing,,Single Family Residential,441 Stonehenge Dr,Mary Esther,FL,32569,295000,3,2.0,Mary Esther/East of Hurlburt,1450,7840,1963,7,203,,Active,,,https://www.redfin.com/FL/Mary-Esther/441-Stonehenge-Dr-32569/home/139828515,ECAR,937270,N,Y,30.4164572,-86.6483169
MLS Listing,,Single Family Residential,850 Mande Ct,Shalimar,FL,32579,549900,4,4.0,Shalimar/Port Dixie,2787,6969,1996,7,197,4,Active,,,https://www.redfin.com/FL/Shalimar/850-Mande-Ct-32579/home/139717673,ECAR,936471,N,Y,30.4406328,-86.5842903
MLS Listing,,Single Family Residential,213 NW Moriarty St,Fort Walton Beach,FL,32548,300000,3,1.0,West Fort Walton Beach,1278,9583,1955,8,235,,Active,,,https://www.redfin.com/FL/Fort-Walton-Beach/213-Moriarty-St-NW-32548/home/139866003,ECAR,937282,N,Y,30.4234838,-86.6268201
MLS Listing,,Townhouse,836 Shadow Ln Ln #6,Fort Walton Beach,FL,32547,230000,3,1.5,Kenwood/Golf Course,1248,2178,1982,8,184,,Active,,,https://www.redfin.com/FL/Fort-Walton-Beach/836-Shadow-Ln-32547/unit-6/home/188211417,ECAR,934568,N,Y,30.4604262,-86.6278821
MLS Listing,,Single Family Residential,711 Legion Dr,Destin,FL,32541,515000,3,2.0,West Destin,1624,10890,1976,8,317,,Active,,,https://www.redfin.com/FL/Destin/711-Legion-Dr-32541/home/139460845,ECAR,937280,N,Y,30.3971547,-86.4880852
MLS Listing,,Single Family Residential,44 Tranquility Ln,Destin,FL,32541,2899000,6,5.5,Destin Beaches East,4918,9147,2000,8,589,233,Active,,,https://www.redfin.com/FL/Destin/44-Tranquility-Ln-32541/home/139943447,ECAR,937271,N,Y,30.381772,-86.402764
MLS Listing,,Single Family Residential,402 Tobago Ct,Crestview,FL,32536,290000,3,2.0,Crestview Northwest,1776,11761,2003,8,163,,Active,,,https://www.redfin.com/FL/Crestview/402-Tobago-Ct-32536/home/140008558,ECAR,937264,N,Y,30.7750253,-86.5963063
MLS Listing,,Single Family Residential,44 NW Jonquil Ave,Fort Walton Beach,FL,32548,310000,3,1.5,Mary Esther/East of Hurlburt,1688,10454,1962,8,184,,Active,,,https://www.redfin.com/FL/Fort-Walton-Beach/44-Jonquil-Ave-NW-32548/home/139680419,ECAR,937016,N,Y,30.4179378,-86.6473131
MLS Listing,,Single Family Residential,2 Warwick Dr,Shalimar,FL,32579,479900,4,2.0,Poquito Bayou,2186,20037,1959,9,220,,Active,,,https://www.redfin.com/FL/Shalimar/2-Warwick-Dr-32579/home/139639877,ECAR,937252,N,Y,30.4583862,-86.5928425
MLS Listing,,Condo/Co-op,725 Gulf Shore Dr Unit 901B,Destin,FL,32541,1650000,3,3.5,Destin Beaches West,2342,,2006,9,705,1100,Active,,,https://www.redfin.com/FL/Destin/725-Gulf-Shore-Dr-32541/unit-901B/home/140020159,ECAR,937249,N,Y,30.3854082,-86.4860316
MLS Listing,,Single Family Residential,413 Gerold St,Fort Walton Beach,FL,32547,479000,4,4.0,Ocean City,1891,11325,1962,9,253,,Active,,,https://www.redfin.com/FL/Fort-Walton-Beach/413-Gerold-St-32547/home/139901294,ECAR,937248,N,Y,30.4441958,-86.615801
MLS Listing,,Single Family Residential,3788 Peachtree Way,Niceville,FL,32578,329900,3,2.0,Niceville North,1258,4356,1990,9,262,,Active,,,https://www.redfin.com/FL/Niceville/3788-Peachtree-Way-32578/home/139497387,ECAR,936542,N,Y,30.5326554,-86.4789422
MLS Listing,,Single Family Residential,3003 Crown Creek Cir,Crestview,FL,32539,345000,4,2.0,Auburn & Garden City,2217,10890,2011,9,156,23,Active,,,https://www.redfin.com/FL/Crestview/3003-Crown-Creek-Cir-32539/home/139451998,ECAR,937098,N,Y,30.7999892,-86.5431838
MLS Listing,,Single Family Residential,5661 Grandsons Way,Baker,FL,32531,375000,4,2.0,Baker & Milligan,2256,15681,2013,10,166,,Active,,,https://www.redfin.com/FL/Baker/5661-Grandsons-Way-32531/home/139456943,ECAR,937245,N,Y,30.7887596,-86.6730309
MLS Listing,,Townhouse,113 Springwood Circle Cir,Crestview,FL,32536,275000,3,2.0,Crestview Northwest,1143,,1986,10,241,,Active,,,https://www.redfin.com/FL/Crestview/113-Springwood-Cir-32536/home/139730359,ECAR,937244,N,Y,30.7718531,-86.5991473
MLS Listing,,Vacant Land,"507A, B, C Spotted Fawn Ln",Holt,FL,32564,35000,,,Baker & Milligan,,43560,,10,,,Active,,,https://www.redfin.com/FL/Unknown/507A-B-C-Spotted-Fawn-Rd-32564/home/188697322,ECAR,937243,N,Y,30.696107,-86.741687
MLS Listing,,Vacant Land,507C Spotted Fawn Ln,Holt,FL,32564,15000,,,Baker & Milligan,,43560,,10,,,Active,,,https://www.redfin.com/FL/Unknown/507C-Spotted-Fawn-Rd-32564/home/188697300,ECAR,937242,N,Y,30.696544,-86.741703
MLS Listing,,Vacant Land,507B Spotted Fawn Ln,Holt,FL,32564,15000,,,Baker & Milligan,,43560,,10,,,Active,,,https://www.redfin.com/FL/Unknown/507B-Spotted-Fawn-Rd-32564/home/188697273,ECAR,937241,N,Y,30.696126,-86.741727
MLS Listing,,Vacant Land,507A Spotted Fawn Ln,Holt,FL,32564,15000,,,Baker & Milligan,,40510,,10,,,Active,,,https://www.redfin.com/FL/Unknown/507A-Spotted-Fawn-Rd-32564/home/188697268,ECAR,937240,N,Y,30.695686,-86.74179
MLS Listing,,Condo/Co-op,1328 SE Miracle Strip Pkwy Unit L2,Fort Walton Beach,FL,32548,899000,3,2.0,Okaloosa Island,1776,,2006,10,506,1021,Active,,,https://www.redfin.com/FL/Fort-Walton-Beach/1328-Miracle-Strip-Pkwy-SE-32548/unit-L02/home/178895714,ECAR,937234,N,Y,30.3969988,-86.5860442
MLS Listing,,Condo/Co-op,770 Sundial Ct #502,Fort Walton Beach,FL,32548,675000,3,2.0,Okaloosa Island,1680,,1973,10,402,963,Active,,,https://www.redfin.com/FL/Fort-Walton-Beach/770-Sundial-Ct-32548/unit-502/home/139682395,ECAR,937232,N,Y,30.3974256,-86.6216214
MLS Listing,,Condo/Co-op,506 Gulf Shore Dr Unit 404,Destin,FL,32541,924990,2,2.0,Destin Beaches West,1362,,1982,10,679,1153,Active,,,https://www.redfin.com/FL/Destin/506-Gulf-Shore-Dr-32541/unit-404/home/139716438,ECAR,937227,N,Y,30.3835145,-86.4992993
MLS Listing,,Vacant Land,Lot 66 Par Ct,Crestview,FL,32536,15000,,,Crestview Southwest,,24393,,10,,,Active,,,https://www.redfin.com/FL/Crestview/66-Par-Ct-32536/home/178862933,ECAR,937225,N,Y,30.7297948,-86.6168953
MLS Listing,,Vacant Land,33 SE Park Circle Cir,Fort Walton Beach,FL,32548,475000,,,East Fort Walton Beach,,30927,,10,,,Active,,,https://www.redfin.com/FL/Fort-Walton-Beach/33-Park-Cir-SE-32548/home/139816257,ECAR,937222,N,Y,30.4097847,-86.6104644
MLS Listing,,Single Family Residential,612 Burgundy Ln,Fort Walton Beach,FL,32547,375000,3,2.0,Overbrook/Pinedale,1950,11325,1979,10,192,,Active,December-9-2023 10:00 AM,December-9-2023 01:00 PM,https://www.redfin.com/FL/Fort-Walton-Beach/612-Burgundy-Ln-32547/home/139903608,ECAR,937200,N,Y,30.4368136,-86.6452662
MLS Listing,,Single Family Residential,5249 Kervin Rd,Crestview,FL,32539,240000,3,2.0,E Shoal Rvr-Cnty Line,1345,5662,2013,10,178,,Active,,,https://www.redfin.com/FL/Crestview/5249-Kervin-Rd-32539/home/139650730,ECAR,937219,N,Y,30.7519632,-86.4045517
MLS Listing,,Single Family Residential,208 Red Deer Run,Niceville,FL,32578,594450,4,2.5,Niceville North,1956,,2024,10,304,67,Active,,,https://www.redfin.com/FL/Niceville/208-Deer-Ave-32578/home/139927896,ECAR,937217,N,Y,30.5238197,-86.4786065
MLS Listing,,Single Family Residential,601 Drakes Lndg,Mary Esther,FL,32569,300000,3,2.0,Mary Esther/West of Hurlburt,1328,4791,1987,10,226,,Active,December-10-2023 12:00 PM,December-10-2023 03:00 PM,https://www.redfin.com/FL/Mary-Esther/601-Drakes-Lndg-32569/home/139623845,ECAR,937204,N,Y,30.4135107,-86.7164516
MLS Listing,,Single Family Residential,570 Rough Leaf Ln,Mary Esther,FL,32569,373000,3,2.0,Mary Esther/West of Hurlburt,1818,6098,2001,10,205,,Active,,,https://www.redfin.com/FL/Mary-Esther/570-Rough-Leaf-Ln-32569/home/140016572,ECAR,936970,N,Y,30.4066068,-86.7492779
MLS Listing,,Mobile/Manufactured Home,3888 Bear Head Rd,Crestview,FL,32539,68250,3,2.0,E Shoal Rvr-Cnty Line,1320,210830,1972,11,52,,Active,,,https://www.redfin.com/FL/Crestview/3888-Bear-Head-Rd-32539/home/139871641,ECAR,937198,N,Y,30.7672807,-86.467842
MLS Listing,,Single Family Residential,44 Kathleen Dr,Mary Esther,FL,32569,350000,3,2.0,Mary Esther/West of Hurlburt,1448,,2003,11,242,,Active,,,https://www.redfin.com/FL/Mary-Esther/44-Kathleen-Dr-32569/home/139949751,ECAR,937197,N,Y,30.4099262,-86.7533047
MLS Listing,,Single Family Residential,82 Sunfish St,Destin,FL,32541,3250000,8,8.0,Destin Beaches East,4181,7405,2020,11,777,36,Active,,,https://www.redfin.com/FL/Destin/82-Sunfish-St-32541/home/139130931,ECAR,937190,N,Y,30.3839094,-86.4148749
MLS Listing,,Single Family Residential,261 Annabelle Dr,Mary Esther,FL,32569,365000,4,2.0,Mary Esther/East of Hurlburt,1550,8276,2010,11,235,,Active,,,https://www.redfin.com/FL/Mary-Esther/261-Annabelle-Dr-32569/home/139906570,ECAR,937188,N,Y,30.4127842,-86.6700407
MLS Listing,,Single Family Residential,2414 Cumberland Way,Crestview,FL,32536,415000,4,3.0,Crestview Northwest,1920,25264,2006,11,216,11,Active,,,https://www.redfin.com/FL/Crestview/2414-Cumberland-Way-32536/home/139455709,ECAR,937183,N,Y,30.8163348,-86.5773923
MLS Listing,,Condo/Co-op,1040 Highway 98 Unit 112,Destin,FL,32541,699000,3,2.0,Destin Beaches West,1138,,1984,11,614,745,Active,,,https://www.redfin.com/FL/Destin/1040-Highway-98-E-32541/unit-112/home/139714922,ECAR,937135,N,Y,30.3846637,-86.4684051
MLS Listing,,Single Family Residential,105 Yearling Ct,Niceville,FL,32578,614850,4,3.0,Niceville North,2087,4791,2023,12,295,67,Active,,,https://www.redfin.com/FL/Niceville/105-Yearling-Ct-32578/home/188589937,ECAR,937178,N,Y,30.533521,-86.438467
MLS Listing,,Condo/Co-op,1002 E Highway 98 Unit 316,Destin,FL,32541,675000,2,2.0,Destin Beaches West,955,,1998,12,707,861,Active,,,https://www.redfin.com/FL/Destin/1002-Highway-98-E-32541/unit-316/home/139659739,ECAR,937177,N,Y,30.384671,-86.4745067
MLS Listing,,Condo/Co-op,381 Santa Rosa Blvd Unit C512,Fort Walton Beach,FL,32548,450000,1,1.5,Okaloosa Island,775,,1982,12,581,554,Active,,,https://www.redfin.com/FL/Fort-Walton-Beach/381-Santa-Rosa-Blvd-32548/unit-C512/home/139758083,ECAR,937172,N,Y,30.3958454,-86.6057074
MLS Listing,,Condo/Co-op,308 Miracle Strip Pkwy SW Unit 10A,Fort Walton Beach,FL,32548,175000,2,2.0,West Fort Walton Beach,1050,,1974,12,167,,Active,,,https://www.redfin.com/FL/Fort-Walton-Beach/308-Miracle-Strip-Pkwy-SW-32548/unit-10A/home/139951070,ECAR,937170,N,Y,30.404717,-86.6315266
MLS Listing,,Condo/Co-op,590 Santa Rosa Blvd #508,Fort Walton Beach,FL,32548,595000,1,2.0,Okaloosa Island,802,,2002,12,742,470,Active,,,https://www.redfin.com/FL/Fort-Walton-Beach/590-Santa-Rosa-Blvd-32548/unit-508/home/139425398,ECAR,937168,N,Y,30.3969934,-86.6158557
MLS Listing,,Single Family Residential,430 Hatchee Dr,Crestview,FL,32536,300000,4,2.0,Crestview,1929,13068,2003,12,156,,Active,,,https://www.redfin.com/FL/Crestview/430-Hatchee-Dr-32536/home/139676683,PARMLS,636793,N,Y,30.7175763,-86.5797969
MLS Listing,,Single Family Residential,112 Jacob Dr,Crestview,FL,32536,313900,4,2.0,Crestview Northwest,1540,21780,2023,12,204,,Active,,,https://www.redfin.com/FL/Crestview/112-Jacob-Dr-32536/home/139551027,ECAR,937163,N,Y,30.795082,-86.590021
MLS Listing,,Single Family Residential,5362 Cox Ln,Crestview,FL,32539,309000,4,2.0,Auburn & Garden City,1539,13068,2023,12,201,,Active,,,https://www.redfin.com/FL/Crestview/5362-Cox-Ln-32539/home/188682717,ECAR,937158,N,Y,30.7625764,-86.5298546
MLS Listing,,Condo/Co-op,381 Santa Rosa Blvd Unit W612,Fort Walton Beach,FL,32548,450000,1,1.5,Okaloosa Island,775,,1982,12,581,554,Active,,,https://www.redfin.com/FL/Okaloosa-Island/381-Santa-Rosa-Blvd-32548/unit-W612/home/188682205,ECAR,937154,N,Y,30.3958454,-86.6057074
MLS Listing,,Vacant Land,224 HWY 90 W,Holt,FL,32564,59900,,,Baker & Milligan,,48787,,12,,,Active,,,https://www.redfin.com/FL/Holt/224-Highway-90-W-32564/home/139778540,ECAR,937150,N,Y,30.7055038,-86.7735784
MLS Listing,,Townhouse,940 Central Ave Unit 16,Fort Walton Beach,FL,32547,275000,3,2.0,Kenwood/Golf Course,1320,3484,1994,12,208,,Active,,,https://www.redfin.com/FL/Fort-Walton-Beach/940-Central-Ave-32547/unit-16/home/139712299,ECAR,937144,N,Y,30.4536863,-86.6298133
MLS Listing,,Single Family Residential,74 SE Waynel Cir,Fort Walton Beach,FL,32548,549900,5,2.0,East Fort Walton Beach,1901,10454,2000,12,289,,Active,,,https://www.redfin.com/FL/Fort-Walton-Beach/74-Waynel-Cir-SE-32548/home/139474963,ECAR,937143,N,Y,30.4096085,-86.5962008
MLS Listing,,Single Family Residential,132 Phillips Dr,Crestview,FL,32536,240000,3,2.0,Crestview Northwest,1562,,1968,12,154,,Active,,,https://www.redfin.com/FL/Crestview/132-Phillips-Dr-32536/home/139750709,ECAR,937139,N,Y,30.779163,-86.573024
MLS Listing,,Townhouse,1090 5Th Ave,Shalimar,FL,32579,280000,3,2.0,Shalimar/Port Dixie,1560,1742,1983,12,179,250,Active,,,https://www.redfin.com/FL/Shalimar/1090-5th-Ave-32579/home/139971644,ECAR,937138,N,Y,30.4398637,-86.5669055
MLS Listing,,Condo/Co-op,590 Santa Rosa Blvd Unit 406,Fort Walton Beach,FL,32548,590000,1,2.0,Okaloosa Island,802,,2002,12,736,469,Active,,,https://www.redfin.com/FL/Fort-Walton-Beach/590-Santa-Rosa-Blvd-32548/unit-406/home/139606913,ECAR,937136,N,Y,30.3969934,-86.6158557
MLS Listing,,Single Family Residential,3470 Scenic Hwy 98,Destin,FL,32541,6972500,7,7.5,Destin Beaches East,5850,,1999,12,1192,296,Active,,,https://www.redfin.com/FL/Destin/3470-Scenic-Highway-98-32541/home/139538164,ECAR,937132,N,Y,30.3810048,-86.4130754
MLS Listing,,Townhouse,36 Redbird Loop,Destin,FL,32541,429900,3,2.5,West Destin,1408,,2022,12,305,109,Active,,,https://www.redfin.com/FL/Destin/36-Redbird-Loop-32541/home/183602912,ECAR,937122,N,Y,30.3952489,-86.5079439
MLS Listing,,Single Family Residential,518 Vera Cruz Dr,Destin,FL,32541,2650000,4,5.0,Destin Beaches West,4018,,2006,12,660,33,Active,,,https://www.redfin.com/FL/Destin/518-Vera-Cruz-Dr-32541/home/140023575,ECAR,937113,N,Y,30.3854151,-86.4963775
MLS Listing,,Vacant Land,1 Acre Leisure Ln,Holt,FL,32564,16500,,,Baker & Milligan,,44866,,13,,,Active,,,https://www.redfin.com/FL/Unknown/1-ACRE-Leisure-Ln-32564/home/178205434,ECAR,937111,N,Y,30.681668,-86.737468
MLS Listing,,Single Family Residential,4852 Griffith Mill Rd,Holt,FL,32564,390000,4,2.0,Baker & Milligan,1806,53143,2022,13,216,,Active,,,https://www.redfin.com/FL/Holt/4852-Griffith-Mill-Rd-32564/home/139892761,ECAR,937110,N,Y,30.731399,-86.708262
MLS Listing,,Single Family Residential,54 NE Oregon Dr,Fort Walton Beach,FL,32548,490000,3,1.5,East Fort Walton Beach,1043,10890,1956,13,470,,Active,,,https://www.redfin.com/FL/Fort-Walton-Beach/54-Oregon-Dr-NE-32548/home/139313226,ECAR,937109,N,Y,30.4179999,-86.6025752
MLS Listing,,Single Family Residential,14 Stowe Rd,Mary Esther,FL,32569,315000,3,2.0,Victoria Park,1230,5227,1996,13,256,,Active,,,https://www.redfin.com/FL/Mary-Esther/14-Stowe-Rd-32569/home/139506352,PARMLS,636752,N,Y,30.4080846,-86.7515764
MLS Listing,,Vacant Land,.47 Dreaden Cir,Baker,FL,32531,18500,,,Baker & Milligan,,20473,,13,,,Active,,,https://www.redfin.com/FL/Unknown/47-Dreaden-Cir-32531/home/188659251,ECAR,937099,N,Y,30.743939,-86.63884
MLS Listing,,Single Family Residential,199 Edge Ave Ave,Valparaiso,FL,32580,869000,5,4.0,Valp No of Tom's Bayou,3140,14374,2024,13,277,,Active,,,https://www.redfin.com/FL/Valparaiso/199-Edge-Ave-32580/home/188658993,ECAR,937097,N,Y,30.506781,-86.490362
MLS Listing,,Condo/Co-op,770 Sundial Ct #107,Fort Walton Beach,FL,32548,365000,1,1.0,Okaloosa Island,750,,1975,13,487,694,Active,,,https://www.redfin.com/FL/Fort-Walton-Beach/770-Sundial-Ct-32548/unit-107/home/139225314,ECAR,937095,N,Y,30.3974256,-86.6216214
MLS Listing,,Single Family Residential,2436 Belmont Dr,Crestview,FL,32536,379900,5,3.0,Crestview Northwest,2483,23522,2024,13,153,32,Active,,,https://www.redfin.com/FL/Crestview/2436-Belmont-Dr-32536/home/188591338,ECAR,937092,N,Y,30.826604,-86.585315
MLS Listing,,Single Family Residential,2434 Belmont Way,Crestview,FL,32536,334900,4,2.0,Crestview Northwest,1830,23522,2024,13,183,32,Active,,,https://www.redfin.com/FL/Crestview/2434-Belmont-Dr-32536/home/188591337,ECAR,937091,N,Y,30.826604,-86.585315
MLS Listing,,Single Family Residential,108 Creve Core Dr,Crestview,FL,32539,312997,3,2.0,Crestview Southeast,1928,6098,2007,13,162,,Active,,,https://www.redfin.com/FL/Crestview/108-Creve-Core-Dr-32539/home/139422539,ECAR,937077,N,Y,30.7325365,-86.5628245
MLS Listing,,Single Family Residential,502 Osceola Dr,Destin,FL,32541,3100000,4,4.5,Destin Beaches West,3626,16117,1970,13,855,39,Active,,,https://www.redfin.com/FL/Destin/502-Osceola-Dr-32541/home/139490334,ECAR,937064,N,Y,30.386635,-86.4982727
MLS Listing,,Single Family Residential,6443 Moonlight Ln,Crestview,FL,32539,268900,3,2.0,Auburn & Garden City,1340,19602,2003,13,201,,Active,,,https://www.redfin.com/FL/Crestview/6443-Moonlight-Ln-32539/home/139878811,ECAR,937057,N,Y,30.8321134,-86.5318415
MLS Listing,,Single Family Residential,5180 Rabbit Run,Crestview,FL,32539,347900,4,2.0,Crestview Southeast,2000,14810,2017,13,174,17,Active,,,https://www.redfin.com/FL/Crestview/5180-Rabbit-Run-32539/home/139724688,ECAR,937052,N,Y,30.747778,-86.5321374
MLS Listing,,Single Family Residential,3135 Partridge Dr,Crestview,FL,32539,449000,5,3.5,Crestview Southeast,4066,,2017,13,110,7,Active,,,https://www.redfin.com/FL/Crestview/3135-Partridge-Dr-32539/home/140091605,ECAR,937051,N,Y,30.7138353,-86.5366549
MLS Listing,,Single Family Residential,3269 Chappelwood Dr,Crestview,FL,32539,350000,4,2.0,Crestview,1830,12632,2021,13,191,36,Active,,,https://www.redfin.com/FL/Crestview/3269-Chappelwood-Dr-32539/home/139415456,PARMLS,636151,N,Y,30.817025,-86.522743
MLS Listing,,Single Family Residential,903 Sara Dr,Shalimar,FL,32579,775000,4,3.0,Shalimar/Port Dixie,2635,22651,1997,13,294,67,Active,,,https://www.redfin.com/FL/Shalimar/903-Sara-Dr-32579/home/139872665,ECAR,937044,N,Y,30.4471193,-86.5848027
MLS Listing,,Vacant Land,Lot 26-28 Wildwood St,Mary Esther,FL,32569,165000,,,Mary Esther/West of Hurlburt,,125017,,13,,,Active,,,https://www.redfin.com/FL/Unknown/Lot-26-28-Wildwood-St-32569/home/188647261,ECAR,937023,N,Y,30.413006,-86.792745
MLS Listing,,Mobile/Manufactured Home,5585 Highway 393,Crestview,FL,32539,89000,3,2.0,Auburn & Garden City,2052,54450,2005,13,43,,Active,,,https://www.redfin.com/FL/Crestview/5585-Highway-393-32539/home/139730086,ECAR,937022,N,Y,30.778564,-86.423355
MLS Listing,,Condo/Co-op,885 Santa Rosa Blvd Unit 308-A,Ft Walton Beach,FL,32548,260000,1,1.0,Ft Walton Beach,736,86248,1973,14,353,798,Active,,,https://www.redfin.com/FL/Fort-Walton-Beach/885-Santa-Rosa-Blvd-32548/unit-308-A/home/139960325,PARMLS,636674,N,Y,30.3984175,-86.6287101
MLS Listing,,Vacant Land,82 Indian Bayou Dr,Destin,FL,32541,795000,,,West Destin,,22651,,14,,22,Active,,,https://www.redfin.com/FL/Destin/82-Indian-Bayou-Dr-32541/home/139959092,ECAR,937015,N,Y,30.399681,-86.449357
MLS Listing,,Single Family Residential,1806 Madelons Path,Fort Walton Beach,FL,32547,300000,3,2.0,Wright,1116,3484,1985,14,269,,Active,,,https://www.redfin.com/FL/Fort-Walton-Beach/1806-Madelons-Path-32547/home/139670582,ECAR,937001,N,Y,30.4626802,-86.6532597
MLS Listing,,Condo/Co-op,866 Santa Rosa Blvd Unit 211,Fort Walton Beach,FL,32548,545000,1,2.0,Okaloosa Island,820,,2002,14,665,547,Active,,,https://www.redfin.com/FL/Fort-Walton-Beach/866-Santa-Rosa-Blvd-32548/unit-211/home/139602955,ECAR,936990,N,Y,30.3973968,-86.6280635
MLS Listing,,Townhouse,587 Wingspan Way,Crestview,FL,32536,220000,2,2.5,Crestview Southwest,1264,1742,2006,14,174,172,Active,,,https://www.redfin.com/FL/Crestview/587-Wingspan-Way-32536/home/139445171,ECAR,936988,N,Y,30.7071208,-86.5934157
MLS Listing,,Condo/Co-op,725 Gulf Shore Dr Unit 601A,Destin,FL,32541,1400000,3,3.5,Destin Beaches West,2388,,2006,14,586,1343,Active,,,https://www.redfin.com/FL/Destin/725-Gulf-Shore-Dr-32541/unit-601A/home/139448621,ECAR,936987,N,Y,30.3854082,-86.4860316
MLS Listing,,Condo/Co-op,909 W Santa Rosa Blvd #116,Fort Walton Beach,FL,32548,395895,2,2.0,Okaloosa Island,1035,,1972,14,383,764,Active,,,https://www.redfin.com/FL/Fort-Walton-Beach/909-Santa-Rosa-Blvd-32548/unit-116/home/139219444,ECAR,936983,N,Y,30.398601,-86.632468
MLS Listing,,Single Family Residential,Parcel #7 Griffith Mill Rd,Baker,FL,32531,329000,4,2.0,Baker & Milligan,1789,76230,2024,14,184,,Active,,,https://www.redfin.com/FL/Baker/Parcel-7-Griffith-Mill-Rd-32531/home/188634364,ECAR,936981,N,Y,30.759221,-86.705163
MLS Listing,,Single Family Residential,607 Risen Star Dr,Crestview,FL,32539,329320,4,2.0,Crestview Southeast,1961,9583,1998,14,168,,Active,,,https://www.redfin.com/FL/Crestview/607-Risen-Star-Dr-32539/home/139355802,ECAR,936967,N,Y,30.7308313,-86.5500668
MLS Listing,,Single Family Residential,901 Lighthouse Rd,Fort Walton Beach,FL,32547,1150000,3,2.5,Ocean City,2706,11325,1997,14,425,71,Active,,,https://www.redfin.com/FL/Fort-Walton-Beach/901-Lighthouse-Rd-32547/home/139824436,ECAR,935795,N,Y,30.4413253,-86.5918967
MLS Listing,,Single Family Residential,3509 Sugar Maple Ln,Crestview,FL,32539,375000,5,3.0,Auburn & Garden City,2530,14374,2021,14,148,12,Active,,,https://www.redfin.com/FL/Crestview/3509-Sugar-Maple-Ln-32539/home/139526049,ECAR,936238,N,Y,30.833903,-86.501757
MLS Listing,,Single Family Residential,725 Marsh Harbor Dr,Mary Esther,FL,32569,429999,4,2.0,Mary Esther/West of Hurlburt,2015,6098,2003,14,213,100,Active,,,https://www.redfin.com/FL/Mary-Esther/725-Marsh-Harbor-Dr-32569/home/139433313,ECAR,936941,N,Y,30.4074324,-86.7458679
MLS Listing,,Single Family Residential,657 Merioneth Dr,Fort Walton Beach,FL,32547,440000,4,3.0,Kenwood/Golf Course,2171,16552,1969,14,203,,Active,,,https://www.redfin.com/FL/Fort-Walton-Beach/657-Merioneth-Dr-NE-32547/home/139867455,ECAR,936951,N,Y,30.4583279,-86.6053134
MLS Listing,,Condo/Co-op,676 Santa Rosa Blvd Unit 6M,Fort Walton Beach,FL,32548,525000,1,1.0,Okaloosa Island,797,,1974,15,659,448,Active,,,https://www.redfin.com/FL/Fort-Walton-Beach/676-Santa-Rosa-Blvd-32548/unit-6M/home/139819118,ECAR,936939,N,Y,30.3969495,-86.6205973
MLS Listing,,Vacant Land,215 Davis Dr,Niceville,FL,32578,500000,,,Niceville North,,28314,,15,,,Active,,,https://www.redfin.com/FL/Niceville/215-Davis-Dr-32578/home/139145250,ECAR,936940,N,Y,30.5227343,-86.4808381
MLS Listing,,Single Family Residential,238 S Bayshore Dr,Valparaiso,FL,32580,999000,4,3.5,Valparaiso Pine Crest,2728,10454,1990,15,366,,Active,,,https://www.redfin.com/FL/Valparaiso/238-S-Bayshore-Dr-32580/home/139904780,PARMLS,636621,N,Y,30.4984334,-86.4876705
MLS Listing,,Single Family Residential,1604 Fenwick Ave,Fort Walton Beach,FL,32547,369900,3,2.0,Overbrook/Pinedale,1686,5662,2002,15,219,,Active,,,https://www.redfin.com/FL/Fort-Walton-Beach/1604-Fenwick-Ave-32547/home/139694975,ECAR,936925,N,Y,30.4299241,-86.665163
MLS Listing,,Single Family Residential,1210 Quail Wood Dr,Destin,FL,32541,389900,3,2.0,West Destin,1025,8712,1983,16,380,,Active,,,https://www.redfin.com/FL/Destin/1210-Quail-Wood-Dr-32541/home/139682356,ECAR,936472,N,Y,30.391864,-86.4681482
MLS Listing,,Vacant Land,492 Martin Luther King Jr Blvd,Crestview,FL,32536,39900,,,Crestview Southwest,,16117,,16,,,Active,,,https://www.redfin.com/FL/Crestview/492-Martin-Luther-King-Junior-Ave-32536/home/188612700,ECAR,936921,N,Y,30.7546351,-86.5720108
MLS Listing,,Vacant Land,398 Lee Ave,Crestview,FL,32539,32000,,,Crestview Southeast,,6969,,16,,,Active,,,https://www.redfin.com/FL/Crestview/398-Lee-Ave-32539/home/139551478,ECAR,936920,N,Y,30.7507691,-86.5612275
MLS Listing,,Condo/Co-op,1080 E Highway 98 Unit 306,Destin,FL,32541,929000,2,2.0,Destin Beaches West,1200,,1994,16,774,982,Active,,,https://www.redfin.com/FL/Destin/1080-Highway-98-E-32541/unit-306/home/139923961,ECAR,936520,N,Y,30.3846709,-86.4645897
MLS Listing,,Single Family Residential,1237 Gabrielle Dr,Crestview,FL,32536,300000,3,2.0,Crestview Southwest,1665,,1994,16,180,,Active,,,https://www.redfin.com/FL/Crestview/1237-Gabrielle-Dr-32536/home/139389678,ECAR,936918,N,Y,30.7236474,-86.5838174
MLS Listing,,Single Family Residential,3 Krivik,Fort Walton Beach,FL,32547,490000,4,2.0,Kenwood/Golf Course,2440,14810,1980,16,201,,Active,,,https://www.redfin.com/FL/Fort-Walton-Beach/3-Krivik-Ct-32547/home/139514052,ECAR,936831,N,Y,30.4678115,-86.6105136
MLS Listing,,Townhouse,1100 Lake Way Dr,Niceville,FL,32578,625000,3,3.0,Niceville North,2579,8276,1986,16,242,185,Active,,,https://www.redfin.com/FL/Niceville/1100-Lake-Way-Dr-32578/home/139792508,ECAR,936915,N,Y,30.5253725,-86.4472247
MLS Listing,,Vacant Land,5145 Rosebud Ave,Crestview,FL,32539,18500,,,E Shoal Rvr-Cnty Line,,9583,,16,,,Active,,,https://www.redfin.com/FL/Crestview/5145-Rosebud-Ave-32539/home/139915522,ECAR,936891,N,Y,30.745868,-86.396945
MLS Listing,,Vacant Land,5149 Rosebud Ave,Crestview,FL,32539,18500,,,E Shoal Rvr-Cnty Line,,10018,,16,,,Active,,,https://www.redfin.com/FL/Crestview/5149-Rosebud-Ave-32539/home/140018589,ECAR,936890,N,Y,30.746076,-86.396945
MLS Listing,,Vacant Land,5153 Rosebud Ave,Crestview,FL,32539,18500,,,E Shoal Rvr-Cnty Line,,10018,,16,,,Active,,,https://www.redfin.com/FL/Crestview/5153-Rosebud-Ave-32539/home/139588100,ECAR,936889,N,Y,30.746286,-86.396939
MLS Listing,,Vacant Land,4710 Bobolink Way,Crestview,FL,32539,15000,,,E Shoal Rvr-Cnty Line,,10890,,16,,,Active,,,https://www.redfin.com/FL/Crestview/4710-Bobolink-Way-32539/home/139448631,ECAR,936888,N,Y,30.744141,-86.39391
MLS Listing,,Townhouse,208 Cloverdale Blvd Unit 8,Fort Walton Beach,FL,32547,232700,2,1.5,Wright,1280,3049,1980,16,182,,Active,,,https://www.redfin.com/FL/Fort-Walton-Beach/208-Cloverdale-Blvd-32547/unit-8/home/139420551,ECAR,936456,N,Y,30.451566,-86.639703
MLS Listing,,Single Family Residential,437 Hatchee Dr,Crestview,FL,32536,314900,4,2.0,Crestview Southwest,2017,12632,2004,17,156,,Active,,,https://www.redfin.com/FL/Crestview/437-Hatchee-Dr-32536/home/139670727,ECAR,936884,N,Y,30.7180267,-86.5807232
MLS Listing,,Single Family Residential,1134 Sweetbriar Sta,Fort Walton Beach,FL,32547,339000,3,2.0,Wright,1108,3484,1995,17,306,,Active,,,https://www.redfin.com/FL/Fort-Walton-Beach/1134-Sweetbriar-Sta-32547/home/139981539,ECAR,936881,N,Y,30.4584727,-86.6446472
MLS Listing,,Single Family Residential,107 Campbell Ave,Crestview,FL,32536,315000,5,2.0,Crestview Southwest,1671,9147,1985,17,189,,Active,,,https://www.redfin.com/FL/Crestview/107-Campbell-Ave-32536/home/139651970,ECAR,936879,N,Y,30.7045232,-86.5721295
MLS Listing,,Single Family Residential,198 Woodlawn Dr,Crestview,FL,32536,250000,3,2.0,Crestview Northwest,2086,23958,1956,17,120,,Active,,,https://www.redfin.com/FL/Crestview/198-Woodlawn-Dr-32536/home/139468090,ECAR,936874,N,Y,30.7785621,-86.5635343
MLS Listing,,Vacant Land,131 Winchester Way,Crestview,FL,32539,73999,,,HUNTER WOODS,,16000,,17,,,Active,,,https://www.redfin.com/FL/Crestview/131-Winchester-Way-32539/home/188601859,Stellar MLS as Distributed by MLS Grid,A4589857,N,Y,30.7923462,-86.5441011
MLS Listing,,Condo/Co-op,206 Henderson Resort Way #5401,Destin,FL,32541,1595000,3,2.0,Destin Beaches East,1460,,2023,17,1092,1100,Active,,,https://www.redfin.com/FL/Destin/200-Henderson-Resort-Way-32541/unit-5401/home/175419243,ECAR,936869,N,Y,30.3844642,-86.4314956
MLS Listing,,Townhouse,997 Scenic Oak Ln,Fort Walton Beach,FL,32547,250000,2,2.5,Overbrook/Pinedale,1248,,2004,17,200,,Active,,,https://www.redfin.com/FL/Fort-Walton-Beach/997-Scenic-Oak-Ln-32547/home/139189516,ECAR,936865,N,Y,30.4494064,-86.646396
MLS Listing,,Condo/Co-op,1006 Highway 98 #432,Destin,FL,32541,529900,3,2.5,Destin Beaches West,1028,,1994,17,515,650,Active,,,https://www.redfin.com/FL/Destin/1006-Highway-98-E-32541/unit-432/home/139916223,ECAR,936819,N,Y,30.3862393,-86.4734951
MLS Listing,,Single Family Residential,2668 Saltgrass Way,Crestview,FL,32536,334900,5,3.0,Crestview Northwest,2012,11325,2024,17,166,38,Active,,,https://www.redfin.com/FL/Crestview/2668-Saltgrass-Way-32536/home/188591881,ECAR,936860,N,Y,30.810709,-86.572235
MLS Listing,,Single Family Residential,2670 Saltgrass Way,Crestview,FL,32536,309900,4,2.0,Crestview Northwest,1787,11325,2024,17,173,38,Active,,,https://www.redfin.com/FL/Crestview/2670-Saltgrass-Way-32536/home/188591882,ECAR,936858,N,Y,30.811037,-86.572132
MLS Listing,,Single Family Residential,2666 Saltgrass Way,Crestview,FL,32536,309900,4,2.0,Crestview Northwest,1787,11325,2024,17,173,38,Active,,,https://www.redfin.com/FL/Crestview/2666-Saltgrass-Way-32536/home/188591879,ECAR,936857,N,Y,30.810954,-86.572032
MLS Listing,,Single Family Residential,2674 Saltgrass Way,Crestview,FL,32536,289900,4,2.0,Crestview Northwest,1387,11325,2024,17,209,38,Active,,,https://www.redfin.com/FL/Crestview/2674-Saltgrass-Way-32536/home/188591897,ECAR,936856,N,Y,30.810746,-86.572146
MLS Listing,,Single Family Residential,2672 Saltgrass Way,Crestview,FL,32536,289900,4,2.0,Crestview Northwest,1387,11325,2024,17,209,38,Active,,,https://www.redfin.com/FL/Crestview/2672-Saltgrass-WAY-32536/home/188600355,ECAR,936854,N,Y,30.811312,-86.572684
MLS Listing,,Single Family Residential,4459 clipper Cv,Destin,FL,32541,1550000,5,4.5,Destin Beaches East,2378,,1995,17,652,84,Active,,,https://www.redfin.com/FL/Destin/4459-Clipper-Cv-32541/home/139959792,ECAR,936850,N,Y,30.384357,-86.424682
MLS Listing,,Single Family Residential,2438 Belmont Rd,Crestview,FL,32536,334900,4,2.0,Crestview Northwest,1830,23522,2024,17,183,32,Active,,,https://www.redfin.com/FL/Crestview/2438-Belmont-Dr-32536/home/188591339,ECAR,936848,N,Y,30.826604,-86.585315
MLS Listing,,Single Family Residential,2440 Belmont Dr,Crestview,FL,32536,354900,5,3.0,Crestview Northwest,2012,23086,2024,17,176,32,Active,,,https://www.redfin.com/FL/Crestview/2440-Belmont-Dr-32536/home/188591340,ECAR,936847,N,Y,30.826604,-86.585315
MLS Listing,,Single Family Residential,Parcel 2 Griffith Mill Rd,Baker,FL,32531,268000,3,2.0,Baker & Milligan,1328,57499,2024,17,202,,Active,,,https://www.redfin.com/FL/Baker/Parcel-2-Griffith-Mill-Rd-32531/home/183826722,ECAR,936839,N,Y,30.759655,-86.706333
MLS Listing,,Single Family Residential,507 3rd Ave,Destin,FL,32541,325000,3,1.5,West Destin,1152,14374,1972,17,282,,Active,,,https://www.redfin.com/FL/Destin/507-Third-Ave-32541/home/139757861,ECAR,936834,N,Y,30.4031869,-86.4942256
MLS Listing,,Condo/Co-op,240 SE Brooks St Unit D301,Fort Walton Beach,FL,32548,880000,3,2.5,East Fort Walton Beach,2266,,2006,17,388,1560,Active,,,https://www.redfin.com/FL/Fort-Walton-Beach/240-Brooks-St-SE-32548/unit-D301/home/139723718,ECAR,936820,N,Y,30.403723,-86.599779
MLS Listing,,Single Family Residential,1723 23Rd St,Niceville,FL,32578,329000,3,1.5,So of 20 to Valp Blvd,1856,17859,1973,18,177,,Active,,,https://www.redfin.com/FL/Niceville/1723-23rd-St-32578/home/139979376,ECAR,936813,N,Y,30.5072353,-86.4566579
MLS Listing,,Single Family Residential,2815 Lake Silver Rd,Crestview,FL,32536,324900,3,2.0,Holly Hills,1518,27007,1977,18,214,,Active,,,https://www.redfin.com/FL/Crestview/2815-Lake-Silver-Rd-32536/home/139703934,PARMLS,636539,N,Y,30.8096305,-86.5577179
MLS Listing,,Condo/Co-op,4203 Indian Bayou Trl Unit 11012,Destin,FL,32541,489000,2,2.0,West Destin,970,,2007,18,504,901,Active,,,https://www.redfin.com/FL/Destin/4203-Indian-Bayou-Trl-32541/unit-11012/home/139446068,ECAR,936806,N,Y,30.3890339,-86.4553366
MLS Listing,,Single Family Residential,285 Panama Dr,Crestview,FL,32536,123000,3,1.0,Crestview Northwest,1152,12632,1955,18,107,,Active,,,https://www.redfin.com/FL/Crestview/285-Panama-Dr-32536/home/139946001,ECAR,936544,N,Y,30.7732631,-86.5827926
MLS Listing,,Single Family Residential,4831 Ocean Blvd,Destin,FL,32541,2595000,5,5.5,Destin Beaches East,3996,4791,2005,18,649,461,Active,,,https://www.redfin.com/FL/Destin/4831-Ocean-Blvd-32541/home/139714317,ECAR,936764,N,Y,30.3807938,-86.4045517
MLS Listing,,Vacant Land,Lot 3 Lena St,Baker,FL,32531,17900,,,Baker & Milligan,,21780,,18,,,Active,,,https://www.redfin.com/FL/Unknown/Lot-3-Lena-St-32531/home/188589421,ECAR,936756,N,Y,30.765512,-86.662846
MLS Listing,,Single Family Residential,836 Fairway Lakes Dr,Niceville,FL,32578,539500,4,3.0,Bluewater Bay Area,2607,6534,1996,18,207,31,Active,,,https://www.redfin.com/FL/Niceville/836-Fairway-Lakes-Dr-32578/home/139154566,ECAR,936513,N,Y,30.4860594,-86.4321942
MLS Listing,,Single Family Residential,310 Primrose Cir,Destin,FL,32541,425000,3,2.0,West Destin,1284,,1984,18,331,,Active,,,https://www.redfin.com/FL/Destin/310-Primrose-Cir-32541/home/139697670,ECAR,936754,N,Y,30.3998667,-86.5029117
MLS Listing,,Condo/Co-op,4000 Gulf Terrace Dr #150,Destin,FL,32541,289900,2,1.0,West Destin,982,,1973,18,295,596,Active,,,https://www.redfin.com/FL/Destin/4000-Gulf-Terrace-Dr-32541/unit-150/home/139916075,ECAR,936746,N,Y,30.3877831,-86.4673087
MLS Listing,,Single Family Residential,4741 Papaya Park,Destin,FL,32541,849000,3,2.0,Destin Beaches East,1943,9147,2002,18,437,260,Active,,,https://www.redfin.com/FL/Destin/4741-Papaya-Park-32541/home/139656991,ECAR,936738,N,Y,30.3856834,-86.4041165
MLS Listing,,Single Family Residential,4058 Burning Tree Dr,Destin,FL,32541,729000,3,3.0,West Destin,2271,14374,1995,18,321,,Active,,,https://www.redfin.com/FL/Destin/4058-Burning-Tree-Dr-32541/home/139659285,ECAR,936736,N,Y,30.4040635,-86.4607501
MLS Listing,,Condo/Co-op,770 Sundial Ct Unit 602,Fort Walton Beach,FL,32548,695000,4,2.0,Okaloosa Island,1680,,1973,19,414,963,Active,,,https://www.redfin.com/FL/Fort-Walton-Beach/770-Sundial-Ct-32548/unit-602/home/139682409,ECAR,936733,N,Y,30.3974256,-86.6216214
MLS Listing,,Single Family Residential,105 SW Cowrie Ave,Fort Walton Beach,FL,32548,463000,4,2.0,West Fort Walton Beach,2382,,2015,19,194,,Active,,,https://www.redfin.com/FL/Fort-Walton-Beach/105-Cowrie-Ave-SW-32548/home/139702057,ECAR,936701,N,Y,30.4085675,-86.6217018
MLS Listing,,Condo/Co-op,381 Santa Rosa Blvd Unit C501,Fort Walton Beach,FL,32548,989000,3,3.0,Okaloosa Island,1678,,1983,19,589,1119,Active,,,https://www.redfin.com/FL/Fort-Walton-Beach/381-Santa-Rosa-Blvd-32548/unit-C501/home/139746159,ECAR,936692,N,Y,30.3958454,-86.6057074
MLS Listing,,Condo/Co-op,1002 E Highway 98 E Unit 210,Destin,FL,32541,585000,1,2.0,Destin Beaches West,873,,1998,19,670,787,Active,,,https://www.redfin.com/FL/Destin/1002-Highway-98-E-32541/unit-210/home/139942248,ECAR,936682,N,Y,30.384671,-86.4745067
MLS Listing,,Condo/Co-op,770 Gulf Shore Dr Unit P1,Destin,FL,32541,2800000,4,3.0,Destin Beaches West,2650,,1996,19,1057,2182,Active,,,https://www.redfin.com/FL/Destin/770-Gulf-Shore-Dr-32541/unit-P1/home/139900901,ECAR,936677,N,Y,30.3841342,-86.4854787
MLS Listing,,Condo/Co-op,10 Harbor Blvd Unit W1126,Destin,FL,32541,1350000,4,4.0,Destin Beaches West,1626,,2007,19,830,1955,Active,,,https://www.redfin.com/FL/Destin/10-Harbor-Blvd-32541/unit-W1126/home/139891806,ECAR,936670,N,Y,30.3946039,-86.5121292
MLS Listing,,Single Family Residential,118 NW Beal Parkway Rd,Fort Walton Beach,FL,32548,374900,3,2.0,West Fort Walton Beach,1682,26136,1960,19,223,,Active,,,https://www.redfin.com/FL/Fort-Walton-Beach/118-Beal-Pkwy-NW-32548/home/139921602,ECAR,936669,N,Y,30.4239399,-86.6166783
MLS Listing,,Single Family Residential,4319 Sunset Beach Blvd,Niceville,FL,32578,579950,3,2.0,Bluewater Bay Area,1951,6969,2014,19,297,243,Active,,,https://www.redfin.com/FL/Niceville/4319-Sunset-Beach-Blvd-32578/home/139340582,ECAR,936665,N,Y,30.4704471,-86.430908
MLS Listing,,Townhouse,487 Keystone Rd,Mary Esther,FL,32569,270000,2,2.5,KEYSTONE TOWNHOMES,1330,1300,2001,19,203,50,Active,,,https://www.redfin.com/FL/Mary-Esther/487-Keystone-Rd-32569/home/139838452,Stellar MLS as Distributed by MLS Grid,O6157227,N,Y,30.4139558,-86.7214291
MLS Listing,,Condo/Co-op,502 Gulf Shore Dr Unit 505,Destin,FL,32541,524900,2,2.0,Destin Beaches West,987,,1981,19,532,699,Active,,,https://www.redfin.com/FL/Destin/502-Gulf-Shore-Dr-32541/unit-505/home/139965010,ECAR,936664,N,Y,30.3839601,-86.5007436
MLS Listing,,Single Family Residential,5909 N Meadow Ln,Crestview,FL,32539,235000,3,2.0,Auburn & Garden City,1229,16988,1985,19,191,,Active,,,https://www.redfin.com/FL/Crestview/5909-Meadow-Ln-N-32539/home/139339942,ECAR,936663,N,Y,30.8167732,-86.4962916
MLS Listing,,Single Family Residential,4156 Belcourt Dr,Destin,FL,32541,5495000,5,6.0,West Destin,4695,29185,2016,20,1170,310,Active,,,https://www.redfin.com/FL/Destin/4156-Belcourt-Dr-32541/home/139526505,ECAR,936661,N,Y,30.40594,-86.452505
MLS Listing,,Single Family Residential,218 Cabana Way,Crestview,FL,32536,245000,4,2.0,Crestview Southwest,1244,12632,2005,20,197,9,Active,,,https://www.redfin.com/FL/Crestview/218-Cabana-Way-32536/home/139424329,ECAR,936659,N,Y,30.758937,-86.576801
MLS Listing,,Single Family Residential,5811 monroe St,Baker,FL,32531,349000,3,2.0,Baker & Milligan,2124,,1987,20,164,,Active,,,https://www.redfin.com/FL/Baker/5811-Monroe-St-32531/home/139480186,ECAR,936658,N,Y,30.7991486,-86.6787157
MLS Listing,,Single Family Residential,112 Dogwood Ln,Crestview,FL,32536,339000,3,2.0,Crestview Northwest,1863,16117,1993,20,182,,Active,,,https://www.redfin.com/FL/Crestview/112-Dogwood-Ln-32536/home/139980424,ECAR,936657,N,Y,30.7993106,-86.5658015
MLS Listing,,Single Family Residential,4393 Old Bayou Trl,Destin,FL,32541,995000,3,3.0,West Destin,2706,20037,1997,20,368,300,Active,,,https://www.redfin.com/FL/Destin/4393-Old-Bayou-Trl-32541/home/139214922,ECAR,936647,N,Y,30.3998696,-86.4453379
MLS Listing,,Single Family Residential,286 Anderson St,Crestview,FL,32536,245900,3,2.0,Crestview Northwest,1682,24393,1962,20,146,,Active,,,https://www.redfin.com/FL/Crestview/286-Anderson-St-32536/home/139829440,ECAR,936646,N,Y,30.767438,-86.5735487
MLS Listing,,Condo/Co-op,510 Gulf Shore Dr Unit 318,Destin,FL,32541,680000,2,2.0,Destin Beaches West,950,,1975,20,716,677,Active,,,https://www.redfin.com/FL/Destin/510-Gulf-Shore-Dr-32541/unit-318/home/139819360,ECAR,936644,N,Y,30.3836564,-86.4978779
MLS Listing,,Single Family Residential,4701 Airmen Dr,Crestview,FL,32539,384900,5,3.0,Crestview Southeast,2012,7405,2024,20,191,55,Active,,,https://www.redfin.com/FL/Crestview/4701-Airmen-Dr-32539/home/188574253,ECAR,936640,N,Y,30.708555,-86.552654
MLS Listing,,Single Family Residential,4703 Airmen Dr,Crestview,FL,32539,354900,4,2.0,Crestview Southeast,1830,6534,2024,20,194,55,Active,,,https://www.redfin.com/FL/Crestview/4703-Airmen-Dr-32539/home/188574213,ECAR,936638,N,Y,30.709034,-86.552023
MLS Listing,,Single Family Residential,4705 Airmen Dr,Crestview,FL,32539,329900,4,2.0,Crestview Southeast,1509,6534,2024,20,219,55,Active,,,https://www.redfin.com/FL/Crestview/4705-Airmen-Dr-32539/home/188574053,ECAR,936635,N,Y,30.708801,-86.551859
MLS Listing,,Single Family Residential,2521 Rutgers Rd,Crestview,FL,32536,379900,5,3.0,Crestview Northwest,2483,23086,2024,20,153,32,Active,,,https://www.redfin.com/FL/Crestview/2521-Rutgers-Rd-32536/home/188573970,ECAR,936633,N,Y,30.827773,-86.588637
MLS Listing,,Single Family Residential,2523 Rutgers Rd,Crestview,FL,32536,354900,5,3.0,Crestview Northwest,2012,23086,2024,20,176,32,Active,,,https://www.redfin.com/FL/Crestview/2523-Rutgers-Rd-32536/home/188573636,ECAR,936631,N,Y,30.827773,-86.588637
MLS Listing,,Condo/Co-op,3857 Indian Trail Trl Unit 108,Destin,FL,32541,269900,1,1.0,West Destin,813,,1972,20,332,420,Active,,,https://www.redfin.com/FL/Destin/3857-Indian-Trl-32541/unit-108/home/139215100,ECAR,936630,N,Y,30.4110581,-86.4775598
MLS Listing,,Single Family Residential,429 Scarborough St,Crestview,FL,32539,331900,4,2.0,Crestview Southeast,1387,6534,2024,20,239,46,Active,,,https://www.redfin.com/FL/Crestview/429-Scarborough-St-32539/home/188573137,ECAR,936629,N,Y,30.7301177,-86.5316109
MLS Listing,,Single Family Residential,425 Scarborough St,Crestview,FL,32539,361900,4,2.0,Crestview Southeast,1787,6534,2024,20,203,46,Active,,,https://www.redfin.com/FL/Crestview/425-Scarborough-St-32539/home/188572861,ECAR,936623,N,Y,30.7301177,-86.5316109
MLS Listing,,Single Family Residential,427 Scarborough St,Crestview,FL,32539,361900,4,2.0,Crestview Southeast,1787,6534,2024,20,203,46,Active,,,https://www.redfin.com/FL/Crestview/427-Scarborough-St-32539/home/188572822,ECAR,936622,N,Y,30.7301177,-86.5316109
MLS Listing,,Single Family Residential,431 Scarborough St,Crestview,FL,32539,431900,5,3.0,Crestview Southeast,2593,6534,2024,20,167,46,Active,,,https://www.redfin.com/FL/Crestview/431-Scarborough-St-32539/home/188572559,ECAR,936617,N,Y,30.7301177,-86.5316109
MLS Listing,,Single Family Residential,423 Scarborough St,Crestview,FL,32539,431900,5,3.0,Crestview Southeast,2593,6969,2024,20,167,46,Active,,,https://www.redfin.com/FL/Crestview/423-Scarborough-St-32539/home/188572511,ECAR,936614,N,Y,30.7301177,-86.5316109
MLS Listing,,Condo/Co-op,510 Gulf Shore Dr Unit 121,Destin,FL,32541,650000,2,2.0,Destin Beaches West,950,,1977,20,684,668,Active,,,https://www.redfin.com/FL/Destin/510-Gulf-Shore-Dr-32541/unit-121/home/139760202,ECAR,936606,N,Y,30.3836564,-86.4978779
MLS Listing,,Vacant Land,1.8 Christopher Ln,Crestview,FL,32539,19900,,,Auburn & Garden City,,78408,,20,,,Active,,,https://www.redfin.com/FL/Unknown/1-8-Christopher-Ln-32539/home/188571520,ECAR,936602,N,Y,30.814565,-86.454132
MLS Listing,,Townhouse,147 NW Mississippi Ave,Fort Walton Beach,FL,32548,180000,2,1.0,West Fort Walton Beach,806,3920,1983,20,223,,Active,,,https://www.redfin.com/FL/Fort-Walton-Beach/147-Mississippi-Ave-NW-32548/home/139300187,ECAR,936595,N,Y,30.4226436,-86.6165643
MLS Listing,,Townhouse,141 NW Mississippi Ave,Fort Walton Beach,FL,32548,210000,2,1.5,West Fort Walton Beach,952,,1983,20,221,,Active,,,https://www.redfin.com/FL/Fort-Walton-Beach/141-Mississippi-Ave-NW-32548/home/139468818,ECAR,936593,N,Y,30.4224269,-86.6163409
MLS Listing,,Condo/Co-op,3184 Scenic Highway 98 Unit E204,Destin,FL,32541,665000,1,1.5,Destin Beaches East,806,,1995,20,825,771,Active,,,https://www.redfin.com/FL/Destin/3184-Scenic-Highway-98-32541/unit-E204/home/188568811,ECAR,936577,N,Y,30.381641,-86.4182562
MLS Listing,,Townhouse,605 Wingspan Way,Crestview,FL,32536,245000,3,2.5,Crestview Southwest,1460,1742,2006,20,168,172,Active,,,https://www.redfin.com/FL/Crestview/605-Wingspan-Way-32536/home/139483745,ECAR,936572,N,Y,30.7065562,-86.5933583
MLS Listing,,Single Family Residential,249 Kono Way,Destin,FL,32541,939900,3,3.0,Destin Beaches East,1884,,2006,20,499,555,Active,,,https://www.redfin.com/FL/Destin/249-Kono-Way-32541/home/139437286,ECAR,936398,N,Y,30.388253,-86.419146
MLS Listing,,Condo/Co-op,187 SE Brooks St Unit B302,Fort Walton Beach,FL,32548,699500,3,3.0,East Fort Walton Beach,1740,,2006,21,402,935,Active,,,https://www.redfin.com/FL/Fort-Walton-Beach/187-Brooks-St-SE-32548/unit-B302/home/139612860,ECAR,936568,N,Y,30.4025948,-86.6031457
MLS Listing,,Single Family Residential,524 Mary Lou Way,Crestview,FL,32539,409900,5,3.0,Crestview Southeast,2495,,2024,21,164,46,Active,,,https://www.redfin.com/FL/Crestview/524-Mary-Lou-Way-32539/home/188557814,ECAR,936558,N,Y,30.7300836,-86.5312129
MLS Listing,,Single Family Residential,528 Mary Lou Way,Crestview,FL,32539,372900,4,2.0,Crestview Southeast,1787,,2024,21,209,46,Active,,,https://www.redfin.com/FL/Crestview/528-Mary-Lou-Way-32539/home/188557728,ECAR,936557,N,Y,30.7300836,-86.5312129
MLS Listing,,Single Family Residential,520 Mary Lou Way,Crestview,FL,32539,372900,4,2.0,Crestview Southeast,1787,,2024,21,209,46,Active,,,https://www.redfin.com/FL/Crestview/520-Mary-Lou-Way-32539/home/188557629,ECAR,936556,N,Y,30.7300836,-86.5312129
MLS Listing,,Single Family Residential,10 Bayou Dr,Fort Walton Beach,FL,32547,1250000,3,2.5,Ocean City,2380,19602,2009,21,525,,Active,,,https://www.redfin.com/FL/Fort-Walton-Beach/10-Bayou-Dr-32547/home/139842529,ECAR,936554,N,Y,30.4496788,-86.6054513
MLS Listing,,Single Family Residential,614 NE Fairway Ave,Fort Walton Beach,FL,32547,495000,3,2.5,Kenwood/Golf Course,1829,11761,1967,21,271,,Active,,,https://www.redfin.com/FL/Fort-Walton-Beach/614-Fairway-Ave-NE-32547/home/139402659,ECAR,936545,N,Y,30.455421,-86.6102182
MLS Listing,,Single Family Residential,594 Radiant Cir,Mary Esther,FL,32569,860000,3,2.5,Mary Esther/West of Hurlburt,2469,,2004,21,348,46,Active,,,https://www.redfin.com/FL/Mary-Esther/594-Radiant-Cir-32569/home/139325944,ECAR,936535,N,Y,30.4048407,-86.7486106
MLS Listing,,Single Family Residential,208 Ladue Ave,Crestview,FL,32539,295000,4,2.0,Crestview Southeast,1809,6098,2011,21,163,,Active,,,https://www.redfin.com/FL/Crestview/208-Ladue-Ave-32539/home/139442482,ECAR,936524,N,Y,30.7318139,-86.5635459
MLS Listing,,Townhouse,225 Carmel Dr #21,Fort Walton Beach,FL,32547,240000,2,2.5,GARDEN VILLAS,1206,882,1984,21,199,150,Active,,,https://www.redfin.com/FL/Fort-Walton-Beach/225-Carmel-Dr-32547/unit-21/home/139823949,Stellar MLS as Distributed by MLS Grid,O6157044,N,Y,30.4425389,-86.6445621
MLS Listing,,Single Family Residential,120 Brendas Way,Crestview,FL,32536,329900,4,2.0,Crestview Northwest,1787,16552,2024,21,185,42,Active,,,https://www.redfin.com/FL/Crestview/120-Brendas-Way-32536/home/139878008,ECAR,936514,N,Y,30.79737,-86.595754
MLS Listing,,Single Family Residential,110 Brendas Way,Crestview,FL,32536,329900,4,2.0,Crestview Northwest,1787,17424,2024,21,185,42,Active,,,https://www.redfin.com/FL/Crestview/110-Brendas-Way-32536/home/139613617,ECAR,936508,N,Y,30.796398,-86.596217
MLS Listing,,Single Family Residential,473 Captains Cir,Destin,FL,32541,1695000,4,3.0,Destin East of Hwy 293/Midbay Bridge Rd,3510,16552,2004,21,483,253,Active,,,https://www.redfin.com/FL/Destin/473-Captains-Cir-32541/home/139748411,ECAR,936509,N,Y,30.4013592,-86.4141828
MLS Listing,,Single Family Residential,3551 Scenic Hwy 98 #22,Destin,FL,32541,1399999,4,4.0,Destin Beaches East,1920,,1998,21,729,483,Active,,,https://www.redfin.com/FL/Destin/3551-Scenic-Highway-98-32541/unit-22/home/139762582,ECAR,936505,N,Y,30.3809175,-86.4074827
MLS Listing,,Single Family Residential,210 Linda Cv,Fort Walton Beach,FL,32547,515000,4,2.5,Overbrook/Pinedale,2299,13068,2001,21,224,,Active,,,https://www.redfin.com/FL/Fort-Walton-Beach/210-Linda-Cv-32547/home/139761946,ECAR,936476,N,Y,30.432475,-86.6560987
MLS Listing,,Single Family Residential,106 Golf Course Dr,Crestview,FL,32536,499900,4,3.5,Crestview Southwest,2807,18730,2005,21,178,,Active,,,https://www.redfin.com/FL/Crestview/106-Golf-Course-Dr-32536/home/139978428,ECAR,936500,N,Y,30.7303501,-86.6189628
MLS Listing,,Condo/Co-op,4080 Dancing Cloud Ct Unit 239,Destin,FL,32541,260000,2,2.0,West Destin,1013,,1999,22,257,393,Active,,,https://www.redfin.com/FL/Destin/4080-Dancing-Cloud-Ct-32541/unit-239/home/139862320,ECAR,936467,N,Y,30.3916979,-86.4588523
MLS Listing,,Single Family Residential,1403 Grandview Dr,Crestview,FL,32539,349000,3,2.0,Auburn & Garden City,1800,28749,1978,22,194,,Active,,,https://www.redfin.com/FL/Crestview/1403-Grandview-Dr-32539/home/139282409,ECAR,936499,N,Y,30.7907892,-86.5419412
MLS Listing,,Townhouse,37 12Th St Unit Z132,Shalimar,FL,32579,279800,3,2.5,Shalimar/Port Dixie,1620,3484,1977,22,173,,Active,,,https://www.redfin.com/FL/Shalimar/37-12th-St-32579/unit-Z132/home/139685177,ECAR,936497,N,Y,30.4409126,-86.5635858
MLS Listing,,Vacant Land,4133 Belcourt Dr,Destin,FL,32541,3200000,,,West Destin,,71002,,22,,297,Active,,,https://www.redfin.com/FL/Destin/4133-Belcourt-Dr-32541/home/162659106,ECAR,936477,N,Y,30.404781,-86.453644
MLS Listing,,Single Family Residential,503 W Griffith Ave,Crestview,FL,32536,222600,3,1.0,Crestview Southwest,962,8276,1968,22,231,,Active,,,https://www.redfin.com/FL/Crestview/503-W-Griffith-Ave-32536/home/139683664,ECAR,936475,N,Y,30.7524556,-86.5707693
MLS Listing,,Condo/Co-op,4203 Indian Bayou Trl Unit 1902,Destin,FL,32541,499900,2,2.0,West Destin,1175,,2007,22,425,1091,Active,,,https://www.redfin.com/FL/Destin/4203-Indian-Bayou-Trl-32541/unit-1902/home/139955975,ECAR,936455,N,Y,30.3890339,-86.4553366
MLS Listing,,Single Family Residential,3119 Pinot Way,Crestview,FL,32536,329000,3,2.0,Crestview Northwest,1796,22651,2010,23,183,,Active,,,https://www.redfin.com/FL/Crestview/3119-Pinot-Way-32536/home/139452516,ECAR,935087,N,Y,30.8354944,-86.5376412
MLS Listing,,Condo/Co-op,1326 Miracle Strip Pkwy Unit 506,Fort Walton Beach,FL,32548,775000,3,2.0,Okaloosa Island,1568,,2006,23,494,972,Active,,,https://www.redfin.com/FL/Fort-Walton-Beach/1326-Miracle-Strip-Pkwy-SE-32548/unit-506/home/139799875,ECAR,936466,N,Y,30.3972074,-86.5871478
MLS Listing,,Single Family Residential,301 Shrewsbury Rd,Mary Esther,FL,32569,339000,4,2.0,Mary Esther/East of Hurlburt,1800,8276,1961,23,188,,Active,,,https://www.redfin.com/FL/Mary-Esther/301-Shrewsbury-Rd-32569/home/139688708,ECAR,936464,N,Y,30.4143288,-86.6518241
MLS Listing,,Condo/Co-op,300 SW Miracle Strip Pkwy Unit 2C,Fort Walton Beach,FL,32548,214700,2,1.0,West Fort Walton Beach,1100,,1979,23,195,473,Active,,,https://www.redfin.com/FL/Fort-Walton-Beach/300-Miracle-Strip-Pkwy-SW-32548/unit-2C/home/139816687,ECAR,936463,N,Y,30.4050436,-86.6310728
MLS Listing,,Single Family Residential,448 Apple Dr,Crestview,FL,32536,259000,3,2.0,Crestview Southwest,1220,,2001,23,212,,Active,,,https://www.redfin.com/FL/Crestview/448-Apple-Dr-32536/home/139425241,ECAR,936460,N,Y,30.7084916,-86.5864715
MLS Listing,,Single Family Residential,60 E Country Club Dr,Destin,FL,32541,949800,4,3.5,Indian Bayou Estates,3016,15681,1988,23,315,26,Active,,,https://www.redfin.com/FL/Destin/60-Country-Club-Dr-E-32541/home/139489010,PARMLS,636115,N,Y,30.3969342,-86.4498435
MLS Listing,,Mobile/Manufactured Home,5941 Staff Rd,Crestview,FL,32536,215000,3,2.0,Crestview Northwest,1600,134600,1977,23,134,,Active,,,https://www.redfin.com/FL/Crestview/5941-Staff-Rd-32536/home/139880620,ECAR,935832,N,Y,30.8037918,-86.589611
MLS Listing,,Condo/Co-op,15400 Emerald Coast Pkwy #805,Destin,FL,32541,2100000,3,3.0,Destin Beaches West,2101,,2000,23,1000,1600,Active,,,https://www.redfin.com/FL/Destin/15400-Emerald-Coast-Pkwy-32541/unit-805/home/139893878,ECAR,936444,N,Y,30.3844612,-86.4541906
MLS Listing,,Moorage,214 SW Miracle Strip Pkwy Unit Boat Slip D10,Fort Walton Beach,FL,32548,400,,,West Fort Walton Beach,,,1986,23,,,Active,,,https://www.redfin.com/FL/Fort-Walton-Beach/214-Miracle-Strip-Pkwy-SW-32548/unit-Boat-Slip-D10/home/188542475,ECAR,936438,N,Y,30.4049052,-86.6265639
MLS Listing,,Vacant Land,XXX Monahan Ct,Fort Walton Beach,FL,32548,80000,,,Ocean City,,3049,,23,,,Active,,,https://www.redfin.com/FL/Ft-Walton-Beach/Monahan-Ct-32548/home/139301395,ECAR,936437,N,Y,30.432349,-86.610752
MLS Listing,,Single Family Residential,4703 Seastar Vis,Destin,FL,32541,1475000,4,3.5,Destin Beaches East,3498,11325,2003,24,422,240,Active,,,https://www.redfin.com/FL/Destin/4703-Seastar-Vis-32541/home/139697541,ECAR,936432,N,Y,30.3857314,-86.4083292
MLS Listing,,Single Family Residential,106 Brendas Way,Crestview,FL,32536,329900,4,2.0,Crestview Northwest,1787,17424,2024,24,185,42,Active,,,https://www.redfin.com/FL/Crestview/106-Brendas-Way-32536/home/139484922,ECAR,936422,N,Y,30.795958,-86.596225
MLS Listing,,Condo/Co-op,214 Miracle Strip Pkwy Unit B303,Fort Walton Beach,FL,32548,189900,0,1.0,West Fort Walton Beach,325,,1987,24,584,665,Active,,,https://www.redfin.com/FL/Fort-Walton-Beach/214-Miracle-Strip-Pkwy-SW-32548/unit-B303/home/139935891,ECAR,936037,N,Y,30.4049052,-86.6265639
MLS Listing,,Condo/Co-op,206 Henderson Resort Way #5102,Destin,FL,32541,949000,2,3.0,Destin Beaches East,1248,,2023,24,760,950,Active,,,https://www.redfin.com/FL/Destin/200-Henderson-Resort-Way-32541/unit-5102/home/175573147,ECAR,936412,N,Y,30.3844642,-86.4314956
MLS Listing,,Single Family Residential,108 Brenda's Way,Crestview,FL,32536,349900,5,3.0,Crestview Northwest,2012,17424,2024,24,174,42,Active,,,https://www.redfin.com/FL/Crestview/108-Brendas-Way-32536/home/139525678,ECAR,936396,N,Y,30.796178,-86.596221
MLS Listing,,Condo/Co-op,333 Bluefish Dr #101,Fort Walton Beach,FL,32548,383000,2,1.0,Okaloosa Island,674,,1970,24,568,500,Active,,,https://www.redfin.com/FL/Fort-Walton-Beach/333-Bluefish-Dr-32548/unit-101/home/139228079,ECAR,936395,N,Y,30.3992183,-86.6048706
MLS Listing,,Single Family Residential,104 Brenda's Way,Crestview,FL,32536,349900,5,3.0,Crestview Northwest,2012,17424,2024,24,174,42,Active,,,https://www.redfin.com/FL/Crestview/104-Brendas-Way-32536/home/139455915,ECAR,936391,N,Y,30.795739,-86.5962289
MLS Listing,,Single Family Residential,658 Lee Ave,Crestview,FL,32539,229900,3,3.0,Crestview Southeast,1311,16988,1963,24,175,,Active,,,https://www.redfin.com/FL/Crestview/658-Lee-Ave-32539/home/139174908,ECAR,936380,N,Y,30.7507796,-86.5565348
MLS Listing,,Single Family Residential,101 Baywind Dr,Niceville,FL,32578,835000,5,3.5,Bluewater Bay Area,3424,27007,1987,24,244,93,Active,,,https://www.redfin.com/FL/Niceville/101-Baywind-Dr-32578/home/139837508,ECAR,936378,N,Y,30.4722324,-86.4277266
MLS Listing,,Townhouse,1 Praiseworthy Dr #1,Valparaiso,FL,32580,380000,3,2.5,Valp No of Tom's Bayou,1575,,2021,24,241,150,Active,,,https://www.redfin.com/FL/Valparaiso/1-Praiseworthy-Dr-32580/unit-1/home/188530852,ECAR,936373,N,Y,30.5105501,-86.5006455
MLS Listing,,Condo/Co-op,676 Santa Rosa Blvd Unit 7p,Fort Walton Beach,FL,32547,525000,1,1.0,Okaloosa Island,780,,1974,24,673,448,Active,,,https://www.redfin.com/FL/Fort-Walton-Beach/676-Santa-Rosa-Blvd-32548/unit-7P/home/139707003,ECAR,936359,N,Y,30.3969495,-86.6205973
MLS Listing,,Single Family Residential,230 Limestone Cir,Crestview,FL,32539,307500,3,2.0,Crestview Southeast,1860,7840,2006,25,165,,Active,,,https://www.redfin.com/FL/Crestview/230-Limestone-Cir-32539/home/139603557,ECAR,936368,N,Y,30.734801,-86.5492385
MLS Listing,,Single Family Residential,3104 Pinot Way,Crestview,FL,32536,275000,3,2.0,Crestview Northwest,1328,22651,2023,25,207,,Active,,,https://www.redfin.com/FL/Crestview/3104-Pinot-Way-32536/home/139957259,ECAR,936366,N,Y,30.8353834,-86.5402054
MLS Listing,,Townhouse,600 Wingspan Way,Crestview,FL,32536,208000,2,2.5,Crestview Southwest,1323,,2006,25,157,172,Active,,,https://www.redfin.com/FL/Crestview/600-Wingspan-Way-32536/home/139483735,ECAR,936364,N,Y,30.7067074,-86.5929611
MLS Listing,,Vacant Land,523 Calhoun Ave,Destin,FL,32541,1995000,,,West Destin,,61855,,25,,,Active,,,https://www.redfin.com/FL/Destin/523-Calhoun-Ave-32541/home/139225699,ECAR,936363,N,Y,30.4089954,-86.5015181
MLS Listing,,Single Family Residential,314 Tequesta Dr,Destin,FL,32541,662500,4,3.0,Destin East of Hwy 293/Midbay Bridge Rd,2411,,2003,25,275,115,Active,,,https://www.redfin.com/FL/Destin/314-Tequesta-Dr-32541/home/139482385,ECAR,936352,N,Y,30.3952928,-86.4036419
MLS Listing,,Condo/Co-op,590 Santa Rosa Blvd Unit 205,Fort Walton Beach,FL,32548,999999,3,2.0,Okaloosa Island,1433,,2002,25,698,838,Active,,,https://www.redfin.com/FL/Fort-Walton-Beach/590-Santa-Rosa-Blvd-32548/unit-205/home/139439012,ECAR,936351,N,Y,30.3969934,-86.6158557
MLS Listing,,Townhouse,411 Nathey Ave,Niceville,FL,32578,309900,3,2.5,Niceville North,1646,1742,2007,25,188,170,Active,,,https://www.redfin.com/FL/Niceville/411-Nathey-Ave-32578/home/139829976,ECAR,936345,N,Y,30.5274732,-86.5006954
MLS Listing,,Condo/Co-op,151 Calhoun Ave Unit 506,Destin,FL,32541,598900,2,2.0,West Destin,1266,,1973,25,473,425,Active,,,https://www.redfin.com/FL/Destin/151-Calhoun-Ave-32541/unit-506/home/139963253,ECAR,936343,N,Y,30.4017167,-86.5107477
MLS Listing,,Single Family Residential,1 Timberland Way,Fort Walton Beach,FL,32548,540000,5,3.0,Overbrook/Pinedale,2358,16552,1972,25,229,,Active,,,https://www.redfin.com/FL/Fort-Walton-Beach/1-Timberland-Way-32548/home/139274123,ECAR,936340,N,Y,30.43065,-86.647334
MLS Listing,,Single Family Residential,1189 Forest Heights Rd,Fort Walton Beach,FL,32547,494900,3,2.0,Wright,1978,12196,2023,25,250,,Active,,,https://www.redfin.com/FL/Fort-Walton-Beach/1189-Forest-Heights-Rd-32547/home/183600751,ECAR,936334,N,Y,30.4642,-86.628189
MLS Listing,,Single Family Residential,402 E Robinson Ave,Crestview,FL,32539,159900,2,1.0,Crestview Southeast,815,7405,1956,25,196,,Active,,,https://www.redfin.com/FL/Crestview/402-E-Robinson-Ave-32539/home/139986194,ECAR,936329,N,Y,30.7487804,-86.5606361
MLS Listing,,Condo/Co-op,100 Matthew Blvd #407,Destin,FL,32541,1189000,2,2.0,Destin Beaches East,1065,,2018,25,1116,1029,Active,,,https://www.redfin.com/FL/Destin/100-Matthew-Blvd-32541/unit-407/home/150062804,ECAR,936305,N,Y,30.3839717,-86.4309098
MLS Listing,,Single Family Residential,183 Chicago Ave,Valparaiso,FL,32580,699900,5,3.0,Valp No of Tom's Bayou,2656,11325,2023,25,264,,Active,,,https://www.redfin.com/FL/Valparaiso/183-Chicago-Ave-32580/home/139322518,ECAR,936296,N,Y,30.5058341,-86.4905533
MLS Listing,,Single Family Residential,209 Forrest Pkwy,Crestview,FL,32539,162900,3,1.0,Auburn & Garden City,1339,16988,1975,25,122,,Active,,,https://www.redfin.com/FL/Crestview/209-Forrest-Pkwy-32539/home/139316022,ECAR,936295,N,Y,30.784597,-86.5450969
