SALE TYPE,SOLD DATE,PROPERTY TYPE,ADDRESS,CITY,STATE OR PROVINCE,ZIP OR POSTAL CODE,PRICE,BEDS,BATHS,LOCATION,SQUARE FEET,LOT SIZE,YEAR BUILT,DAYS ON MARKET,$/SQUARE FEET,HOA/MONTH,STATUS,NEXT OPEN HOUSE START TIME,NEXT OPEN HOUSE END TIME,URL (SEE https://www.redfin.com/buy-a-home/comparative-market-analysis FOR INFO ON PRICING),SOURCE,MLS#,FAVORITE,INTERESTED,LATITUDE,LONGITUDE
"In accordance with local MLS rules, some MLS listings are not included in the download"
MLS Listing,,Single Family Residential,6424 Shadow Creek Village Cir,Lake Worth,FL,33463,699900,4,3.0,Winston Trails,2667,7840,2002,2,262,231,Active,,,https://www.redfin.com/FL/Lake-Worth/6424-Shadow-Creek-Village-Cir-33463/home/42545941,Beaches MLS,RX-10940269,N,Y,26.5828009,-80.1277015
MLS Listing,,Single Family Residential,1670 SW 3rd Ct,Boca Raton,FL,33432,1845000,4,3.0,Royal Palm Forest,3022,8209,1995,3,611,150,Active,,,https://www.redfin.com/FL/Boca-Raton/1670-SW-3rd-Ct-33432/home/42328931,Beaches MLS,RX-10939974,N,Y,26.332762,-80.0922304
MLS Listing,,Single Family Residential,7297 Nautica Way,Lake Worth,FL,33467,539000,3,2.0,Spinnaker Bay AT Lake Charleston,1578,4498,1998,3,342,158,Active,,,https://www.redfin.com/FL/Lake-Worth/7297-Nautica-Way-33467/home/42185573,Beaches MLS,RX-10939943,N,Y,26.570457,-80.14887
MLS Listing,,Townhouse,1202 Coastal Bay Blvd #1202,Boynton Beach,FL,33435,475000,3,3.5,Coastal Bay Colony,2161,1259,2006,3,220,416,Active,,,https://www.redfin.com/FL/Boynton-Beach/1202-Coastal-Bay-Blvd-33435/unit-1202/home/102186663,Beaches MLS,RX-10939915,N,Y,26.5064155,-80.0605528
MLS Listing,,Condo/Co-op,6557 Burning Wood Dr #216,Boca Raton,FL,33433,310000,2,2.0,Woodhaven Condo,1500,,1977,4,207,594,Active,,,https://www.redfin.com/FL/Boca-Raton/6557-Burning-Wood-Dr-33433/unit-216/home/42263707,Beaches MLS,RX-10939495,N,Y,26.3491777,-80.1465843
MLS Listing,,Single Family Residential,11155 Osprey Lake Ln,Palm Beach Gardens,FL,33412,765000,4,3.0,Osprey Isles Pud,2484,8555,2006,5,308,285,Active,,,https://www.redfin.com/FL/Palm-Beach-Gardens/11155-Osprey-Lake-Ln-33412/home/168150681,Beaches MLS,RX-10939355,N,Y,26.8196809,-80.2157702
MLS Listing,,Townhouse,11135 Oakdale Rd,Boynton Beach,FL,33437,425000,3,2.5,Rosedale AT Indian Spring,1815,3189,1979,7,234,459,Active,,,https://www.redfin.com/FL/Boynton-Beach/11135-Oakdale-Rd-33437/home/42204290,Beaches MLS,RX-10938700,N,Y,26.5115925,-80.1306676
MLS Listing,,Condo/Co-op,2800 N Ocean Dr Unit B-11b,Riviera Beach,FL,33404,639900,2,2.0,Phoenix Towers Condo,1219,,1973,12,525,1360,Active,,,https://www.redfin.com/FL/Riviera-Beach/2800-N-Ocean-Dr-33404/unit-B-11B/home/42460424,Beaches MLS,RX-10938033,N,Y,26.7859363,-80.0335382
MLS Listing,,Condo/Co-op,304 Golfview Rd #405,North Palm Beach,FL,33408,238900,1,1.0,Waterway East Condos,732,,1971,14,326,721,Active,,,https://www.redfin.com/FL/North-Palm-Beach/304-Golfview-Rd-33408/unit-405/home/42474011,Beaches MLS,RX-10937471,N,Y,26.8332306,-80.0606068
MLS Listing,,Single Family Residential,7361 Via Leonardo,Lake Worth,FL,33467,770000,5,4.5,Villages OF Windsor 4,3346,6412,2004,19,230,307,Active,,,https://www.redfin.com/FL/Lake-Worth/7361-Via-Leonardo-33467/home/42582399,Beaches MLS,RX-10936211,N,Y,26.5669259,-80.1758671
MLS Listing,,Single Family Residential,2922 Calabria Way,Delray Beach,FL,33445,1295000,3,2.0,Verona Woods,2221,12500,1991,26,583,134,Active,,,https://www.redfin.com/FL/Delray-Beach/2922-Calabria-Way-33445/home/42373814,Beaches MLS,RX-10934322,N,Y,26.4338973,-80.1042739
MLS Listing,,Townhouse,1142 11th Ct,Jupiter,FL,33477,545000,2,2.5,Lakes AT The Bluffs,1188,1345,1985,33,459,356,Active,,,https://www.redfin.com/FL/Jupiter/1142-11th-Ct-33477/home/42415586,Beaches MLS,RX-10932287,N,Y,26.89604,-80.068878
MLS Listing,,Single Family Residential,821 S Atlantic Dr,Lantana,FL,33462,14995000,7,11.5,Hypoluxo Island,12286,33127,2002,39,1220,,Active,,,https://www.redfin.com/FL/Lake-Worth/821-S-Atlantic-Dr-33462/home/42428324,Beaches MLS,RX-10930923,N,Y,26.5772682,-80.0439973
MLS Listing,,Single Family Residential,2543 SW 23rd Cranbrook Pl,Boynton Beach,FL,33436,699000,3,2.5,Cranbrook Lake Estates,2476,10131,1986,40,282,317,Active,,,https://www.redfin.com/FL/Boynton-Beach/2543-SW-23rd-Cranbrook-Pl-33436/home/42345100,Beaches MLS,RX-10930424,N,Y,26.5036788,-80.0946675
MLS Listing,,Condo/Co-op,5460 N Ocean Dr Unit 11a,Singer Island,FL,33404,899900,2,2.0,Seagrape Condo,1424,,1973,46,632,1361,Active,,,https://www.redfin.com/FL/Riviera-Beach/5460-N-Ocean-Dr-33404/unit-11A/home/42456873,Beaches MLS,RX-10929032,N,Y,26.8106104,-80.0348672
MLS Listing,,Single Family Residential,9728 Baywood Park Ln,Delray Beach,FL,33446,865000,4,2.5,Valencia Palms 1,2761,10877,2006,53,313,756,Active,,,https://www.redfin.com/FL/Delray-Beach/9728-Baywood-Park-Ln-33446/home/42591577,Beaches MLS,RX-10926992,N,Y,26.4789543,-80.14807
MLS Listing,,Single Family Residential,8107 Woodslanding Trl,West Palm Beach,FL,33411,1399000,6,6.0,Woods Landing,4703,20600,2006,55,297,385,Active,,,https://www.redfin.com/FL/Royal-Palm-Beach/8107-Woodslanding-Trl-33411/home/42610213,Beaches MLS,RX-10926484,N,Y,26.6675546,-80.1775455
MLS Listing,,Multi-Family (2-4 Unit),518 N 7th St,Lantana,FL,33462,534999,5,3.0,Mantyharju Lantana,2161,6563,1955,59,248,,Active,,,https://www.redfin.com/FL/Lantana/518-N-7th-St-33462/home/180525269,Beaches MLS,RX-10914234,N,Y,26.5885899,-80.0569998
MLS Listing,,Townhouse,5134 Hamilton Ct,Palm Beach Gardens,FL,33418,689900,3,2.5,Hampton Cay / Southhampton,2138,1652,2014,60,323,424,Active,,,https://www.redfin.com/FL/Palm-Beach-Gardens/5134-Hamilton-Ct-33418/home/52844925,Beaches MLS,RX-10925140,N,Y,26.8391652,-80.1185813
MLS Listing,,Single Family Residential,2180 Bellcrest Cir,Royal Palm Beach,FL,33411,814999,5,3.0,"Madison Green 1 Pars F, G And I",3496,7487,2001,60,233,240,Active,,,https://www.redfin.com/FL/Royal-Palm-Beach/2180-Bellcrest-Cir-33411/home/42558973,Beaches MLS,RX-10925041,N,Y,26.7185079,-80.2343533
MLS Listing,,Townhouse,14565 Three Ponds Trl,Delray Beach,FL,33446,499999,2,2.0,Avalon Trails AT Villages OF Oriole,1319,2520,2022,61,379,446,Active,,,https://www.redfin.com/FL/Delray-Beach/14565-Three-Ponds-Trl-33446/home/174308236,Beaches MLS,RX-10924932,N,Y,26.461097,-80.151734
MLS Listing,,Single Family Residential,1001 Park Hill Dr,West Palm Beach,FL,33417,465000,3,2.0,Park Hill Estates,1534,5420,2000,80,303,100,Active,,,https://www.redfin.com/FL/Haverhill/1001-Park-Hill-Dr-33417/home/42547629,Beaches MLS,RX-10919902,N,Y,26.6927347,-80.1284212
MLS Listing,,Condo/Co-op,10302 Myrtlewood Cir W,Palm Beach Gardens,FL,33418,360000,2,2.0,Fiore AT The Gardens Condo,1113,,2004,94,323,335,Active,,,https://www.redfin.com/FL/Palm-Beach-Gardens/10302-Myrtlewood-Cir-W-33418/home/42609229,Beaches MLS,RX-10916136,N,Y,26.87368,-80.106316
MLS Listing,,Townhouse,14536 Bretton Woods Trce Trce,Delray Beach,FL,33446,499999,3,2.0,Avalon Trails AT Villages OF Oriole Pud,1319,3195,2022,103,379,446,Active,,,https://www.redfin.com/FL/Delray-Beach/14536-Bretton-Woods-Trce-33446/home/174308226,Beaches MLS,RX-10913822,N,Y,26.4612052,-80.1523791
MLS Listing,,Condo/Co-op,3133 Clint Moore Rd #103,Boca Raton,FL,33496,359000,2,2.0,Bocar,1238,,1991,131,290,624,Active,,,https://www.redfin.com/FL/Boca-Raton/3133-Clint-Moore-Rd-33496/unit-103/home/42601020,Beaches MLS,RX-10907172,N,Y,26.4084694,-80.1484843
MLS Listing,,Single Family Residential,1250 Mayview Way,Wellington,FL,33414,869900,4,2.5,Meadow Wood OF The Landings AT Wellingto,2761,23066,1989,143,315,17,Active,,,https://www.redfin.com/FL/Wellington/1250-Mayview-Way-33414/home/42500032,Beaches MLS,RX-10904406,N,Y,26.6643165,-80.2957814
MLS Listing,,Condo/Co-op,3525 S Ocean Blvd #4020,South Palm Beach,FL,33480,563010,2,2.0,Lakewood AT Palm Beach Condo,1204,,1985,143,468,713,Active,,,https://www.redfin.com/FL/Palm-Beach/3525-S-Ocean-Blvd-33480/unit-4020/home/42470413,Beaches MLS,RX-10904270,N,Y,26.5925586,-80.0396826
MLS Listing,,Condo/Co-op,3000 N Ocean Dr Unit 22e,Singer Island,FL,33404,1199900,2,2.0,Tiara Condo,1468,,1977,145,817,1515,Active,,,https://www.redfin.com/FL/Riviera-Beach/3000-N-Ocean-Dr-33404/unit-22E/home/42463610,Beaches MLS,RX-10903655,N,Y,26.7868613,-80.0332519
MLS Listing,,Single Family Residential,3130 Hartridge Ter,Wellington,FL,33414,1199000,5,5.5,Olympia 2,4174,14869,2005,171,287,305,Active,,,https://www.redfin.com/FL/Wellington/3130-Hartridge-Ter-33414/home/42585110,Beaches MLS,RX-10897788,N,Y,26.6328967,-80.190536
MLS Listing,,Single Family Residential,511 Saturn Ln,Juno Beach,FL,33408,2900000,3,3.0,Sea Dunes,2601,7312,2004,192,1115,,Active,,,https://www.redfin.com/FL/Juno-Beach/511-Saturn-Ln-33408/home/42388637,Beaches MLS,RX-10892839,N,Y,26.8827984,-80.0548457
MLS Listing,,Condo/Co-op,11 Colonial Club Dr #304,Boynton Beach,FL,33435,269900,2,2.0,Colonial Club Condo,1200,,1973,212,225,796,Active,,,https://www.redfin.com/FL/Boynton-Beach/11-Colonial-Club-Dr-33435/unit-304/home/42348201,Beaches MLS,RX-10887709,N,Y,26.5020772,-80.0592987
MLS Listing,,Single Family Residential,860 Cypress Way,Boca Raton,FL,33486,2000000,3,3.0,Camino Gardens Sec 1,2010,,1966,1,995,58,Active,,,https://www.redfin.com/FL/Boca-Raton/860-Cypress-Way-33486/home/42322702,Beaches MLS,RX-10939397,N,Y,26.3421958,-80.0972924
MLS Listing,,Single Family Residential,9714 Colorado Ct,Boca Raton,FL,33434,689900,5,2.0,American Homes AT Boca Raton 2,2026,11470,1978,1,341,60,Active,,,https://www.redfin.com/FL/Boca-Raton/9714-Colorado-Ct-33434/home/42243040,Beaches MLS,RX-10938459,N,Y,26.3817643,-80.1989918
MLS Listing,,Condo/Co-op,701 S Olive Ave #1011,West Palm Beach,FL,33401,549000,1,1.5,Two City Plaza,786,,2008,1,698,693,Active,,,https://www.redfin.com/FL/West-Palm-Beach/701-S-Olive-Ave-33401/unit-1011/home/42659749,Beaches MLS,RX-10939494,N,Y,26.7066463,-80.0525755
MLS Listing,,Single Family Residential,250 Fan Palm Rd,Boca Raton,FL,33432,5395000,4,4.5,Royal Palm Yacht & Country Club,4431,13834,1996,1,1218,298,Active,,,https://www.redfin.com/FL/Boca-Raton/250-Fan-Palm-Rd-33432/home/42326243,Beaches MLS,RX-10939504,N,Y,26.3376265,-80.082433
MLS Listing,,Single Family Residential,6830 Allegre Ct,Boca Raton,FL,33433,799000,2,2.5,Pradera OF Via Verde PH 1 Replat,1928,4946,1981,1,414,310,Active,,,https://www.redfin.com/FL/Boca-Raton/6830-Allegre-Ct-33433/home/42254623,Beaches MLS,RX-10940302,N,Y,26.3594175,-80.1506716
MLS Listing,,Single Family Residential,6989 Cypress Cove Cir,Jupiter,FL,33458,989900,5,3.5,Cypress Cove OF Jupiter,2763,10925,1995,1,358,180,Active,,,https://www.redfin.com/FL/Jupiter/6989-Cypress-Cove-Cir-33458/home/42638442,Beaches MLS,RX-10939156,N,Y,26.958168,-80.1385406
MLS Listing,,Single Family Residential,103 W Bears Club Dr,Jupiter,FL,33477,18500000,5,7.0,Bears Club Addn Pud,9100,39409,2017,1,2033,1310,Active,,,https://www.redfin.com/FL/Jupiter/103-W-Bears-Club-Dr-33477/home/42618817,Beaches MLS,RX-10937563,N,Y,26.8917392,-80.0879756
MLS Listing,,Condo/Co-op,6627 Via Regina,Boca Raton,FL,33433,389000,2,2.5,Plum AT Boca Pointe Condos One Thru 15 Filed IN OR,1152,,1985,1,338,565,Active,,,https://www.redfin.com/FL/Boca-Raton/6627-Via-Regina-33433/home/42275899,Beaches MLS,RX-10940309,N,Y,26.33435,-80.146706
MLS Listing,,Condo/Co-op,1501 S Flagler Dr Unit 9e,West Palm Beach,FL,33401,679900,2,2.0,Norton Park Place Condo,1125,,1966,1,604,986,Active,,,https://www.redfin.com/FL/West-Palm-Beach/1501-S-Flagler-Dr-33401/unit-9E/home/42525568,Beaches MLS,RX-10940446,N,Y,26.7002477,-80.0510038
MLS Listing,,Condo/Co-op,801 S Olive Ave #1203,West Palm Beach,FL,33401,1600000,2,2.0,One City Plaza Condo,1509,,2006,1,1060,1177,Active,,,https://www.redfin.com/FL/West-Palm-Beach/801-S-Olive-Ave-33401/unit-1203/home/42610832,Beaches MLS,RX-10938859,N,Y,26.70582,-80.0524882
MLS Listing,,Condo/Co-op,900 NE Spanish River Blvd Unit 7c,Boca Raton,FL,33431,1175000,3,3.0,Rogers Condo,1965,,1975,1,598,1343,Active,,,https://www.redfin.com/FL/Boca-Raton/900-NE-Spanish-River-Blvd-33431/unit-7c/home/188765824,Beaches MLS,RX-10939497,N,Y,26.3858045,-80.0717833
MLS Listing,,Condo/Co-op,707 Ocean Dunes Cir,Jupiter,FL,33477,649000,2,2.0,Villas OF Ocean Dunes,1254,,1984,1,518,840,Active,,,https://www.redfin.com/FL/Jupiter/707-Ocean-Dunes-Cir-33477/home/42409723,Beaches MLS,RX-10939104,N,Y,26.8930835,-80.0632408
MLS Listing,,Condo/Co-op,22040 Palms Way #103,Boca Raton,FL,33433,325000,2,2.0,Boca Palms,958,,1985,1,339,333,Active,,,https://www.redfin.com/FL/Boca-Raton/22040-Palms-Way-33433/unit-103/home/42260657,Beaches MLS,RX-10939440,N,Y,26.3484797,-80.1405686
MLS Listing,,Condo/Co-op,1801 Ocean Dr #203,Boynton Beach,FL,33426,150000,2,1.0,Leisureville Lake,729,,1973,1,206,403,Active,,,https://www.redfin.com/FL/Boynton-Beach/1801-Ocean-Dr-33426/unit-203/home/42343030,Beaches MLS,RX-10940445,N,Y,26.524625,-80.0869718
MLS Listing,,Townhouse,2439 Treasure Isle Dr Unit 6 + Dock 14,Palm Beach Gardens,FL,33410,1250000,3,3.0,Mariners Cover,1514,,1988,1,826,881,Active,,,https://www.redfin.com/FL/West-Palm-Beach/2439-Treasure-Isle-Dr-33410/unit-6/home/42278497,Beaches MLS,RX-10940447,N,Y,26.8729025,-80.070572
MLS Listing,,Condo/Co-op,3001 Linton Blvd Unit 208C,Delray Beach,FL,33445,144900,1,1.5,Lakeview Greens,939,,1983,1,154,384,Active,,,https://www.redfin.com/FL/Delray-Beach/3001-Linton-Blvd-33445/unit-208C/home/42641247,Beaches MLS,F10411254,N,Y,26.4400893,-80.1070445
MLS Listing,,Single Family Residential,9244 Flynn Cir #3,Boca Raton,FL,33496,379000,2,2.0,Town Villas,1227,,1987,1,309,322,Active,,,https://www.redfin.com/FL/Boca-Raton/9244-Flynn-Cir-33496/unit-3/home/42240940,Beaches MLS,F10411357,N,Y,26.3984472,-80.1897296
MLS Listing,,Single Family Residential,7134 San Sebastian Drive Dr,Boca Raton,FL,33433,2099000,6,5.5,Del Mar Village,5600,,1984,1,375,105,Active,,,https://www.redfin.com/FL/Boca-Raton/7134-San-Sebastian-Dr-33433/home/42256328,Beaches MLS,RX-10940443,N,Y,26.354042,-80.1560576
MLS Listing,,Single Family Residential,18266 48th Ave N,The Acreage,FL,33470,554995,2,2.0,O,1146,64033,1996,1,484,,Active,,,https://www.redfin.com/FL/Loxahatchee/18266-48th-Ave-N-33470/home/42093149,Beaches MLS,RX-10940440,N,Y,26.7502911,-80.3336046
MLS Listing,,Condo/Co-op,250 NE 3rd Ave #1304,Delray Beach,FL,33444,795000,2,2.0,Pineapple Grove Village Condo,1243,,2004,1,640,570,Pre On-Market,,,https://www.redfin.com/FL/Delray-Beach/250-NE-3rd-Ave-33444/unit-1304/home/42606349,Beaches MLS,RX-10940438,N,Y,26.4661338,-80.0703428
MLS Listing,,Condo/Co-op,109 Paradise Harbour Blvd #305,North Palm Beach,FL,33408,250000,1,1.0,Schooner Bay Condo,855,,1974,1,292,571,Pre On-Market,December-9-2023 11:00 AM,December-9-2023 01:00 PM,https://www.redfin.com/FL/North-Palm-Beach/109-Paradise-Harbour-Blvd-33408/unit-305/home/42483964,Beaches MLS,RX-10940436,N,Y,26.8097647,-80.0541617
MLS Listing,,Single Family Residential,10378 Gentlewood Forest Dr,Boynton Beach,FL,33473,805000,5,3.0,Canyon Lakes 6,2994,6215,2005,1,269,375,Pre On-Market,,,https://www.redfin.com/FL/Boynton-Beach/10378-Gentlewood-Forest-Dr-33473/home/42588998,Beaches MLS,RX-10940435,N,Y,26.521574,-80.185826
MLS Listing,,Single Family Residential,3875 Coelebs Ave,Boynton Beach,FL,33436,475000,3,2.0,West Boynton 1,1239,9492,1981,1,383,,Pre On-Market,,,https://www.redfin.com/FL/Boynton-Beach/3875-Coelebs-Ave-33436/home/42290004,Beaches MLS,RX-10940431,N,Y,26.5413327,-80.1044097
MLS Listing,,Condo/Co-op,2727 N Ocean Blvd Unit A203,Boca Raton,FL,33431,849900,2,2.0,Yacht & Racquet Club OF Boca Raton Condo,1375,,1976,1,618,1914,Active,,,https://www.redfin.com/FL/Boca-Raton/2727-N-Ocean-Blvd-33431/unit-A-203/home/184698237,Beaches MLS,RX-10940430,N,Y,26.375627,-80.068306
MLS Listing,,Condo/Co-op,1725 Palm Cove Blvd Unit 2-302,Delray Beach,FL,33445,299900,1,1.0,Verano at Delray,1144,,1992,1,262,573,Pre On-Market,,,https://www.redfin.com/FL/Delray-Beach/1725-Palm-Cove-Blvd-33445/unit-2-302/home/42600559,Beaches MLS,RX-10940429,N,Y,26.4381403,-80.1046428
MLS Listing,,Condo/Co-op,460 NW 20th St #211,Boca Raton,FL,33431,280000,2,2.0,Casa Del Rio Condo,936,,1980,1,299,344,Active,,,https://www.redfin.com/FL/Boca-Raton/460-NW-20th-St-33431/unit-211/home/188812362,Beaches MLS,RX-10940428,N,Y,26.3666306,-80.0939542
MLS Listing,,Condo/Co-op,2728 Anzio Ct #106,Palm Beach Gardens,FL,33410,275000,1,1.0,San Matera The Gardens Condo,819,,2005,1,336,416,Active,,,https://www.redfin.com/FL/Palm-Beach-Gardens/2728-Anzio-Ct-33410/unit-106/home/42608095,Beaches MLS,RX-10940426,N,Y,26.849172,-80.0765777
MLS Listing,,Condo/Co-op,701 East Camino Unit 2e,Boca Raton,FL,33432,1099999,2,2.0,Boca Inlet Condo,1284,,1965,1,857,1434,Active,,,https://www.redfin.com/FL/Boca-Raton/701-E-Camino-Real-33432/unit-2E/home/42325666,Beaches MLS,RX-10940424,N,Y,26.3394591,-80.0763008
MLS Listing,,Single Family Residential,334 Fordham Dr,Lake Worth Beach,FL,33460,649000,2,2.0,College Park,1295,5249,1941,1,501,,Pre On-Market,,,https://www.redfin.com/FL/Lake-Worth-Beach/334-Fordham-Dr-33460/home/42418116,Beaches MLS,RX-10940422,N,Y,26.6408346,-80.0558008
MLS Listing,,Single Family Residential,7612 San Carlos St,Boynton Beach,FL,33437,400000,3,2.0,Valencia Lakes,1852,,1999,1,216,609,Active,,,https://www.redfin.com/FL/Boynton-Beach/7612-San-Carlos-St-33437/home/42203538,Beaches MLS,RX-10940420,N,Y,26.4980324,-80.165338
MLS Listing,,Single Family Residential,2757 S Clearbrook Cir,Delray Beach,FL,33445,645000,3,2.0,Hidden Lake,1623,4966,1995,1,397,311,Active,,,https://www.redfin.com/FL/Delray-Beach/2757-S-Clearbrook-Cir-33445/home/42369283,Beaches MLS,RX-10940417,N,Y,26.4512097,-80.1031642
MLS Listing,,Condo/Co-op,6655 Kensington Ln #202,Delray Beach,FL,33446,275000,2,2.0,Huntington Lakes Sec One Condos,1220,,1989,1,225,621,Active,,,https://www.redfin.com/FL/Delray-Beach/6655-Kensington-Ln-33446/unit-202/home/42214560,Beaches MLS,RX-10940414,N,Y,26.464568,-80.14829
MLS Listing,,Townhouse,4325 Arcturus Ln,Lake Worth,FL,33467,735000,3,2.5,Polo Legacy Mxpd,2450,3563,2022,1,300,138,Active,,,https://www.redfin.com/FL/Lake-Worth/4325-Arcturus-Ln-33467/home/176568076,Beaches MLS,RX-10940411,N,Y,26.615755,-80.185312
MLS Listing,,Single Family Residential,1053 Fosters Mill Rd,Boynton Beach,FL,33436,515000,3,2.0,Fosters Mill,1364,5668,1999,1,378,130,Active,,,https://www.redfin.com/FL/Boynton-Beach/1053-Fosters-Mill-Rd-33436/home/42544381,Beaches MLS,RX-10940410,N,Y,26.5611749,-80.1006099
MLS Listing,,Condo/Co-op,5492 Atlantic Palm Ct Unit A,Boynton Beach,FL,33437,369000,2,2.0,Palm Chase Condo,1340,,1986,1,275,658,Active,,,https://www.redfin.com/FL/Boynton-Beach/5492-Atlantic-Palm-Ct-33437/unit-A/home/42202581,Beaches MLS,RX-10940409,N,Y,26.5151179,-80.1310588
MLS Listing,,Single Family Residential,112 Cape Pointe Cir,Jupiter,FL,33477,1100000,3,2.0,Ridge at The Bluffs,1889,,1985,1,582,262,Active,,,https://www.redfin.com/FL/Jupiter/112-Cape-Pointe-Cir-33477/home/42413611,Beaches MLS,RX-10940408,N,Y,26.9013697,-80.0699281
MLS Listing,,Single Family Residential,8125 Brindisi Ln,Boynton Beach,FL,33472,470000,2,2.0,Venetian Isles,1755,4755,2000,1,268,538,Active,,,https://www.redfin.com/FL/Boynton-Beach/8125-Brindisi-Ln-33472/home/42544829,Beaches MLS,RX-10940404,N,Y,26.5539285,-80.1755401
MLS Listing,,Condo/Co-op,15456 Pembridge Dr #109,Delray Beach,FL,33484,305000,2,2.0,Lakes of Delray,1348,,1989,1,226,698,Active,,,https://www.redfin.com/FL/Delray-Beach/15456-Pembridge-Dr-33484/unit-109/home/42231152,Beaches MLS,RX-10940401,N,Y,26.4470656,-80.1326087
MLS Listing,,Condo/Co-op,9807 Pavarotti Ter #104,Boynton Beach,FL,33437,338000,2,2.0,Sun Valley East Condo,1498,,1990,1,226,508,Active,,,https://www.redfin.com/FL/Boynton-Beach/9807-Pavarotti-Ter-33437/unit-104/home/42194302,Beaches MLS,RX-10940400,N,Y,26.5309662,-80.1347896
MLS Listing,,Single Family Residential,14096 Aster Ave,Wellington,FL,33414,770000,5,3.0,Sugar Pond Manor OF Wellington,2452,10001,1993,1,314,,Pre On-Market,December-9-2023 11:00 AM,December-9-2023 03:00 PM,https://www.redfin.com/FL/Wellington/14096-Aster-Ave-33414/home/42491805,Beaches MLS,RX-10940399,N,Y,26.6684519,-80.2722575
MLS Listing,,Condo/Co-op,203 Sheffield I,West Palm Beach,FL,33417,134900,1,1.5,Century Village - Sheffield Condos A TO Q,684,,1971,1,197,451,Active,,,https://www.redfin.com/FL/West-Palm-Beach/203-Sheffield-I-33417/home/42154000,Beaches MLS,RX-10940398,N,Y,26.7199486,-80.1259625
MLS Listing,,Single Family Residential,6366 Crown Island Cv,West Palm Beach,FL,33411,650000,5,3.0,Hamilton Bay,2696,9714,2003,1,241,310,Active,,,https://www.redfin.com/FL/West-Palm-Beach/6366-Crown-Island-Cv-33411/home/42566245,Beaches MLS,RX-10940397,N,Y,26.733365,-80.1408739
MLS Listing,,Mobile/Manufactured Home,7313 44th Trl N,West Palm Beach,FL,33404,60000,2,2.0,Palm Lake Estates,800,8712,1979,1,75,875,Active,,,https://www.redfin.com/FL/West-Palm-Beach/7313-44th-Trl-N-33404/home/42131604,MCRTC,M20042208,N,Y,26.7846188,-80.1065101
MLS Listing,,Condo/Co-op,5150 N Ocean Dr #1001,Singer Island,FL,33404,2950000,3,3.5,Via Delfino,3483,,2003,1,847,2181,Pre On-Market,,,https://www.redfin.com/FL/Riviera-Beach/5150-N-Ocean-Dr-33404/unit-1001/home/42583203,Beaches MLS,RX-10940389,N,Y,26.8030486,-80.033387
MLS Listing,,Condo/Co-op,4500 N Flagler Dr Unit C21,West Palm Beach,FL,33401,195000,1,1.0,Regency Surf & Racquet Club Condo,600,365,1980,1,325,635,Active,,,https://www.redfin.com/FL/West-Palm-Beach/4500-N-Flagler-Dr-33407/unit-C21/home/42512839,Beaches MLS,RX-10940388,N,Y,26.7522479,-80.051877
MLS Listing,,Single Family Residential,6600 Capistrano Beach Trl,Delray Beach,FL,33446,750000,3,2.5,Valencia Palms,2327,,2006,1,322,757,Active,,,https://www.redfin.com/FL/Delray-Beach/6600-Capistrano-Beach-Trl-33446/home/42601741,Beaches MLS,F10410342,N,Y,26.4742644,-80.1488549
MLS Listing,,Single Family Residential,6156 Wildfire Way,West Palm Beach,FL,33415,639900,4,2.5,Ranchette Royale,2078,5515,2019,1,308,200,Active,,,https://www.redfin.com/FL/West-Palm-Beach/6156-Wildfire-Way-33415/home/168024561,Beaches MLS,F10411903,N,Y,26.6590746,-80.1382134
MLS Listing,,Single Family Residential,497 W Rambling Dr,Wellington,FL,33414,899000,4,2.0,Palm Beach Little Ranches 2,1838,89298,2003,1,489,,Pre On-Market,,,https://www.redfin.com/FL/Wellington/497-W-Rambling-Dr-33414/home/42496215,Beaches MLS,RX-10940386,N,Y,26.6733589,-80.2337215
MLS Listing,,Condo/Co-op,9810 Pineapple Tree Dr #103,Boynton Beach,FL,33436,275000,2,2.0,Bent Tree Gardens West,1008,,1982,1,273,416,Active,,,https://www.redfin.com/FL/Boynton-Beach/9810-Pineapple-Tree-Dr-33436/unit-103/home/42201721,Beaches MLS,RX-10940383,N,Y,26.529785,-80.118654
MLS Listing,,Single Family Residential,4593 Meadow Green Trl,Lake Worth,FL,33463,849000,3,3.5,Meadowgreen Trail,2343,8275,2023,1,362,,Active,,,https://www.redfin.com/FL/Lake-Worth/4593-Meadow-Green-Trl-33463/home/42177930,Beaches MLS,RX-10940381,N,Y,26.5929189,-80.116059
MLS Listing,,Single Family Residential,2209 Soundings Ct,Greenacres,FL,33413,525000,3,2.0,River Bridge Pud 2B,1458,6556,1998,1,360,350,Active,,,https://www.redfin.com/FL/Greenacres/2209-Soundings-Ct-33413/home/42385725,Beaches MLS,RX-10940380,N,Y,26.644175,-80.1512973
MLS Listing,,Condo/Co-op,550 Okeechobee Blvd #511,West Palm Beach,FL,33401,1128000,2,2.0,Cityplace South Tower Condo,1694,,2008,1,666,1320,Active,,,https://www.redfin.com/FL/West-Palm-Beach/550-Okeechobee-Blvd-33401/unit-511/home/42665610,Beaches MLS,RX-10940378,N,Y,26.7051244,-80.0561991
MLS Listing,,Condo/Co-op,2640 Lake Shore Dr #2509,Riviera Beach,FL,33404,775000,2,2.0,Marina Grande Riviera Beach Condo,1591,,2006,1,487,1343,Active,,,https://www.redfin.com/FL/Riviera-Beach/2640-Lake-Shore-Dr-33404/unit-2509/home/42658194,Beaches MLS,RX-10940372,N,Y,26.784161,-80.0483841
MLS Listing,,Single Family Residential,148 Cove Rd,Greenacres,FL,33413,665000,4,3.5,River Bridge Pud 3B,2082,10873,1994,1,319,365,Active,,,https://www.redfin.com/FL/Greenacres/148-Cove-Rd-33413/home/42375754,Beaches MLS,RX-10940371,N,Y,26.637544,-80.151005
MLS Listing,,Condo/Co-op,9748 Pavarotti Ter #103,Boynton Beach,FL,33437,320000,2,2.0,Sun Valley East,1498,,1992,1,214,492,Active,,,https://www.redfin.com/FL/Boynton-Beach/9748-Pavarotti-Ter-33437/unit-103/home/42195192,Beaches MLS,RX-10940369,N,Y,26.5326762,-80.1342767
MLS Listing,,Condo/Co-op,409 Brighton J,Boca Raton,FL,33434,145000,1,1.5,Brighton AT Century Village Condo,720,,1979,1,201,470,Active,,,https://www.redfin.com/FL/Boca-Raton/409-Brighton-J-33434/home/42244319,Beaches MLS,RX-10940368,N,Y,26.3837578,-80.1834477
MLS Listing,,Condo/Co-op,3450 S Ocean Blvd #902,Highland Beach,FL,33487,1350000,2,2.0,Casuarina Condo,1852,118698,1986,1,729,1586,Active,,,https://www.redfin.com/FL/Highland-Beach/3450-S-Ocean-Blvd-33487/unit-902/home/42397331,Beaches MLS,RX-10940366,N,Y,26.4133804,-80.0654975
MLS Listing,,Single Family Residential,7151 Demedici Cir,Delray Beach,FL,33446,725000,2,2.0,Vizcaya 3,2057,5282,2001,1,352,480,Active,,,https://www.redfin.com/FL/Delray-Beach/7151-Demedici-Cir-33446/home/42548217,Beaches MLS,RX-10939285,N,Y,26.4425201,-80.1588336
MLS Listing,,Condo/Co-op,1801 S Flagler Dr #511,West Palm Beach,FL,33401,765000,2,1.5,Rapallo South Condo,1075,,1973,1,712,735,Active,,,https://www.redfin.com/FL/West-Palm-Beach/1801-S-Flagler-Dr-33401/unit-511/home/42520664,Beaches MLS,RX-10940364,N,Y,26.6974042,-80.0507418
MLS Listing,,Condo/Co-op,869 Via Cabana Unit 4-C,Boca Raton,FL,33432,1399000,3,2.0,Atlantic Cloisters,2275,,1974,1,615,872,Active,,,https://www.redfin.com/FL/Boca-Raton/869-Via-Cabana-33432/unit-4C/home/42328921,Beaches MLS,RX-10940360,N,Y,26.3315245,-80.0756022
MLS Listing,,Condo/Co-op,1660 S Highway A1a #362,Jupiter,FL,33477,2375000,2,2.5,Jupiter BY The Sea Condo,2200,,1996,1,1080,1622,Pre On-Market,,,https://www.redfin.com/FL/Jupiter/1660-S-Highway-A1A-33477/unit-362/home/42407333,Beaches MLS,RX-10940355,N,Y,26.9177531,-80.0657544
MLS Listing,,Single Family Residential,6850 Finamore Cir,Lake Worth,FL,33467,899900,5,3.0,Journeys End,3064,10890,2001,1,294,360,Pre On-Market,,,https://www.redfin.com/FL/Lake-Worth/6850-Finamore-Cir-33467/home/42530188,Beaches MLS,RX-10940354,N,Y,26.5795072,-80.1560721
MLS Listing,,Single Family Residential,23 Teach Rd,Palm Beach Gardens,FL,33410,6995000,5,5.0,Pirates Cove,4583,9978,2024,1,1526,,Active,,,https://www.redfin.com/FL/Palm-Beach-Gardens/23-Teach-Rd-33410/home/42278063,Beaches MLS,RX-10940352,N,Y,26.8432464,-80.0681412
MLS Listing,,Condo/Co-op,11289 Aspen Glen Dr #102,Boynton Beach,FL,33437,295000,2,2.0,Aspen Glen Condo Indian Spring,1419,,1982,1,208,630,Active,,,https://www.redfin.com/FL/Boynton-Beach/11289-Aspen-Glen-Dr-33437/unit-102/home/188811679,Beaches MLS,RX-10940346,N,Y,26.511396,-80.144239
MLS Listing,,Single Family Residential,459 Yvonne Dr,West Palm Beach,FL,33406,485000,3,2.0,Ranch House Ests IN,1860,,1973,1,261,,Active,,,https://www.redfin.com/FL/West-Palm-Beach/459-Yvonne-Dr-33406/home/42281229,Beaches MLS,RX-10940335,N,Y,26.6696703,-80.077261
MLS Listing,,Condo/Co-op,21 Royal Palm Way #405,Boca Raton,FL,33432,375000,2,2.0,Boca Bayou,1095,,1980,1,342,590,Active,,,https://www.redfin.com/FL/Boca-Raton/21-Royal-Palm-Way-33432/unit-405/home/185587792,Beaches MLS,RX-10940332,N,Y,26.3266638,-80.0939651
MLS Listing,,Condo/Co-op,291 Seville M Unit M,Delray Beach,FL,33446,139000,1,1.5,Kings Point,726,,1973,1,191,690,Active,,,https://www.redfin.com/FL/Delray-Beach/291-Seville-L-33446/unit-M/home/188811588,Beaches MLS,F10412105,N,Y,26.4473483,-80.1473045
MLS Listing,,Single Family Residential,3259 Belleville Rd,West Palm Beach,FL,33417,395000,2,2.0,Cypress Lakes PL 9,1512,,1988,1,261,320,Active,,,https://www.redfin.com/FL/West-Palm-Beach/3259-Belleville-Rd-33417/home/42134393,Beaches MLS,RX-10940329,N,Y,26.7252548,-80.1250847
MLS Listing,,Condo/Co-op,17138 Waterbend Dr #217,Jupiter,FL,33477,749900,2,2.0,Waterbend AT Jonathans Landing Condo,1522,90,1982,1,493,1129,Active,,,https://www.redfin.com/FL/Jupiter/17138-Waterbend-Dr-33477/unit-217/home/42274533,Beaches MLS,RX-10940328,N,Y,26.927535,-80.090584
MLS Listing,,Townhouse,2300 Treasure Isle Dr Unit A76,Palm Beach Gardens,FL,33410,1250000,3,2.5,Mariners Cove,1642,,1988,1,761,1100,Active,,,https://www.redfin.com/FL/West-Palm-Beach/2300-Treasure-Isle-Dr-33410/unit-A76/home/42274035,Beaches MLS,F10412090,N,Y,26.8714155,-80.0680512
MLS Listing,,Condo/Co-op,842 Salem Ln,Lake Worth,FL,33467,235000,2,2.0,Covered Bridge Condo,941,,1983,1,250,386,Active,,,https://www.redfin.com/FL/Lake-Worth/842-Salem-Ln-33467/home/42627267,Beaches MLS,RX-10940326,N,Y,26.6206074,-80.1643429
MLS Listing,,Single Family Residential,6860 Calle Del Paz,Boca Raton,FL,33433,849900,3,2.5,Terra Tranquila,1895,7500,1976,1,448,42,Pre On-Market,,,https://www.redfin.com/FL/Boca-Raton/6860-Calle-del-Paz-S-33433/home/42262165,Beaches MLS,F10408589,N,Y,26.340957,-80.1511215
MLS Listing,,Condo/Co-op,1500 Presidential Way #706,West Palm Beach,FL,33401,250000,2,2.0,Common Laundry; Elevator; Lobby; Sidewalks; Trash Chute,1194,,1972,1,209,628,Active,,,https://www.redfin.com/FL/West-Palm-Beach/1500-Presidential-Way-33401/unit-706/home/42521893,Beaches MLS,RX-10940322,N,Y,26.7279501,-80.0833931
MLS Listing,,Condo/Co-op,180 NE 4th Ave #403,Delray Beach,FL,33483,675000,1,1.0,Ocean City Lofts Condo,977,,2005,1,691,371,Pre On-Market,,,https://www.redfin.com/FL/Delray-Beach/180-NE-4th-Ave-33483/unit-403/home/42601548,Beaches MLS,RX-10940321,N,Y,26.4645585,-80.0693389
MLS Listing,,Condo/Co-op,123 Fanshaw C,Boca Raton,FL,33434,200000,2,1.5,Fanshaw AT Century Village Condo,835,,1979,1,240,280,Active,,,https://www.redfin.com/FL/Boca-Raton/123-Fanshaw-C-33434/home/42244754,Beaches MLS,RX-10940320,N,Y,26.3845989,-80.1747395
MLS Listing,,Single Family Residential,10567 Hollow Bay Ter,West Palm Beach,FL,33412,2720000,4,4.5,Ibis Golf And Country Club,3960,13992,2005,1,687,675,Active,,,https://www.redfin.com/FL/West-Palm-Beach/10567-Hollow-Bay-Ter-33412/home/42654270,Beaches MLS,RX-10940318,N,Y,26.7798176,-80.2069456
MLS Listing,,Condo/Co-op,2421 Tuscany Way,Boynton Beach,FL,33435,409000,2,2.0,Tuscany ON The Intracoastal Condo,1030,,2002,1,397,860,Active,,,https://www.redfin.com/FL/Boynton-Beach/2421-Tuscany-Way-33435/home/42580732,Beaches MLS,RX-10937098,N,Y,26.508021,-80.058289
MLS Listing,,Townhouse,7731 Pine Island Way,West Palm Beach,FL,33411,485000,2,2.0,Riverwalk 12,1680,4983,2000,1,289,486,Active,,,https://www.redfin.com/FL/West-Palm-Beach/7731-Pine-Island-Way-33411/home/42539614,Beaches MLS,RX-10940317,N,Y,26.7162315,-80.1635282
MLS Listing,,Single Family Residential,6944 Kevin Way,Lake Worth,FL,33467,769000,5,3.0,Journeys End 1,2875,11761,2000,1,267,400,Pre On-Market,,,https://www.redfin.com/FL/Lake-Worth/6944-Kevin-Way-33467/home/42528208,Beaches MLS,RX-10940316,N,Y,26.5809425,-80.154415
MLS Listing,,Single Family Residential,102 Dalena Way,Palm Beach Gardens,FL,33418,1849000,4,4.0,Mirasol,3173,,2006,1,583,820,Active,,,https://www.redfin.com/FL/Palm-Beach-Gardens/102-Dalena-Way-33418/home/42597419,Beaches MLS,RX-10939433,N,Y,26.8519243,-80.1352437
MLS Listing,,Single Family Residential,10399 Canoe Brook Cir,Boca Raton,FL,33498,749000,3,2.0,Boca Greens,1816,9999,1990,1,412,260,Active,,,https://www.redfin.com/FL/Boca-Raton/10399-Canoe-Brook-Cir-33498/home/42115631,Beaches MLS,RX-10940314,N,Y,26.3917458,-80.209081
MLS Listing,,Townhouse,9840 Chestnut Tree Ter Unit B,Boynton Beach,FL,33436,349000,2,2.0,Bent Tree Villas,1400,,1981,1,249,635,Active,,,https://www.redfin.com/FL/Boynton-Beach/9840-Chestnut-Tree-Ter-33436/unit-B/home/42201594,Beaches MLS,RX-10940212,N,Y,26.5303334,-80.1122583
MLS Listing,,Condo/Co-op,725 Lori Dr #306,Palm Springs,FL,33461,89000,1,1.5,Lakeside Village,775,,1974,1,115,495,Active,,,https://www.redfin.com/FL/Palm-Springs/725-Lori-Dr-33461/unit-306/home/42488483,Beaches MLS,RX-10939866,N,Y,26.6472022,-80.0939342
MLS Listing,,Condo/Co-op,116 Sherwood Cir Unit 7c,Jupiter,FL,33458,339000,2,2.5,Townhomes Cond Decl Filed 6-30-82,1284,,1982,1,264,316,Active,,,https://www.redfin.com/FL/Jupiter/116-Sherwood-Cir-33458/unit-7C/home/42398228,Beaches MLS,RX-10939839,N,Y,26.9199382,-80.1273525
MLS Listing,,Condo/Co-op,9905 Pineapple Tree Dr #206,Boynton Beach,FL,33436,255000,2,2.0,Bent Tree Gardens West Condo,1008,,1981,1,253,416,Active,,,https://www.redfin.com/FL/Boynton-Beach/9905-Pineapple-Tree-Dr-33436/unit-206/home/42200719,Beaches MLS,RX-10935507,N,Y,26.529757,-80.1187099
MLS Listing,,Condo/Co-op,9 Garden St Unit 206j,Tequesta,FL,33469,285000,2,2.0,Tequesta Garden Condo 4,920,,1970,1,310,450,Active,,,https://www.redfin.com/FL/Tequesta/9-Garden-St-33469/unit-206J/home/42470014,Beaches MLS,RX-10937050,N,Y,26.9621877,-80.0973579
MLS Listing,,Single Family Residential,3015 Parker Ave,West Palm Beach,FL,33405,429000,4,2.0,Mackle Park,1520,,1950,1,282,,Active,,,https://www.redfin.com/FL/West-Palm-Beach/3015-Parker-Ave-33405/home/42521141,Beaches MLS,RX-10939125,N,Y,26.6861644,-80.0629439
MLS Listing,,Single Family Residential,921 10th St,West Palm Beach,FL,33401,332000,3,2.0,Freshwater Lakes,1350,4439,2002,1,246,,Active,,,https://www.redfin.com/FL/West-Palm-Beach/921-10th-St-33401/home/42515517,Beaches MLS,RX-10939502,N,Y,26.7229271,-80.0614057
MLS Listing,,Condo/Co-op,2031 Shoma Dr,Royal Palm Beach,FL,33414,321990,3,2.0,Shoma Courtyards II AT Royal Palm Condom,1457,,2003,2,221,478,Active,,,https://www.redfin.com/FL/Royal-Palm-Beach/2031-Shoma-Dr-33414/home/42577913,Beaches MLS,RX-10940310,N,Y,26.6735772,-80.2050703
MLS Listing,,Townhouse,776 Dakota Dr #103,Jupiter,FL,33458,575000,3,2.5,Somerset AT Abacoa Condo,1716,,2004,2,335,550,Pre On-Market,,,https://www.redfin.com/FL/Jupiter/776-Dakota-Dr-33458/unit-103/home/42669921,Beaches MLS,RX-10940307,N,Y,26.9051029,-80.1087142
MLS Listing,,Condo/Co-op,314 Burgundy G,Delray Beach,FL,33484,199000,2,2.0,Kings Point Burgundy Condos,907,,1979,2,219,563,Active,,,https://www.redfin.com/FL/Delray-Beach/314-Burgundy-G-33484/home/42234687,Beaches MLS,RX-10940304,N,Y,26.445271,-80.131475
MLS Listing,,Condo/Co-op,1755 Village Blvd #108,West Palm Beach,FL,33409,209900,1,1.0,Milano Condo,688,,1994,2,305,390,Active,,,https://www.redfin.com/FL/West-Palm-Beach/1755-Village-Blvd-33409/unit-108/home/42587510,Beaches MLS,RX-10940300,N,Y,26.7294548,-80.1015905
MLS Listing,,Single Family Residential,328 Palm Trl,Delray Beach,FL,33483,5350000,4,4.0,Palm Trail,3613,12612,1947,2,1481,,Active,,,https://www.redfin.com/FL/Delray-Beach/328-Palm-Trl-33483/home/42360769,Beaches MLS,F10411740,N,Y,26.468316,-80.0643626
MLS Listing,,Condo/Co-op,5121 Oak Hill Ln #426,Delray Beach,FL,33484,375000,3,2.0,Boca Delray,1597,,1984,2,235,900,Active,,,https://www.redfin.com/FL/Delray-Beach/5121-Oak-Hill-Ln-33484/unit-426/home/42231569,Beaches MLS,RX-10940294,N,Y,26.427657,-80.12384
MLS Listing,,Single Family Residential,16325 75th Pl N,The Acreage,FL,33470,675000,4,2.0,Loxahatchee,2093,50094,1996,2,323,,Active,,,https://www.redfin.com/FL/Loxahatchee/16325-75th-Pl-N-33470/home/42093064,Beaches MLS,RX-10940288,N,Y,26.7876833,-80.3000041
MLS Listing,,Single Family Residential,9185 Solstice Cir,Parkland,FL,33076,965000,3,2.0,BRUSCHI PROPERTY,2184,6875,2018,2,442,431,Active,,,https://www.redfin.com/FL/Parkland/9185-Solstice-Cir-33076/home/56677741,MARMLS,A11494091,N,Y,26.3464426,-80.2831989
MLS Listing,,Single Family Residential,221 Saratoga Blvd E,Royal Palm Beach,FL,33411,549000,3,2.0,Saratoga AT Royal Palm 5,1696,6081,1997,2,324,130,Active,,,https://www.redfin.com/FL/Royal-Palm-Beach/221-Saratoga-Blvd-E-33411/home/42487731,Beaches MLS,RX-10940286,N,Y,26.7232105,-80.2327063
MLS Listing,,Condo/Co-op,4200 N Ocean Dr Unit 2-303,Riviera Beach,FL,33404,575000,2,2.0,COTE D AZUR CONDO BLDG 01-02,1210,,1974,2,475,1066,Active,,,https://www.redfin.com/FL/Riviera-Beach/4200-N-Ocean-Dr-33404/unit-2-303/home/42464338,Stellar MLS as Distributed by MLS Grid,O6154121,N,Y,26.796987,-80.0327022
MLS Listing,,Single Family Residential,1524 NW 4th St,Boca Raton,FL,33486,825000,3,2.0,Country Club Village Sec,1890,9168,1961,2,437,,Active,,,https://www.redfin.com/FL/Boca-Raton/1524-NW-4th-St-33486/home/42310362,Beaches MLS,F10412170,N,Y,26.3541979,-80.1163593
MLS Listing,,Condo/Co-op,312 Southwind Dr #202,North Palm Beach,FL,33408,285000,2,1.5,Southwind Landings Condo,842,,1972,2,338,400,Active,,,https://www.redfin.com/FL/North-Palm-Beach/312-Southwind-Dr-33408/unit-202/home/42658482,Beaches MLS,RX-10940282,N,Y,26.8087297,-80.0644717
MLS Listing,,Single Family Residential,4644 Canopy Grove Dr,Westlake,FL,33470,774999,4,4.0,Groves OF Westlake,2770,8699,2021,2,280,165,Active,,,https://www.redfin.com/FL/Loxahatchee/4644-Canopy-Grove-Dr-33470/home/178036435,Beaches MLS,RX-10940281,N,Y,26.7461906,-80.2917761
MLS Listing,,Townhouse,2237 White Pine Cir Unit A,Greenacres,FL,33415,330000,3,2.5,Pines 1,1392,1225,1981,2,237,284,Active,,,https://www.redfin.com/FL/Greenacres/2237-White-Pine-Cir-33415/unit-A/home/42379698,Beaches MLS,RX-10940280,N,Y,26.6460347,-80.1434035
MLS Listing,,Single Family Residential,7680 Ardwick Dr,Lake Worth,FL,33467,575000,3,2.0,Lake Charleston,1878,12501,1993,2,306,158,Active,,,https://www.redfin.com/FL/Lake-Worth/7680-Ardwick-Dr-33467/home/42182134,Beaches MLS,RX-10940278,N,Y,26.564711,-80.165875
MLS Listing,,Single Family Residential,1171 Bimini Ln,Riviera Beach,FL,33404,1450000,4,2.0,Palm Beach Isles,1819,,1961,2,797,23,Active,,,https://www.redfin.com/FL/Riviera-Beach/1171-Bimini-Ln-33404/home/42461819,Beaches MLS,RX-10940279,N,Y,26.7922427,-80.038669
MLS Listing,,Single Family Residential,304 Alicante Dr,Juno Beach,FL,33408,2999000,3,4.0,Alicante,2241,,1989,2,1338,318,Active,,,https://www.redfin.com/FL/Juno-Beach/304-Alicante-Dr-33408/home/42643423,Beaches MLS,RX-10940277,N,Y,26.8712577,-80.0508817
MLS Listing,,Condo/Co-op,10631 Ocean Palm Way #101,Boynton Beach,FL,33437,355000,3,2.0,Palm Chase Condo,1330,,1985,2,267,636,Pre On-Market,,,https://www.redfin.com/FL/Boynton-Beach/10631-Ocean-Palm-Way-33437/unit-101/home/42201965,Beaches MLS,RX-10940273,N,Y,26.5187247,-80.1292173
MLS Listing,,Single Family Residential,1045 Shady Lakes Cir S,Palm Beach Gardens,FL,33418,879000,3,2.0,Shady Lakes,2198,11195,1984,2,400,70,Active,,,https://www.redfin.com/FL/Palm-Beach-Gardens/1045-Shady-Lakes-Cir-33418/home/42442863,Beaches MLS,RX-10940266,N,Y,26.842551,-80.1156831
MLS Listing,,Condo/Co-op,15072 Ashland Pl #112,Delray Beach,FL,33484,200000,2,2.0,Ashland D Condo,1100,,1985,2,182,710,Pre On-Market,,,https://www.redfin.com/FL/Delray-Beach/15072-Ashland-Pl-33484/unit-112/home/42236782,Beaches MLS,RX-10940265,N,Y,26.4511929,-80.1379416
MLS Listing,,Condo/Co-op,148 Yacht Club Dr #13,North Palm Beach,FL,33408,205000,2,1.5,Corinthian Condominium Apts,930,,1964,2,220,700,Active,,,https://www.redfin.com/FL/North-Palm-Beach/148-Yacht-Club-Dr-33408/unit-13/home/42651251,Beaches MLS,RX-10940264,N,Y,26.8259755,-80.0595871
MLS Listing,,Townhouse,462 Ocean Ridge Way,Juno Beach,FL,33408,1195000,3,2.5,Ocean Ridge,1928,,2005,2,620,525,Active,,,https://www.redfin.com/FL/Juno-Beach/462-Ocean-Ridge-Way-33408/home/42564763,Beaches MLS,RX-10940258,N,Y,26.8800183,-80.0544806
MLS Listing,,Condo/Co-op,19945 Boca West Dr #3142,Boca Raton,FL,33434,349000,2,2.0,Brookwood,1400,,1980,2,249,790,Active,,,https://www.redfin.com/FL/Boca-Raton/19945-Boca-West-Dr-33434/unit-3142/home/42246395,Beaches MLS,RX-10940257,N,Y,26.3810266,-80.1635287
MLS Listing,,Single Family Residential,460 Jupiter Ln,Juno Beach,FL,33408,1799950,2,2.0,Juno Beach 1st Add,1923,9222,1976,2,936,,Active,,,https://www.redfin.com/FL/Juno-Beach/460-Jupiter-Ln-33408/home/42392105,Beaches MLS,RX-10940251,N,Y,26.8721318,-80.0543437
MLS Listing,,Single Family Residential,20220 Ocean Key Dr,Boca Raton,FL,33498,1300000,5,3.0,Boca Isles South Ph 5e,2900,9415,1996,2,448,395,Pre On-Market,,,https://www.redfin.com/FL/Boca-Raton/20220-Ocean-Key-Dr-33498/home/42131020,Beaches MLS,F10411959,N,Y,26.3774094,-80.2183193
MLS Listing,,Single Family Residential,12761 Tulipwood Cir,Boca Raton,FL,33428,895000,4,2.5,Boca Winds,2407,,1994,2,372,124,Active,,,https://www.redfin.com/FL/Boca-Raton/12761-Tulipwood-Cir-33428/home/42120560,Beaches MLS,RX-10940246,N,Y,26.3480078,-80.2479231
MLS Listing,,Condo/Co-op,2769 S Garden Dr #304,Lake Worth,FL,33461,69000,1,1.5,Lake Clarke Gardens Condo 26,894,,1971,2,77,831,Active,,,https://www.redfin.com/FL/Lake-Worth/2769-Garden-Dr-S-33461/unit-304/home/42289203,Beaches MLS,RX-10940241,N,Y,26.6335122,-80.0845279
MLS Listing,,Single Family Residential,11372 Ohanu Cir,Boynton Beach,FL,33437,975000,3,2.5,VALENCIA ISLES 2,2327,16899,2000,2,419,255,Active,,,https://www.redfin.com/FL/Boynton-Beach/11372-Ohanu-Cir-33437/home/42530785,MARMLS,A11494840,N,Y,26.5074293,-80.1587539
MLS Listing,,Condo/Co-op,5857 Sugar Palm Ct Unit B,Delray Beach,FL,33484,350000,2,2.0,Palm Greens Condo 2,1381,,1980,2,253,461,Active,,,https://www.redfin.com/FL/Delray-Beach/5857-Sugar-Palm-Ct-33484/unit-B/home/42211504,Beaches MLS,RX-10940238,N,Y,26.4827311,-80.1341988
MLS Listing,,Vacant Land,6285 S Military Trl,Lake Worth,FL,33463,4500000,,,,,241758,,2,,,Active,,,https://www.redfin.com/FL/Lake-Worth/6285-S-Military-Trl-33463/home/42186062,Beaches MLS,RX-10940236,N,Y,26.5838129,-80.1140907
MLS Listing,,Condo/Co-op,772 Nantucket Cir Unit B,Lake Worth,FL,33467,335000,2,2.0,Covered Bridge Condo,1088,,1983,2,308,431,Active,,,https://www.redfin.com/FL/Lake-Worth/772-Nantucket-Cir-33467/unit-B/home/42627087,Beaches MLS,RX-10940234,N,Y,26.6247361,-80.1600753
MLS Listing,,Single Family Residential,6788 Green Island Cir,Lake Worth,FL,33463,498500,3,2.0,Winston Trails,1478,,1997,2,337,315,Active,,,https://www.redfin.com/FL/Lake-Worth/6788-Green-Island-Cir-33463/home/42181842,Beaches MLS,RX-10940229,N,Y,26.5760073,-80.1335436
MLS Listing,,Single Family Residential,8548 Grand Prix Ln,Boynton Beach,FL,33472,1325000,4,4.5,Palm Meadows Estates,3252,6726,2016,2,407,512,Active,,,https://www.redfin.com/FL/Boynton-Beach/8548-Grand-Prix-Ln-33472/home/112959929,Beaches MLS,RX-10938588,N,Y,26.5404179,-80.1839538
MLS Listing,,Condo/Co-op,1800 S Ocean Blvd Unit 7-D,Boca Raton,FL,33432,2750000,3,2.5,Placide,1959,,1979,2,1404,2556,Active,,,https://www.redfin.com/FL/Boca-Raton/1800-S-Ocean-Blvd-33432/unit-7D/home/104360597,Beaches MLS,RX-10940224,N,Y,26.3293155,-80.0738347
MLS Listing,,Single Family Residential,6250 Olivewood Cir,Greenacres,FL,33463,344322,2,2.0,Buttonwood East,1622,4565,1979,2,212,277,Active,,,https://www.redfin.com/FL/Greenacres/6250-Olivewood-Cir-33463/home/42376436,Beaches MLS,RX-10940222,N,Y,26.6301037,-80.1404814
MLS Listing,,Single Family Residential,3757 NW 7th Ct,Delray Beach,FL,33445,725000,4,2.0,Sunflower Delray,1888,7501,1979,2,384,,Active,,,https://www.redfin.com/FL/Delray-Beach/3757-NW-7th-Ct-33445/home/42355423,Beaches MLS,RX-10940219,N,Y,26.4737637,-80.1073541
MLS Listing,,Single Family Residential,330 Cascade Ln,Palm Beach Shores,FL,33404,1050000,3,2.0,PALM BEACH SHORES,1152,8159,1955,2,911,,Active,,,https://www.redfin.com/FL/Palm-Beach-Shores/330-Cascade-Ln-33404/home/42457721,MARMLS,A11494695,N,Y,26.7789358,-80.0385022
MLS Listing,,Single Family Residential,10500 Galleria St,Wellington,FL,33414,599000,4,3.0,Black Diamond,2376,5685,2004,2,252,345,Active,,,https://www.redfin.com/FL/Wellington/10500-Galleria-St-33414/home/42561614,Beaches MLS,F10412139,N,Y,26.6624861,-80.212284
MLS Listing,,Single Family Residential,218 SW 5th Ave,Delray Beach,FL,33444,299900,3,1.0,Delray Town,720,8370,1931,2,417,,Active,,,https://www.redfin.com/FL/Delray-Beach/218-SW-5th-Ave-33444/home/42359273,Beaches MLS,F10412070,N,Y,26.4573055,-80.0783195
MLS Listing,,Single Family Residential,4509 Betelnut St,Boca Raton,FL,33428,624900,4,2.0,Holiday City,1455,,1977,2,429,33,Active,,,https://www.redfin.com/FL/Boca-Raton/4509-Betelnut-St-33428/home/42128853,Beaches MLS,RX-10940218,N,Y,26.3447792,-80.2121097
MLS Listing,,Condo/Co-op,302 Tuscany F,Delray Beach,FL,33446,104900,1,1.5,Kings Point Tuscany Condos,720,,1973,2,146,553,Active,,,https://www.redfin.com/FL/Delray-Beach/302-Tuscany-F-33446/home/42226721,Beaches MLS,RX-10940217,N,Y,26.448051,-80.153636
MLS Listing,,Townhouse,2804 Florida Blvd,Delray Beach,FL,33483,2495000,4,4.5,Delray Isles Townhomes,2911,,2025,2,857,1563,Active,,,https://www.redfin.com/FL/Delray-Beach/2804-Florida-Blvd-33483/home/188809576,MARMLS,A11491442,N,Y,26.4292619,-80.0704383
MLS Listing,,Single Family Residential,8602 Shoreacres St,Boca Raton,FL,33434,2249000,6,5.5,Boca Raton Golf Course Pud,4193,8098,2023,2,536,679,Active,,,https://www.redfin.com/FL/Boca-Raton/8602-Shoreacres-St-33434/home/188809520,Beaches MLS,RX-10940206,N,Y,26.3767301,-80.1818832
MLS Listing,,Single Family Residential,106 Esperanza Way,Palm Beach Gardens,FL,33418,1899000,3,3.0,Mirasol,2490,,2007,2,763,823,Pre On-Market,,,https://www.redfin.com/FL/Palm-Beach-Gardens/106-Esperanza-Way-33418/home/42548947,Beaches MLS,RX-10940205,N,Y,26.8432189,-80.1572246
MLS Listing,,Condo/Co-op,2000 S Highway A1a #502,Jupiter,FL,33477,1249000,2,2.0,Ocean Club Jupiter Condo,1340,141504,1994,2,932,1690,Active,,,https://www.redfin.com/FL/Jupiter/2000-S-Highway-A1A-33477/unit-502/home/42413781,Beaches MLS,RX-10940201,N,Y,26.914518,-80.0653011
MLS Listing,,Condo/Co-op,117 Preston C,Boca Raton,FL,33434,192500,2,1.5,Preston AT Century Village Condo,840,,1981,2,229,588,Active,,,https://www.redfin.com/FL/Boca-Raton/117-Preston-C-33434/home/42631782,Beaches MLS,RX-10940198,N,Y,26.3913894,-80.1778213
MLS Listing,,Townhouse,717 Inlet Waters Cir,Jupiter,FL,33477,2430000,3,2.5,Inlet Waters Condo,2021,,2020,2,1202,1119,Pre On-Market,,,https://www.redfin.com/FL/Jupiter/717-Inlet-Waters-Cir-33477/home/178065028,Beaches MLS,RX-10940193,N,Y,26.940244,-80.079391
MLS Listing,,Condo/Co-op,750 NE Spanish River Blvd #403,Boca Raton,FL,33431,425000,2,2.0,Boca House Condo,1056,,1979,2,402,722,Pre On-Market,,,https://www.redfin.com/FL/Boca-Raton/750-NE-Spanish-River-Blvd-33431/unit-403/home/104376377,Beaches MLS,RX-10940194,N,Y,26.3858167,-80.0732673
MLS Listing,,Single Family Residential,8067 Stirrup Cay Ct,Boynton Beach,FL,33436,629900,3,2.5,Nautica 1,2009,6541,1996,2,314,146,Pre On-Market,,,https://www.redfin.com/FL/Boynton-Beach/8067-Stirrup-Cay-Ct-33436/home/42327660,Beaches MLS,RX-10940191,N,Y,26.5515873,-80.1096842
MLS Listing,,Condo/Co-op,2545 S Ocean Blvd #3150,Palm Beach,FL,33480,850000,2,2.0,Palm Beach Whitehouse Condo,972,,1970,2,874,725,Active,,,https://www.redfin.com/FL/Palm-Beach/2545-S-Ocean-Blvd-33480/unit-3150/home/42437461,Beaches MLS,RX-10940188,N,Y,26.6277254,-80.0381261
MLS Listing,,Condo/Co-op,1700 Embassy Dr #402,West Palm Beach,FL,33401,310000,3,2.5,Embassy Park Condo,1572,,1979,2,197,636,Active,,,https://www.redfin.com/FL/West-Palm-Beach/1700-Embassy-Dr-33401/unit-402/home/42521960,Beaches MLS,RX-10940187,N,Y,26.7280265,-80.0802961
MLS Listing,,Multi-Family (2-4 Unit),4062 Park Ln,West Palm Beach,FL,33406,629000,4,2.0,GREENBRIER,1742,,1976,2,361,,Active,,,https://www.redfin.com/FL/West-Palm-Beach/4062-Park-Ln-33406/home/42160229,MARMLS,A11494793,N,Y,26.636349,-80.10562
MLS Listing,,Townhouse,243 Coral Trace Ln,Delray Beach,FL,33445,475000,3,2.0,Coral Trace,1576,5445,2002,2,301,330,Active,,,https://www.redfin.com/FL/Delray-Beach/243-Coral-Trace-Ln-33445/home/42537231,Beaches MLS,RX-10939624,N,Y,26.4665697,-80.0984514
MLS Listing,,Single Family Residential,1090 Highland Rd,Lantana,FL,33462,395000,3,2.0,Ridge Grove IN,1229,,2022,2,321,,Active,,,https://www.redfin.com/FL/Lantana/1090-Highland-Rd-33462/home/42290173,Beaches MLS,RX-10940179,N,Y,26.5588796,-80.0600627
MLS Listing,,Single Family Residential,4679 Dolphin Dr,,FL,33463,525000,3,2.0,Biltmore Terrace,1457,9750,1976,2,360,,Active,,,https://www.redfin.com/FL/Lake-Worth/4679-Dolphin-Dr-33463/home/42186457,Beaches MLS,F10411712,N,Y,26.5633282,-80.1173216
MLS Listing,,Single Family Residential,12259 Congressional Ave,Boynton Beach,FL,33437,479900,3,2.0,Lakeridge Greens AT Pipers Glen,1964,5175,1997,2,244,425,Active,,,https://www.redfin.com/FL/Boynton-Beach/12259-Congressional-Ave-33437/home/42213217,Beaches MLS,RX-10940176,N,Y,26.4928348,-80.1515188
MLS Listing,,Single Family Residential,36991 3rd St,Canal Point,FL,33438,155000,2,2.0,Acreage & Unrec,989,9860,1926,2,157,,Active,,,https://www.redfin.com/FL/Canal-Point/36991-3rd-St-33438/home/42090716,Beaches MLS,RX-10940174,N,Y,26.8654024,-80.6288976
MLS Listing,,Condo/Co-op,921 Ortega Rd,West Palm Beach,FL,33405,1950000,8,5.0,Willa Park,3884,11552,1925,2,502,,Active,,,https://www.redfin.com/FL/West-Palm-Beach/921-Ortega-Rd-33405/home/42526168,Beaches MLS,RX-10940173,N,Y,26.6900911,-80.0634792
MLS Listing,,Condo/Co-op,9845 Pineapple Tree Dr #108,Boynton Beach,FL,33436,268000,2,2.0,Bent Tree Gardens West Condo,1008,,1981,2,266,416,Active,,,https://www.redfin.com/FL/Boynton-Beach/9845-Pineapple-Tree-Dr-33436/unit-108/home/42201231,Beaches MLS,RX-10940166,N,Y,26.5303533,-80.1188473
MLS Listing,,Condo/Co-op,1915 Lavers Cir Unit E303,Delray Beach,FL,33444,475000,2,2.0,Lakeside,1249,,1984,2,380,455,Active,,,https://www.redfin.com/FL/Delray-Beach/1915-Lavers-Cir-33444/unit-E303/home/42577973,Beaches MLS,RX-10940167,N,Y,26.4373114,-80.0828694
MLS Listing,,Condo/Co-op,5460 N Ocean Dr Unit 8a,Riviera Beach,FL,33404,1140000,2,2.0,Seagrape Condo,1424,,1973,2,801,1361,Active,,,https://www.redfin.com/FL/Riviera-Beach/5460-N-Ocean-Dr-33404/unit-8A/home/42455418,Beaches MLS,RX-10940165,N,Y,26.8106104,-80.0348672
MLS Listing,,Single Family Residential,994 Walnut Ter,Boca Raton,FL,33486,1950900,3,2.0,Camino Gardens Sec 03,2116,,1968,2,922,58,Active,,,https://www.redfin.com/FL/Boca-Raton/994-Walnut-Ter-33486/home/42324927,Beaches MLS,RX-10940164,N,Y,26.3411642,-80.1034914
MLS Listing,,Condo/Co-op,4471 Luxemburg Ct #306,Lake Worth,FL,33467,225000,2,2.0,Fountains OF Palm Beach Condo 3,1005,,1983,2,224,604,Active,,,https://www.redfin.com/FL/Lake-Worth/4471-Luxemburg-Ct-33467/unit-306/home/42170044,Beaches MLS,RX-10940163,N,Y,26.6081178,-80.1553962
MLS Listing,,Condo/Co-op,5420 N Ocean Dr #706,Singer Island,FL,33404,625000,2,2.0,Connemara,1457,,1979,2,429,1250,Active,,,https://www.redfin.com/FL/Riviera-Beach/5420-N-Ocean-Dr-33404/unit-706/home/42463761,Beaches MLS,RX-10940162,N,Y,26.8095173,-80.0346735
MLS Listing,,Townhouse,2068 Guadeloupe Dr,Wellington,FL,33414,515000,2,2.0,Villagewalk OF Wellington PL 2,1526,4892,2003,2,337,524,Active,,,https://www.redfin.com/FL/Wellington/2068-Guadeloupe-Dr-33414/home/42655238,Beaches MLS,RX-10940157,N,Y,26.649821,-80.177285
MLS Listing,,Single Family Residential,17173 Bermuda Village Dr,Boca Raton,FL,33487,770000,2,2.5,Greens AT Boca Golf And Tennis Club Palm Aire East,1821,4840,1994,2,423,400,Active,,,https://www.redfin.com/FL/Boca-Raton/17173-Bermuda-Village-Dr-33487/home/42294680,Beaches MLS,RX-10940153,N,Y,26.4222507,-80.1006984
MLS Listing,,Condo/Co-op,1801 N Flagler Dr #403,West Palm Beach,FL,33407,449950,2,2.0,FLAGLER POINTE CONDO,1071,,2001,2,420,639,Active,,,https://www.redfin.com/FL/West-Palm-Beach/1801-N-Flagler-Dr-33407/unit-403/home/42591324,MARMLS,A11494750,N,Y,26.7293708,-80.0504798
MLS Listing,,Townhouse,505 Ocean Dunes Cir,Jupiter,FL,33477,619000,2,2.5,Villas OF Ocean Dunes,1431,1324,1987,2,433,798,Active,,,https://www.redfin.com/FL/Jupiter/505-Ocean-Dunes-Cir-33477/home/42412259,Beaches MLS,RX-10939689,N,Y,26.894236,-80.0625079
MLS Listing,,Condo/Co-op,108 Via De Casas Norte,Boynton Beach,FL,33426,269000,2,2.0,Tradewinds AT Dos Lagos Condo,998,,1988,2,270,614,Active,,,https://www.redfin.com/FL/Boynton-Beach/108-Via-de-Casas-Norte-33426/home/42334520,Beaches MLS,RX-10939531,N,Y,26.5567375,-80.0900485
MLS Listing,,Townhouse,1552 Montauk Dr,Wellington,FL,33414,300000,3,2.0,South Shore 3 OF Wellington,1432,5536,1979,2,209,,Active,,,https://www.redfin.com/FL/Wellington/1552-Montauk-Dr-33414/home/42495520,Beaches MLS,RX-10939279,N,Y,26.6590652,-80.2411738
MLS Listing,,Single Family Residential,6813 Pradera Dr,Boca Raton,FL,33433,650000,2,2.0,Pradera PH 2,1553,6550,1984,2,419,310,Active,,,https://www.redfin.com/FL/Boca-Raton/6813-Pradera-Dr-33433/home/42256844,Beaches MLS,RX-10939756,N,Y,26.3608203,-80.1505976
MLS Listing,,Single Family Residential,6828 Alden Ridge Dr,Boynton Beach,FL,33437,565000,4,2.5,Strathmore Estates AT Boynton Beach,2598,5225,1989,2,217,215,Active,,,https://www.redfin.com/FL/Boynton-Beach/6828-Alden-Ridge-Dr-33437/home/42197356,Beaches MLS,RX-10939346,N,Y,26.530344,-80.1524309
MLS Listing,,Single Family Residential,10088 Calabrese Trl #9,Jupiter,FL,33478,3300000,5,4.5,Reynolds Ranch,5274,68563,2020,2,626,695,Active,,,https://www.redfin.com/FL/Jupiter/10088-Calabrese-TRL-Unknown/unit-9/home/163709169,Beaches MLS,RX-10937600,N,Y,26.915404,-80.196358
MLS Listing,,Condo/Co-op,11246 Riverwood Pl,North Palm Beach,FL,33408,799000,3,2.0,Twelve Oaks Condo,2203,,1983,2,363,1045,Active,,,https://www.redfin.com/FL/North-Palm-Beach/11246-Riverwood-Pl-33408/home/42471982,Beaches MLS,RX-10939825,N,Y,26.842127,-80.059732
MLS Listing,,Single Family Residential,1030 Pine Point Rd,Singer Island,FL,33404,12998000,5,6.5,Pine Point,4753,10660,2017,2,2735,15,Active,,,https://www.redfin.com/FL/Riviera-Beach/1030-Pine-Point-Rd-33404/home/42456984,Beaches MLS,RX-10939465,N,Y,26.7974277,-80.0413147
MLS Listing,,Condo/Co-op,1345 Crystal Way Unit A,Delray Beach,FL,33444,339000,2,2.0,Bahia AT Delray Condo,948,,1989,2,358,664,Active,,,https://www.redfin.com/FL/Delray-Beach/1345-Crystal-Way-33444/unit-A/home/42604321,Beaches MLS,RX-10939617,N,Y,26.4307298,-80.0879319
MLS Listing,,Single Family Residential,127 Pegasus Dr,Jupiter,FL,33477,3250000,4,3.5,Olympus,2510,11448,1982,3,1295,125,Pre On-Market,,,https://www.redfin.com/FL/Jupiter/127-Pegasus-Dr-33477/home/42405758,Beaches MLS,RX-10940147,N,Y,26.9176818,-80.0691643
MLS Listing,,Condo/Co-op,6037 Pointe Regal Cir #308,Delray Beach,FL,33484,279000,2,2.0,Huntington Pointe,1392,,1992,3,200,767,Active,,,https://www.redfin.com/FL/Delray-Beach/6037-Pointe-Regal-Cir-33484/unit-308/home/42218448,Beaches MLS,RX-10940146,N,Y,26.4638074,-80.1437742
MLS Listing,,Condo/Co-op,4545 N Ocean Blvd Unit 2c,Boca Raton,FL,33431,890000,2,2.5,Admirals Walk Tower Condo,2035,,1974,3,437,1500,Active,,,https://www.redfin.com/FL/Boca-Raton/4545-N-Ocean-Blvd-33431/unit-2C/home/42317345,Beaches MLS,RX-10940141,N,Y,26.3905047,-80.0675329
MLS Listing,,Townhouse,2643 Dudley Dr W Unit A,West Palm Beach,FL,33415,159900,1,1.5,Cresthaven Villas Condo 27,662,,1973,3,242,313,Active,,,https://www.redfin.com/FL/West-Palm-Beach/2643-Dudley-Dr-W-33415/unit-A/home/42165407,Beaches MLS,RX-10940140,N,Y,26.6387288,-80.1278045
MLS Listing,,Single Family Residential,11076 Malaysia Cir,Boynton Beach,FL,33437,1049000,4,2.5,Valencia Isles 2,2868,7972,2000,3,366,766,Active,,,https://www.redfin.com/FL/Boynton-Beach/11076-Malaysia-Cir-33437/home/42532202,Beaches MLS,RX-10940138,N,Y,26.509623,-80.1568032
MLS Listing,,Townhouse,2641 Gately Dr W #1002,West Palm Beach,FL,33415,279000,3,2.5,Arbours OF The Palm Beaches Condo,1303,,1987,3,214,424,Pre On-Market,,,https://www.redfin.com/FL/West-Palm-Beach/2641-Gately-Dr-W-33415/unit-1002/home/42162821,Beaches MLS,RX-10940143,N,Y,26.6390749,-80.1361024
MLS Listing,,Townhouse,2107 21st Ln,Greenacres,FL,33463,375000,3,3.0,Lake Worth Town OF,1488,,1982,3,252,377,Active,,,https://www.redfin.com/FL/Greenacres/2107-21st-Ln-33463/home/42386352,Beaches MLS,RX-10940135,N,Y,26.614163,-80.139032
MLS Listing,,Single Family Residential,17564 90th St N,Loxahatchee,FL,33470,1100000,3,2.0,Loxahatchee,2463,50965,2004,3,447,,Active,,,https://www.redfin.com/FL/Loxahatchee/17564-90th-St-N-33470/home/42091313,Beaches MLS,RX-10940133,N,Y,26.8103887,-80.3203967
MLS Listing,,Vacant Land,1000 N Dixie Hwy,Boca Raton,FL,33432,450000,,,Pearl City,,4890,,3,,,Active,,,https://www.redfin.com/FL/Boca-Raton/1000-Dixie-Hwy-33432/home/188802587,Beaches MLS,RX-10940132,N,Y,26.3598022,-80.0859899
MLS Listing,,Condo/Co-op,3401 Spanish Trl Unit 149-G,Delray Beach,FL,33483,278500,2,2.0,Tropic Harbor,1085,18104,1970,3,257,725,Active,,,https://www.redfin.com/FL/Delray-Beach/3401-Spanish-Trl-33483/unit-149-G/home/104361612,Beaches MLS,RX-10940121,N,Y,26.4235394,-80.0698627
MLS Listing,,Single Family Residential,702 SW 27th Ter,Boynton Beach,FL,33435,1098000,3,2.0,Forest Hills,1415,9216,1958,3,776,,Active,,,https://www.redfin.com/FL/Boynton-Beach/702-SW-27th-Ter-33435/home/42347885,Beaches MLS,RX-10940120,N,Y,26.5009624,-80.073682
MLS Listing,,Single Family Residential,20905 Sedgewick Dr,Boca Raton,FL,33433,195000,2,2.0,Boca Lakes,908,,1979,3,215,450,Active,,,https://www.redfin.com/FL/Boca-Raton/20905-Sedgewick-Dr-33433/home/42636606,Beaches MLS,F10411910,N,Y,26.3657754,-80.1857659
MLS Listing,,Single Family Residential,14754 85th Rd N,The Acreage,FL,33470,504000,3,2.0,Acreage & Unrec,1325,57064,1999,3,380,,Active,,,https://www.redfin.com/FL/Loxahatchee/14754-85th-Rd-N-33470/home/42106915,Beaches MLS,RX-10940119,N,Y,26.8033278,-80.2737499
MLS Listing,,Single Family Residential,516 Lancaster St,Boca Raton,FL,33487,535000,4,2.0,Delray Mnr,1172,7000,1958,3,456,,Active,,,https://www.redfin.com/FL/Boca-Raton/516-Lancaster-St-33487/home/42311042,Beaches MLS,F10412068,N,Y,26.3998388,-80.0769239
MLS Listing,,Multi-Family (2-4 Unit),130 S Ocean Breeze,Lake Worth,FL,33460,1499999,8,4.5,Lake Worth Town,4120,,1925,3,364,,Active,,,https://www.redfin.com/FL/Lake-Worth/130-S-Ocean-Breeze-33460/home/42418122,Beaches MLS,F10411746,N,Y,26.6134079,-80.051353
MLS Listing,,Single Family Residential,23427 Shetland Run,Boca Raton,FL,33433,450000,2,2.0,Country Park At Boca Rato,1352,6197,1984,3,333,108,Active,,,https://www.redfin.com/FL/Boca-Raton/23427-Shetland-Run-33433/home/42267023,Beaches MLS,F10412067,N,Y,26.329197,-80.1766736
MLS Listing,,Condo/Co-op,10128 Meridian Way #4,Palm Beach Gardens,FL,33410,190000,1,1.0,Meridian Condo 1,768,,1965,3,247,505,Active,,,https://www.redfin.com/FL/Palm-Beach-Gardens/10128-Meridian-Way-N-33410/unit-4/home/42451504,Beaches MLS,RX-10940115,N,Y,26.8246977,-80.0816692
MLS Listing,,Condo/Co-op,3100 N Ocean Dr #1202,Riviera Beach,FL,33404,3750000,2,2.5,Amrit Ocean Resort & Residences,2525,294496,2023,3,1485,3419,Active,,,https://www.redfin.com/FL/Riviera-Beach/3100-N-Ocean-Dr-33404/unit-1202/home/188802033,Beaches MLS,RX-10940112,N,Y,26.7882209,-80.034608
MLS Listing,,Condo/Co-op,212 N K St #9,Lake Worth Beach,FL,33460,325000,2,1.0,Hovianna Xii Condo,1016,,1980,3,320,232,Active,,,https://www.redfin.com/FL/Lake-Worth/212-N-K-St-33460/unit-9/home/42425457,Beaches MLS,RX-10940111,N,Y,26.6182638,-80.0549604
MLS Listing,,Townhouse,9380 SW 61st Way Unit C,Boca Raton,FL,33428,349900,2,1.5,Chateau On The Knoll,1332,,1980,3,263,410,Active,,,https://www.redfin.com/FL/Boca-Raton/9380-SW-61st-Way-33428/unit-C/home/42271836,Beaches MLS,F10412066,N,Y,26.3399777,-80.1930423
MLS Listing,,Condo/Co-op,14623 Bonaire Blvd #703,Delray Beach,FL,33446,249000,2,2.0,Villages OF Oriole Bonaire,1060,,1979,3,235,502,Active,,,https://www.redfin.com/FL/Delray-Beach/14623-Bonaire-Blvd-33446/unit-703/home/42214954,Beaches MLS,RX-10940110,N,Y,26.4597838,-80.1498626
MLS Listing,,Condo/Co-op,2620 NE 1st Ct #3080,Boynton Beach,FL,33435,145000,1,1.5,Village Royale Greenway Condo,758,,1974,3,191,416,Active,,,https://www.redfin.com/FL/Boynton-Beach/2620-NE-1st-Ct-33435/unit-3080/home/42342705,Beaches MLS,RX-10940108,N,Y,26.5528777,-80.0632276
MLS Listing,,Multi-Family (2-4 Unit),1303 White Pine Dr,Wellington,FL,33414,989000,7,6.5,South Shore 4 OF Wellington,4368,16248,1985,3,226,,Active,,,https://www.redfin.com/FL/Wellington/1303-White-Pine-Dr-33414/home/42489989,Beaches MLS,RX-10940106,N,Y,26.662151,-80.234544
MLS Listing,,Single Family Residential,7188 Trentino Way,Boynton Beach,FL,33472,549900,3,2.0,Ponte Vecchio,1884,5250,2000,3,292,561,Active,,,https://www.redfin.com/FL/Boynton-Beach/7188-Trentino-Way-33472/home/42647364,Beaches MLS,RX-10940104,N,Y,26.5395575,-80.1586884
MLS Listing,,Single Family Residential,614 N 5th St,Lantana,FL,33462,369000,2,1.0,Mantyharju Lantana,1092,67158,1951,3,338,,Active,,,https://www.redfin.com/FL/Lantana/614-N-5th-St-33462/home/42424477,Beaches MLS,RX-10940102,N,Y,26.5890735,-80.0550716
MLS Listing,,Single Family Residential,1810 Gulfstream Way,West Palm Beach,FL,33411,1275000,3,2.0,Breakers West 7,2694,13286,1985,3,473,596,Active,,,https://www.redfin.com/FL/West-Palm-Beach/1810-Gulfstream-Way-33411/home/42151435,Beaches MLS,RX-10940101,N,Y,26.7017622,-80.1991417
MLS Listing,,Condo/Co-op,5016 Rose Hill Dr #2101,Boynton Beach,FL,33437,289000,3,2.0,Banyan Springs,1254,,1995,3,230,702,Active,,,https://www.redfin.com/FL/Boynton-Beach/5016-Rose-Hill-Dr-33437/unit-2101/home/42207576,Beaches MLS,RX-10940098,N,Y,26.5236201,-80.1235453
MLS Listing,,Condo/Co-op,1516 S Lakeside Dr #309,Lake Worth Beach,FL,33460,149000,1,1.0,Palm Lake 1 Condo,658,,1973,3,226,423,Active,,,https://www.redfin.com/FL/Lake-Worth-Beach/1516-S-Lakeside-Dr-33460/unit-309/home/42423262,Beaches MLS,RX-10939541,N,Y,26.5966693,-80.0497881
MLS Listing,,Single Family Residential,5372 Bodega Pl,Delray Beach,FL,33484,575000,3,2.0,Bel Aire,1678,5202,1992,3,343,350,Pre On-Market,,,https://www.redfin.com/FL/Delray-Beach/5372-Bodega-Pl-33484/home/42230985,Beaches MLS,RX-10940096,N,Y,26.4323528,-80.1279555
MLS Listing,,Single Family Residential,4860 Pine Tree Dr,Boynton Beach,FL,33436,895000,3,2.0,Pine Tree Villas,2169,,1981,3,413,333,Active,,,https://www.redfin.com/FL/Boynton-Beach/4860-Pine-Tree-Dr-33436/home/42210410,Beaches MLS,RX-10940097,N,Y,26.5162563,-80.1209444
MLS Listing,,Townhouse,5742 57th Way,West Palm Beach,FL,33409,280000,2,2.5,Village of Sandalwood Lakes South,1236,,1985,3,227,420,Pre On-Market,,,https://www.redfin.com/FL/West-Palm-Beach/5742-57th-Way-33409/home/42670073,Beaches MLS,RX-10940091,N,Y,26.7465414,-80.0950192
MLS Listing,,Single Family Residential,9240 Bracelet Dr,Lake Worth,FL,33467,540000,3,2.0,Tropical Country,1600,10021,1976,3,338,,Pre On-Market,,,https://www.redfin.com/FL/Lake-Worth/9240-Bracelet-Dr-33467/home/42174137,Beaches MLS,RX-10940090,N,Y,26.6064258,-80.1934564
MLS Listing,,Condo/Co-op,2017 S Seacrest Blvd Unit C,Boynton Beach,FL,33435,185000,1,1.5,Squire Hill Condo,891,,1973,3,208,550,Pre On-Market,,,https://www.redfin.com/FL/Boynton-Beach/2017-S-Seacrest-Blvd-33435/unit-C/home/42349422,Beaches MLS,RX-10940088,N,Y,26.5107683,-80.0652138
MLS Listing,,Vacant Land,Xxx Harlowe Ave,Boynton Beach,FL,33436,220000,,,West Boynton 2B,,7324,,3,,,Active,,,https://www.redfin.com/FL/Boynton-Beach/Harlowe-Ave-33436/home/42291437,Beaches MLS,RX-10940085,N,Y,26.537839,-80.101409
MLS Listing,,Vacant Land,0 Harlowe Ave,Boynton Beach,FL,33436,233000,,,West Boynton 2B,,7765,,3,,,Active,,,https://www.redfin.com/FL/Boynton-Beach/Harlowe-Ave-33436/home/42291439,Beaches MLS,RX-10940082,N,Y,26.537846,-80.101173
MLS Listing,,Single Family Residential,17685 Circle Pond Ct,Boca Raton,FL,33496,3899000,5,8.0,Fox Hill Estates OF Boca Raton,6519,13142,2006,3,598,1066,Active,,,https://www.redfin.com/FL/Boca-Raton/17685-Circle-Pond-Ct-33496/home/42541746,Beaches MLS,RX-10940080,N,Y,26.414841,-80.2011492
MLS Listing,,Condo/Co-op,3240 Lake Osborne Dr #209,Lake Worth Beach,FL,33461,115500,1,1.0,Murry Hills Apt Bldg Condo,615,,1979,3,188,426,Active,,,https://www.redfin.com/FL/Lake-Worth-Beach/3240-Lake-Osborne-Dr-33461/unit-209/home/42423623,Beaches MLS,RX-10940081,N,Y,26.6033129,-80.0747427
MLS Listing,,Condo/Co-op,90 South Blvd Unit 1c,Boynton Beach,FL,33435,170000,1,1.0,High Point West Condo,754,,1966,3,225,356,Active,,,https://www.redfin.com/FL/Boynton-Beach/90-South-Blvd-33435/unit-1C/home/42348370,Beaches MLS,RX-10940077,N,Y,26.5120085,-80.0643626
MLS Listing,,Single Family Residential,19674 Oakbrook Ct,Boca Raton,FL,33434,5000000,5,6.5,Oakbrook,7176,19602,1998,3,697,1625,Active,,,https://www.redfin.com/FL/Boca-Raton/19674-Oakbrook-Ct-33434/home/42255459,Beaches MLS,RX-10940072,N,Y,26.3831258,-80.1594733
MLS Listing,,Condo/Co-op,105 Stratford H,West Palm Beach,FL,33417,178500,1,1.5,Stratford Condominium,740,,1970,3,241,462,Active,,,https://www.redfin.com/FL/West-Palm-Beach/105-Stratford-H-33417/home/42141749,Beaches MLS,RX-10940074,N,Y,26.7180335,-80.1243756
MLS Listing,,Single Family Residential,19576 Broad Shore Walk,Loxahatchee,FL,33470,859900,5,5.0,ARDEN PUD POD G NORTH,,7144,2023,3,,282,Active,,,https://www.redfin.com/FL/Loxahatchee/19576-Broad-Shore-Walk-33470/home/184425995,MARMLS,A11493869,N,Y,26.7020285,-80.3524938
MLS Listing,,Condo/Co-op,6962 Briarlake Cir #103,West Palm Beach,FL,33418,338900,2,2.0,Briarwood Condo at Eastpointe,1000,,1982,3,339,703,Active,,,https://www.redfin.com/FL/West-Palm-Beach/6962-Briarlake-Cir-33418/unit-103/home/42148819,Beaches MLS,RX-10940063,N,Y,26.8661431,-80.1416808
MLS Listing,,Condo/Co-op,1610 Presidential Way Unit 303 B,West Palm Beach,FL,33401,334900,3,2.0,Park Place Condo,1638,,2004,3,204,605,Active,,,https://www.redfin.com/FL/West-Palm-Beach/1610-Presidential-Way-33401/unit-303-B/home/188800875,Beaches MLS,RX-10940059,N,Y,26.7269543,-80.0841351
MLS Listing,,Single Family Residential,6933 Castlemaine Ave,Boynton Beach,FL,33437,575000,3,2.0,Cascades,1918,5100,1998,3,300,508,Active,,,https://www.redfin.com/FL/Boynton-Beach/6933-Castlemaine-Ave-33437/home/42625375,Beaches MLS,RX-10940056,N,Y,26.5021547,-80.155606
MLS Listing,,Townhouse,2634 Webb Ave,Delray Beach,FL,33444,525000,3,2.5,Gulfstream Villas AT Heritage Landings,1566,1899,2014,3,335,180,Active,,,https://www.redfin.com/FL/Delray-Beach/2634-Webb-Ave-33444/home/64098656,Beaches MLS,RX-10940055,N,Y,26.4909184,-80.0663858
MLS Listing,,Condo/Co-op,3450 S Ocean Blvd #6150,Palm Beach,FL,33480,675000,2,2.0,Patrician OF Palm Beach Condo,1548,,1971,3,436,956,Active,,,https://www.redfin.com/FL/Palm-Beach/3450-S-Ocean-Blvd-33480/unit-6150/home/42440144,Beaches MLS,RX-10940040,N,Y,26.5948341,-80.037302
MLS Listing,,Condo/Co-op,550 Okeechobee Blvd #1120,West Palm Beach,FL,33401,695000,2,2.0,Cityplace South Tower,1136,,2008,3,612,948,Active,,,https://www.redfin.com/FL/West-Palm-Beach/550-Okeechobee-Blvd-33401/unit-1120/home/42661910,Beaches MLS,RX-10940044,N,Y,26.7051244,-80.0561991
MLS Listing,,Single Family Residential,21 NE 12th St,Delray Beach,FL,33444,4395000,4,3.5,Dell Park,3311,9100,2023,3,1327,,Active,,,https://www.redfin.com/FL/Delray-Beach/21-NE-12th-St-33444/home/42364269,Beaches MLS,RX-10940041,N,Y,26.4776262,-80.0723817
MLS Listing,,Single Family Residential,139 Vintageisle Ln,Palm Beach Gardens,FL,33418,3295000,3,5.0,Ballenisles Country Club,3669,11635,1999,3,898,605,Active,,,https://www.redfin.com/FL/Palm-Beach-Gardens/139-Vintageisle-Ln-33418/home/42456065,Beaches MLS,RX-10940034,N,Y,26.8163079,-80.1282249
MLS Listing,,Single Family Residential,16414 Braeburn Ridge Trl,Delray Beach,FL,33446,1750000,4,4.5,Delray Training Center Pu,4050,10012,2003,3,432,692,Active,,,https://www.redfin.com/FL/Delray-Beach/16414-Braeburn-Ridge-Trl-33446/home/42545526,Beaches MLS,F10407210,N,Y,26.433663,-80.175772
MLS Listing,,Condo/Co-op,64 Canterbury Unit C,West Palm Beach,FL,33417,144900,2,1.5,Canterbury Condos,814,,1973,3,178,530,Active,,,https://www.redfin.com/FL/Haverhill/64-Canterbury-33417/unit-C/home/185397838,Beaches MLS,RX-10940032,N,Y,26.720225,-80.132289
MLS Listing,,Single Family Residential,928 Augusta Pointe Dr,Palm Beach Gardens,FL,33418,1050000,3,3.0,Pga Resort Community OF Augusta AT Eagleton,2218,9296,1994,3,473,505,Pre On-Market,,,https://www.redfin.com/FL/Palm-Beach-Gardens/928-Augusta-Pointe-Dr-33418/home/42446812,Beaches MLS,RX-10940030,N,Y,26.8227356,-80.1413101
MLS Listing,,Multi-Family (2-4 Unit),3779 42nd Ave S,Lake Worth,FL,33461,549900,6,2.0,,1934,,1975,3,284,,Active,,,https://www.redfin.com/FL/Lake-Worth/3779-42nd-Ave-S-33461/home/42087030,Beaches MLS,RX-10940029,N,Y,26.6214659,-80.1087788
MLS Listing,,Single Family Residential,7812 Dorchester Rd,Boynton Beach,FL,33472,640000,3,3.5,Aberdeen/dorchester Estates,2536,,1989,3,252,466,Active,,,https://www.redfin.com/FL/Boynton-Beach/7812-Dorchester-Rd-33472/home/42190566,Beaches MLS,RX-10940027,N,Y,26.5472683,-80.1701174
MLS Listing,,Condo/Co-op,15461 Pembridge Dr #305,Delray Beach,FL,33484,219000,2,2.0,Watersedge H,1348,,1989,3,162,599,Active,,,https://www.redfin.com/FL/Delray-Beach/15461-Pembridge-Dr-33484/unit-305/home/42232047,Beaches MLS,RX-10940028,N,Y,26.4479469,-80.1313521
MLS Listing,,Single Family Residential,3696 Tallulah Rd,Lake Worth,FL,33462,379000,3,2.0,Seminole Manor 1,1092,7864,1959,3,347,,Active,,,https://www.redfin.com/FL/Lake-Worth/3696-Tallulah-Rd-33462/home/42297070,Beaches MLS,RX-10940023,N,Y,26.5865088,-80.1006196
MLS Listing,,Condo/Co-op,5350 Woodland Lakes Dr #111,Palm Beach Gardens,FL,33418,339888,2,2.0,Woodland Lakes,1287,,1978,3,264,799,Active,,,https://www.redfin.com/FL/Palm-Beach-Gardens/5350-Woodland-Lakes-Dr-33418/unit-111/home/42443987,Beaches MLS,RX-10940014,N,Y,26.8361311,-80.1186279
MLS Listing,,Single Family Residential,18489 Symphony Ct,Jupiter,FL,33458,1995000,4,3.5,Symphony at Jupiter,3000,9749,2023,3,665,387,Active,,,https://www.redfin.com/FL/Jupiter/6270-Roebuck-Rd-33458/home/171488890,Beaches MLS,RX-10940011,N,Y,26.948009,-80.1310604
MLS Listing,,Single Family Residential,12060 Watermark Way,Parkland,FL,33076,1475000,4,3.0,Parkland Bay 183-49 B,3529,8100,2020,3,418,629,Pre On-Market,,,https://www.redfin.com/FL/Parkland/12060-Watermark-Way-33076/home/143234109,Beaches MLS,F10412020,N,Y,26.3379657,-80.2876387
MLS Listing,,Single Family Residential,244 Coral Trace Ct #244,Delray Beach,FL,33445,439000,2,2.0,CORAL TRACE,1379,,2001,3,318,229,Active,,,https://www.redfin.com/FL/Delray-Beach/244-Coral-Trace-Ct-33445/unit-244/home/188798789,MARMLS,A11494472,N,Y,26.4676394,-80.0979106
MLS Listing,,Townhouse,2650 Neaton Ct,Wellington,FL,33414,570000,3,2.0,Lakefield OF The Landings,1599,5985,1990,3,356,179,Active,,,https://www.redfin.com/FL/Wellington/2650-Neaton-Ct-33414/home/42499705,Beaches MLS,RX-10940008,N,Y,26.6437615,-80.2880046
MLS Listing,,Townhouse,10103 40th Way S #227,Boynton Beach,FL,33436,250000,2,2.0,Limetree Condo,1238,,1983,3,202,518,Pre On-Market,,,https://www.redfin.com/FL/Boynton-Beach/10103-40th-Way-S-33436/unit-227/home/42203517,Beaches MLS,RX-10940002,N,Y,26.5261356,-80.1116942
MLS Listing,,Condo/Co-op,13638 Via Flora Unit H,Delray Beach,FL,33484,259000,2,2.0,PALM GREENS,1125,,1974,3,230,430,Active,,,https://www.redfin.com/FL/Delray-Beach/13638-Via-Flora-33484/unit-H/home/42210986,MARMLS,A11494301,N,Y,26.473361,-80.131308
MLS Listing,,Single Family Residential,403 S 13th Ct,Lantana,FL,33462,524000,4,2.0,Lantana Heights 8,2066,9161,1968,3,254,,Active,,,https://www.redfin.com/FL/Lantana/403-S-13th-Ct-33462/home/42433450,Beaches MLS,RX-10939993,N,Y,26.5824777,-80.0661861
MLS Listing,,Other,0 NW 1st St,Belle Glade,FL,33430,59900,,,Northmoor Gardens,9148,9148,,3,7,,Active,,,https://www.redfin.com/FL/Belle-Glade/NW-1st-St-33430/home/42302700,Beaches MLS,F10412015,N,Y,26.694368,-80.669159
MLS Listing,,Condo/Co-op,1000 Scotia Dr #405,Hypoluxo,FL,33462,299995,2,1.0,Hypoluxos Mariners Cay Condo,967,,2001,3,310,616,Active,,,https://www.redfin.com/FL/Hypoluxo/1000-Scotia-Dr-33462/unit-405/home/42580889,Beaches MLS,RX-10939988,N,Y,26.5613411,-80.0525755
MLS Listing,,Condo/Co-op,3340 Lucerne Park Dr #3340,Greenacres,FL,33467,220000,2,2.0,Lucerne Park Condos / Park Pointe,1059,,1985,3,208,532,Active,,,https://www.redfin.com/FL/Greenacres/3340-Lucerne-Park-Dr-33467/unit-3340/home/188797506,Beaches MLS,RX-10939982,N,Y,26.631608,-80.147807
MLS Listing,,Townhouse,103 Sabal Palm Ln,Palm Beach Gardens,FL,33418,525000,3,2.0,Pga Resort Community OF Heather Run,1585,2390,1989,3,331,273,Active,,,https://www.redfin.com/FL/Palm-Beach-Gardens/103-Sabal-Palm-Ln-33418/home/42448936,Beaches MLS,RX-10939980,N,Y,26.8190131,-80.1536486
MLS Listing,,Single Family Residential,22155 Candle Ct,Boca Raton,FL,33428,789900,4,2.5,Boca Winds Par A,2269,10273,1987,3,348,126,Active,,,https://www.redfin.com/FL/Boca-Raton/22155-Candle-Ct-33428/home/42119518,Beaches MLS,RX-10939979,N,Y,26.3470319,-80.2389929
MLS Listing,,Townhouse,1602 Silverleaf Oak Ct,Palm Beach Gardens,FL,33410,459900,2,2.0,Sunterrace AT The Oaks,1152,2047,1991,3,399,359,Pre On-Market,,,https://www.redfin.com/FL/Palm-Beach-Gardens/1602-Silverleaf-Oak-Ct-33410/home/42454020,Beaches MLS,RX-10939973,N,Y,26.836489,-80.084103
MLS Listing,,Townhouse,667 NE Trieste Ln,Boca Raton,FL,33487,1200000,4,3.5,Trieste AT Boca,3036,3315,2006,3,395,750,Active,,,https://www.redfin.com/FL/Boca-Raton/667-NE-Trieste-Ln-33487/home/42591292,Beaches MLS,RX-10939972,N,Y,26.4004051,-80.0743726
MLS Listing,,Single Family Residential,11143 Boca Woods Ln,Boca Raton,FL,33428,1100000,3,2.5,Boca Woods Country Club 0,2408,16562,1988,3,457,410,Pre On-Market,,,https://www.redfin.com/FL/Boca-Raton/11143-Boca-Woods-Ln-33428/home/42120844,Beaches MLS,F10411784,N,Y,26.3624244,-80.2141361
MLS Listing,,Single Family Residential,7 Eaton Pl,Boynton Beach,FL,33426,364900,3,2.0,Boynton Lakes PL 2,1290,,1985,3,283,330,Active,,,https://www.redfin.com/FL/Boynton-Beach/7-Eaton-Pl-33426/home/42332311,Beaches MLS,RX-10939970,N,Y,26.5630572,-80.0897866
MLS Listing,,Single Family Residential,1091 W 26th Ct,Riviera Beach,FL,33404,309000,4,2.0,MONROE HEIGHTS,1107,6829,1958,3,279,,Active,,,https://www.redfin.com/FL/Riviera-Beach/1091-W-26th-Ct-33404/home/42468392,Stellar MLS as Distributed by MLS Grid,V4933528,N,Y,26.7840396,-80.0701225
MLS Listing,,Townhouse,5235 Sapphire Vly,Boca Raton,FL,33486,500000,2,2.5,Fairfield at Boca,1499,,1989,3,334,493,Active,,,https://www.redfin.com/FL/Boca-Raton/5235-Sapphire-Vly-33486/home/42581400,Beaches MLS,RX-10939962,N,Y,26.3589514,-80.1245533
MLS Listing,,Single Family Residential,118 Cerulean Key Way,Jupiter,FL,33478,2300000,4,4.0,Sonoma Isles,3831,12523,2020,3,600,590,Pre On-Market,,,https://www.redfin.com/FL/Jupiter/118-Cerulean-Key-Way-33478/home/168139658,Beaches MLS,RX-10939960,N,Y,26.9458725,-80.1644441
MLS Listing,,Townhouse,1835 S Ocean Blvd Unit I,Delray Beach,FL,33483,2149900,3,3.5,Seaside Dunes,1831,,1996,3,1174,850,Active,,,https://www.redfin.com/FL/Delray-Beach/1835-S-Ocean-Blvd-33483/unit-I/home/42375544,Beaches MLS,RX-10939959,N,Y,26.4392718,-80.0621848
MLS Listing,,Single Family Residential,3748 NW 52nd St,Boca Raton,FL,33496,1995000,5,4.0,Devon Place,3900,13502,1990,3,512,300,Active,,,https://www.redfin.com/FL/Boca-Raton/3748-NW-52nd-St-33496/home/42299528,Beaches MLS,RX-10939957,N,Y,26.3948922,-80.1620024
MLS Listing,,Townhouse,1264 George Bush Blvd,Delray Beach,FL,33483,5495000,4,4.5,Sirene Villas,3747,5650,2024,3,1467,1,Active,,,https://www.redfin.com/FL/Delray-Beach/1264-George-Bush-Blvd-33483/home/188797144,Beaches MLS,RX-10939955,N,Y,26.4745673,-80.0574488
MLS Listing,,Condo/Co-op,9818 Marina Blvd #1204,Boca Raton,FL,33428,205000,2,2.0,Sandalfoot South Two Condo,955,,1973,3,215,350,Active,,,https://www.redfin.com/FL/Boca-Raton/9818-Marina-Blvd-33428/unit-1204/home/42268866,Beaches MLS,RX-10939954,N,Y,26.328645,-80.200095
MLS Listing,,Townhouse,1246 George Bush Blvd,Delray Beach,FL,33483,5150000,4,4.5,Sirene Villas- Villa Cannes,4467,3903,2024,3,1153,1,Active,,,https://www.redfin.com/FL/Delray-Beach/1246-George-Bush-Blvd-33483/home/184470377,Beaches MLS,RX-10939953,N,Y,26.4745616,-80.0577933
MLS Listing,,Townhouse,1240 George Bush Blvd,Delray Beach,FL,33483,5150000,4,4.5,Sirene Villas,4467,3903,2024,3,1153,1,Active,,,https://www.redfin.com/FL/Delray-Beach/1240-George-Bush-Blvd-33483/home/179275665,Beaches MLS,RX-10939952,N,Y,26.4745587,-80.0579358
MLS Listing,,Single Family Residential,2760 Appaloosa Trl,Wellington,FL,33414,3950000,4,2.5,Saddle Trail Park OF Wellington,2470,96799,1989,3,1599,,Active,,,https://www.redfin.com/FL/West-Palm-Beach/2760-Appaloosa-Trl-33414/home/42507967,Beaches MLS,RX-10939951,N,Y,26.649349,-80.269604
MLS Listing,,Townhouse,6707 Boca Pines Trl Unit C,Boca Raton,FL,33433,529000,3,2.5,BOCA PINES OF VERDE TRAIL,2184,,1988,3,242,415,Active,,,https://www.redfin.com/FL/Boca-Raton/6707-Boca-Pines-Trl-33433/unit-C/home/42591995,MARMLS,A11494029,N,Y,26.3614273,-80.1489422
MLS Listing,,Townhouse,4510 Apple Tree Cir Unit B,Boynton Beach,FL,33436,365000,2,2.0,Bent Tree Villas West,1400,,1983,3,261,551,Active,,,https://www.redfin.com/FL/Boynton-Beach/4510-Apple-Tree-Cir-33436/unit-B/home/42198807,Beaches MLS,RX-10939950,N,Y,26.52967,-80.115652
MLS Listing,,Condo/Co-op,92 Saxony B,Delray Beach,FL,33446,185000,2,2.0,Kings Point Saxony Condos,902,,1974,3,205,804,Active,,,https://www.redfin.com/FL/Delray-Beach/92-Saxony-B-33446/home/42229804,Beaches MLS,RX-10939948,N,Y,26.4409254,-80.1481455
MLS Listing,,Townhouse,25 Windsor Ln,Boynton Beach,FL,33436,699000,3,2.5,Windsor AT Hunters Condo,2645,,1990,3,264,1438,Active,,,https://www.redfin.com/FL/Boynton-Beach/25-Windsor-Ln-33436/home/182241031,Beaches MLS,RX-10939946,N,Y,26.492477,-80.095514
MLS Listing,,Condo/Co-op,749 Nantucket Cir Unit A,Lake Worth,FL,33467,229000,2,2.0,Covered Bridge Condo,941,,1983,3,243,383,Active,,,https://www.redfin.com/FL/Lake-Worth/749-Nantucket-Cir-33467/unit-A/home/42165554,Beaches MLS,RX-10939944,N,Y,26.6240107,-80.1622003
MLS Listing,,Single Family Residential,134 Cinder Dunes Pt,Jupiter,FL,33478,2500000,6,4.5,SONOMA ISLES,4885,17598,2019,3,512,591,Active,,,https://www.redfin.com/FL/Jupiter/134-Cinder-Dunes-Pt-33478/home/168139733,MARMLS,A11493555,N,Y,26.9449309,-80.1627
MLS Listing,,Townhouse,9835 Loquat Tree Run Unit B,Boynton Beach,FL,33436,317000,2,2.0,Bent Tree Villas East,1400,,1981,3,226,522,Active,,,https://www.redfin.com/FL/Boynton-Beach/9835-Loquat-Tree-Run-33436/unit-B/home/42198890,Beaches MLS,RX-10939941,N,Y,26.5300202,-80.1107095
MLS Listing,,Condo/Co-op,120 Lakeshore Dr #3370,North Palm Beach,FL,33408,879000,3,2.5,Old Port Cove Condo Three,1846,,1974,3,476,1108,Active,,,https://www.redfin.com/FL/North-Palm-Beach/120-Lakeshore-Dr-33408/unit-3370/home/42479954,Beaches MLS,RX-10939939,N,Y,26.8327435,-80.056592
MLS Listing,,Condo/Co-op,6073 Balboa Cir #201,Boca Raton,FL,33433,385000,2,2.0,Whitehall Condo AT Camino Real,1385,,1985,3,278,608,Active,,,https://www.redfin.com/FL/Boca-Raton/6073-Balboa-Cir-33433/unit-201/home/42263921,Beaches MLS,RX-10939937,N,Y,26.345146,-80.141972
MLS Listing,,Condo/Co-op,2886 Fernley Dr E #7,West Palm Beach,FL,33415,190000,1,2.0,Cresthaven Condo Townhomes Sec 1,1014,,1983,3,187,435,Active,,,https://www.redfin.com/FL/West-Palm-Beach/2886-Fernley-Dr-E-33415/unit-7/home/42086678,Beaches MLS,RX-10939933,N,Y,26.6351905,-80.1302802
MLS Listing,,Condo/Co-op,7209 Promenade Dr #801,Boca Raton,FL,33433,899000,3,2.5,Promenade AT Boca Pointe,3270,,1986,3,275,1138,Active,,,https://www.redfin.com/FL/Boca-Raton/7209-Promenade-Dr-33433/unit-801/home/42270437,Beaches MLS,RX-10939931,N,Y,26.3351786,-80.1565169
MLS Listing,,Condo/Co-op,157 Yacht Club Way #101,Hypoluxo,FL,33462,298900,2,1.5,Yacht Club On  Intracoa,982,,1996,3,304,,Active,,,https://www.redfin.com/FL/Hypoluxo/157-Yacht-Club-Way-33462/unit-101/home/42598785,Beaches MLS,F10411981,N,Y,26.5656077,-80.0510038
MLS Listing,,Single Family Residential,223 NE 1st Ave,Delray Beach,FL,33444,2995000,4,3.0,Old School Square Historic Arts District,2497,7362,1937,3,1199,,Active,,,https://www.redfin.com/FL/Delray-Beach/223-NE-1st-Ave-33444/home/42366539,Beaches MLS,RX-10938679,N,Y,26.4662124,-80.0719699
MLS Listing,,Single Family Residential,5782 NW 38th Ter W,Boca Raton,FL,33496,2400000,5,4.5,Regents Square OF Woodfield CC,2970,11280,1994,3,808,825,Active,,,https://www.redfin.com/FL/Boca-Raton/5782-Regency-Cir-W-33496/home/42303385,Beaches MLS,RX-10939925,N,Y,26.3998257,-80.1637247
MLS Listing,,Single Family Residential,2721 Garden Dr N #101,Lake Worth,FL,33461,128900,2,1.0,Lake Clarke Gardens Condo,894,,1970,3,144,694,Active,,,https://www.redfin.com/FL/Lake-Worth/2721-Garden-Dr-N-33461/unit-101/home/42289446,Beaches MLS,RX-10939924,N,Y,26.6350253,-80.0840041
MLS Listing,,Townhouse,2405 Bridgewood Dr #2405,Boca Raton,FL,33434,299500,2,2.5,BRIDGEWOOD TOWNHOUSE COND,1400,,1979,3,214,,Active,,,https://www.redfin.com/FL/Boca-Raton/2405-Bridgewood-Dr-33434/unit-2405/home/179159983,MARMLS,A11494348,N,Y,26.3734569,-80.16408
MLS Listing,,Single Family Residential,602 Monceaux Rd,West Palm Beach,FL,33405,450000,2,1.0,Monceaux,750,5336,1952,3,600,,Active,,,https://www.redfin.com/FL/West-Palm-Beach/602-Monceaux-Rd-33405/home/42530433,Beaches MLS,RX-10939921,N,Y,26.6874877,-80.0571377
MLS Listing,,Single Family Residential,14292 Wellington Trce,Wellington,FL,33414,2300000,7,5.0,Paddock Park 2 OF Wellington,4902,113692,1991,3,469,,Pre On-Market,,,https://www.redfin.com/FL/Wellington/14292-Wellington-Trce-33414/home/42492869,Beaches MLS,RX-10939919,N,Y,26.6594654,-80.274599
MLS Listing,,Condo/Co-op,288 Seabreeze Cir,Jupiter,FL,33477,429000,2,2.5,Sea Brook Place Condo,1250,,1978,3,343,554,Active,,,https://www.redfin.com/FL/Jupiter/288-Seabreeze-Cir-33477/home/42406836,Beaches MLS,RX-10939917,N,Y,26.9256844,-80.074437
MLS Listing,,Condo/Co-op,9292 Vista Del Lago Unit H,Boca Raton,FL,33428,365000,2,2.0,PINES OF BOCA LAGO CONDO,1216,,1980,3,300,615,Active,,,https://www.redfin.com/FL/Boca-Raton/9292-Vista-del-Lago-33428/unit-H/home/42258113,MARMLS,A11494334,N,Y,26.354181,-80.192741
MLS Listing,,Single Family Residential,715 Winters St,West Palm Beach,FL,33405,747000,2,2.0,Forest Ridge Park,1210,5384,1925,3,617,,Active,,,https://www.redfin.com/FL/West-Palm-Beach/715-Winters-St-33405/home/42536137,Beaches MLS,RX-10939911,N,Y,26.6546376,-80.0610648
MLS Listing,,Single Family Residential,5 Glencairn Rd,Palm Beach Gardens,FL,33418,1300000,4,3.5,Pga Resort Community 3,3237,15224,1984,3,402,148,Active,,,https://www.redfin.com/FL/Palm-Beach-Gardens/5-Glencairn-Rd-33418/home/42443664,Beaches MLS,RX-10939904,N,Y,26.8352188,-80.1501414
MLS Listing,,Condo/Co-op,155 E Boca Raton Rd #524,Boca Raton,FL,33432,999000,1,1.0,Tower 155,919,,2020,3,1087,1025,Active,,,https://www.redfin.com/FL/Boca-Raton/155-E-Boca-Raton-Rd-33432/unit-524/home/174488140,Beaches MLS,RX-10939901,N,Y,26.3516359,-80.0844376
MLS Listing,,Single Family Residential,6555 Spring Meadow Dr,Greenacres,FL,33413,499000,4,2.5,Dillman Farms,2023,6730,2001,3,247,185,Active,,,https://www.redfin.com/FL/Greenacres/6555-Spring-Meadow-Dr-33413/home/42542326,Beaches MLS,RX-10939899,N,Y,26.6631721,-80.1504712
MLS Listing,,Condo/Co-op,2001 Marina Isle Way #402,Jupiter,FL,33477,549900,2,2.0,Marina AT The Bluffs Condo,1385,,1986,3,397,535,Active,,,https://www.redfin.com/FL/Jupiter/2001-Marina-Isle-Way-33477/unit-402/home/42413291,Beaches MLS,RX-10939898,N,Y,26.8939588,-80.0736165
MLS Listing,,Condo/Co-op,35 Colonial Club Dr #102,Boynton Beach,FL,33435,255000,1,1.5,Colonial Club Cond Sec NO 1,950,,1974,3,268,642,Active,,,https://www.redfin.com/FL/Boynton-Beach/35-Colonial-Club-Dr-33435/unit-102/home/42347816,Beaches MLS,RX-10939896,N,Y,26.5002349,-80.060019
MLS Listing,,Single Family Residential,6273 Madras Cir,Boynton Beach,FL,33437,525000,4,2.5,Indian Wells,2415,7612,1991,3,217,195,Pre On-Market,December-9-2023 11:00 AM,December-9-2023 02:00 PM,https://www.redfin.com/FL/Boynton-Beach/6273-Madras-Cir-33437/home/42200854,Beaches MLS,RX-10939895,N,Y,26.5190727,-80.1418334
MLS Listing,,Townhouse,121 Heritage Way #121,West Palm Beach,FL,33407,299900,2,2.5,Village Of Sandalwood,1236,,1984,3,243,455,Active,,,https://www.redfin.com/FL/West-Palm-Beach/121-Heritage-Way-33407/unit-121/home/183728793,Beaches MLS,F10411964,N,Y,26.7559447,-80.1009367
MLS Listing,,Townhouse,31 Walcott Dr,Boynton Beach,FL,33426,344900,2,2.0,Boynton Lakes PL 3-b,1051,,1987,3,328,295,Active,,,https://www.redfin.com/FL/Boynton-Beach/31-Walcott-Dr-33426/home/42332476,Beaches MLS,RX-10939889,N,Y,26.5626691,-80.0873319
MLS Listing,,Condo/Co-op,14873 Cumberland Dr Unit K 204,Delray Beach,FL,33446,230000,2,2.0,VILLAGES OF ORIOLE DEAUVI,1044,,1980,3,220,606,Active,,,https://www.redfin.com/FL/Delray-Beach/14873-Cumberland-Dr-33446/unit-K-204/home/188799181,MARMLS,A11494075,N,Y,26.4558278,-80.1553443
MLS Listing,,Condo/Co-op,2059 Guildford D,Boca Raton,FL,33434,184000,2,1.5,Guildford AT Century Village Condo,861,,1980,3,214,455,Active,,,https://www.redfin.com/FL/Boca-Raton/2059-Guildford-D-33434/home/42245511,Beaches MLS,RX-10939888,N,Y,26.386803,-80.175392
MLS Listing,,Condo/Co-op,400 NE 20th St Unit D305,Boca Raton,FL,33431,219900,2,2.0,BOCA VERDE EAST CONDO,1014,,1966,3,217,439,Active,,,https://www.redfin.com/FL/Boca-Raton/400-NE-20th-St-33431/unit-D305/home/42320930,MARMLS,A11493569,N,Y,26.3652821,-80.0811237
MLS Listing,,Condo/Co-op,400 S Ocean Blvd #4240,Palm Beach,FL,33480,4600000,2,2.5,Four Hundred SO Ocean Blvd Condo,1716,90,1965,3,2681,2662,Active,,,https://www.redfin.com/FL/Palm-Beach/400-S-Ocean-Blvd-33480/unit-4240/home/42442288,Beaches MLS,RX-10939884,N,Y,26.7018966,-80.0336692
MLS Listing,,Condo/Co-op,124 Dorchester F,West Palm Beach,FL,33417,124900,1,1.5,Century Village,646,631004,1972,3,193,428,Active,,,https://www.redfin.com/FL/West-Palm-Beach/124-Dorchester-F-33417/home/42140223,Beaches MLS,RX-10939883,N,Y,26.720629,-80.1287718
MLS Listing,,Single Family Residential,5030 Marina Cir,Boca Raton,FL,33486,920000,3,2.5,MARINA DEL MAR ESTATES,2364,7700,1982,3,389,75,Active,,,https://www.redfin.com/FL/Boca-Raton/5030-Marina-Cir-33486/home/42273077,MARMLS,A11493731,N,Y,26.3302302,-80.122058
MLS Listing,,Single Family Residential,16124 Key Biscayne Ln,Westlake,FL,33470,599000,2,2.0,Cresswind Palm Beach,1677,5201,2021,3,357,350,Active,,,https://www.redfin.com/FL/Lox/16124-Key-Biscayne-Ln-33470/home/174329191,Beaches MLS,RX-10939882,N,Y,26.7558485,-80.2963473
MLS Listing,,Condo/Co-op,7595 Cinebar Dr Unit 37-U,Boca Raton,FL,33433,529000,3,2.0,Boca Pointe,1900,,1986,3,278,866,Active,,,https://www.redfin.com/FL/Boca-Raton/7595-Cinebar-Dr-33433/unit-37U/home/42275849,Beaches MLS,RX-10939881,N,Y,26.3346192,-80.1644617
MLS Listing,,Single Family Residential,224 Bahama Ln,Palm Beach,FL,33480,9850000,4,4.0,Bahama Add IN,2989,,1960,3,3295,,Active,,,https://www.redfin.com/FL/Palm-Beach/224-Bahama-Ln-33480/home/42431648,Beaches MLS,RX-10939879,N,Y,26.7460176,-80.0381451
MLS Listing,,Single Family Residential,8914 Agliana Cir,Boynton Beach,FL,33472,569000,3,3.0,Venetian Isles,2342,,2002,3,243,548,Active,,,https://www.redfin.com/FL/Boynton-Beach/8914-Agliana-Cir-33472/home/42550669,Beaches MLS,RX-10939878,N,Y,26.5504006,-80.1832128
MLS Listing,,Townhouse,3255 E Community Dr,Jupiter,FL,33458,765000,3,3.5,Martinique AT Abacoa 1,2310,2901,2005,3,331,317,Active,,,https://www.redfin.com/FL/Jupiter/3255-E-Community-Dr-33458/home/42590878,Beaches MLS,RX-10939877,N,Y,26.902801,-80.125236
MLS Listing,,Townhouse,5017 Vine Cliff Way W,Palm Beach Gardens,FL,33418,640000,3,2.5,Cielo Townhomes AT Shops OF Donald Ross,2204,1465,2006,3,290,265,Active,,,https://www.redfin.com/FL/Palm-Beach-Gardens/5017-Vine-Cliff-Way-W-33418/home/42609700,Beaches MLS,RX-10939873,N,Y,26.880825,-80.107495
MLS Listing,,Single Family Residential,12263 Hillman Cir,Palm Beach Gardens,FL,33410,519000,3,2.0,Palm Beach Cabana Colony 2,1736,8534,1963,3,299,,Active,,,https://www.redfin.com/FL/Palm-Beach-Gardens/12263-Hillman-Cir-33410/home/42277484,Beaches MLS,RX-10938651,N,Y,26.8566577,-80.088652
MLS Listing,,Condo/Co-op,555 NW 4th Ave #1240,Boca Raton,FL,33432,195000,2,2.0,Starlite Condo,1056,,1969,3,185,632,Pre On-Market,,,https://www.redfin.com/FL/Boca-Raton/555-NW-4th-Ave-33432/unit-1240/home/42319951,Beaches MLS,RX-10939865,N,Y,26.3543051,-80.094157
MLS Listing,,Single Family Residential,1012 15th St,West Palm Beach,FL,33401,269900,2,1.0,Freshwater 13th Ave Add,800,6447,1955,3,337,,Active,,,https://www.redfin.com/FL/West-Palm-Beach/1012-15th-St-33401/home/42645242,Beaches MLS,RX-10939856,N,Y,26.7272092,-80.0621789
MLS Listing,,Townhouse,4475 Willow Pond Rd Unit B,West Palm Beach,FL,33417,380000,3,2.5,Lakeside Green 5,1683,2056,1987,3,226,420,Active,,,https://www.redfin.com/FL/West-Palm-Beach/4475-Willow-Pond-Rd-33417/unit-B/home/42139325,Beaches MLS,RX-10939854,N,Y,26.7426896,-80.1121007
MLS Listing,,Single Family Residential,1904 Harding St,Lake Worth,FL,33460,579500,4,2.5,Lake Cove,2181,4382,2019,3,266,110,Active,,,https://www.redfin.com/FL/Lake-Worth-Beach/1904-Harding-St-33460/home/171492732,Beaches MLS,F10411527,N,Y,26.6393138,-80.0674837
MLS Listing,,Single Family Residential,816 SW 1st Ct,Boynton Beach,FL,33426,559900,3,2.0,Lake Boynton Estates 4A,1611,8999,2001,3,348,,Pre On-Market,,,https://www.redfin.com/FL/Boynton-Beach/816-SW-1st-Ct-33426/home/42555576,Beaches MLS,RX-10939849,N,Y,26.5262077,-80.0805781
MLS Listing,,Single Family Residential,18259 Lake Bend Dr,Jupiter,FL,33458,959000,3,2.0,Shores 1,2354,8398,1991,3,407,84,Active,,,https://www.redfin.com/FL/Jupiter/18259-Lake-Bend-Dr-33458/home/42396740,Beaches MLS,RX-10939851,N,Y,26.9447247,-80.135422
MLS Listing,,Condo/Co-op,20290 Fairway Oaks Dr #223,Boca Raton,FL,33434,1300000,3,3.0,Fairway Point Condo,3348,,1994,3,388,2698,Active,,,https://www.redfin.com/FL/Boca-Raton/20290-Fairway-Oaks-Dr-33434/unit-223/home/42246028,Beaches MLS,RX-10939842,N,Y,26.380315,-80.159363
MLS Listing,,Single Family Residential,16802 Rose Apple Dr W,Delray Beach,FL,33445,1125000,3,4.5,Delaire Country Club,3230,,1980,3,348,450,Active,,,https://www.redfin.com/FL/Delray-Beach/16802-Rose-Apple-Dr-33445/home/42354945,Beaches MLS,RX-10939837,N,Y,26.4272751,-80.1196094
MLS Listing,,Condo/Co-op,44 Cocoanut Row Unit B320,Palm Beach,FL,33480,4875000,3,2.0,Palm Beach Towers Condo,1500,,1956,3,3250,2328,Active,,,https://www.redfin.com/FL/Palm-Beach/44-Cocoanut-Row-33480/unit-B-320/home/104343246,Beaches MLS,RX-10939840,N,Y,26.7156289,-80.04297
MLS Listing,,Condo/Co-op,7320 Amberly Ln #210,Delray Beach,FL,33446,279900,2,2.0,Huntington Lakes Sec Four Condos,1220,,1987,3,229,675,Active,,,https://www.redfin.com/FL/Delray-Beach/7320-Amberly-Ln-33446/unit-210/home/42220493,Beaches MLS,RX-10939832,N,Y,26.4614689,-80.1613919
MLS Listing,,Single Family Residential,18393 Coco Plumosus Rd,Jupiter,FL,33458,1099000,3,2.5,Loxahatchee Gardens IN,1414,26153,1960,3,777,,Active,,,https://www.redfin.com/FL/Jupiter/18393-Coco-Plumosus-Rd-33458/home/42127440,Beaches MLS,RX-10939831,N,Y,26.9472324,-80.1199366
MLS Listing,,Condo/Co-op,3901 S Flagler Dr #1004,West Palm Beach,FL,33405,749000,2,2.0,Harbor Towers & Marina Condo,1178,,1986,3,636,1314,Active,,,https://www.redfin.com/FL/West-Palm-Beach/3901-S-Flagler-Dr-33405/unit-1004/home/42521856,Beaches MLS,RX-10939828,N,Y,26.6763608,-80.0492501
MLS Listing,,Condo/Co-op,15 Willowbrook Ln #201,Delray Beach,FL,33446,160000,2,2.0,Villages OF Oriole Abbey Condo,1005,,1979,3,159,548,Active,,,https://www.redfin.com/FL/Delray-Beach/15-Willowbrook-Ln-33446/unit-201/home/42213617,Beaches MLS,RX-10939826,N,Y,26.4572268,-80.1541534
MLS Listing,,Condo/Co-op,1542 Jupiter Cove Dr Unit 604c,Jupiter,FL,33469,1229000,2,2.0,Jupiter Cove Condo,1500,609507,1979,3,819,1359,Active,,,https://www.redfin.com/FL/Jupiter/1542-Jupiter-Cove-Dr-33469/unit-604C/home/42401562,Beaches MLS,RX-10939822,N,Y,26.9485046,-80.0879319
MLS Listing,,Single Family Residential,10925 Fillmore Dr,Boynton Beach,FL,33437,525000,3,2.0,Madison Lakes,1772,5260,1999,3,296,263,Active,,,https://www.redfin.com/FL/Boynton-Beach/10925-Fillmore-Dr-33437/home/42205656,Beaches MLS,F10411703,N,Y,26.5135803,-80.1452805
MLS Listing,,Single Family Residential,16938 Pavilion Way,Delray Beach,FL,33446,2350000,3,3.5,Hyder Agr Pud PL 1,3249,9561,2015,3,723,1035,Active,,,https://www.redfin.com/FL/Delray-Beach/16938-Pavilion-Way-33446/home/62499809,Beaches MLS,RX-10939819,N,Y,26.4249831,-80.189054
MLS Listing,,Single Family Residential,808 Park Pl,West Palm Beach,FL,33401,1650000,3,2.5,Flamingo Park,1791,6260,1925,3,921,,Active,,,https://www.redfin.com/FL/West-Palm-Beach/808-Park-Pl-33401/home/42525323,Beaches MLS,RX-10939820,N,Y,26.69781,-80.0607175
MLS Listing,,Condo/Co-op,2121 N Ocean Blvd Unit 501w,Boca Raton,FL,33431,549000,2,2.0,Boca Towers,1078,,1972,3,509,939,Active,,,https://www.redfin.com/FL/Boca-Raton/2121-N-Ocean-Blvd-33431/unit-501W/home/42320757,Beaches MLS,RX-10939816,N,Y,26.3700983,-80.0695732
MLS Listing,,Condo/Co-op,400 S Ocean Blvd #2230,Palm Beach,FL,33480,5478000,2,2.0,Four Hundred SO Ocean Blvd Condo,1716,180,1965,3,3192,1768,Active,,,https://www.redfin.com/FL/Palm-Beach/400-S-Ocean-Blvd-33480/unit-2230/home/42442759,Beaches MLS,RX-10939813,N,Y,26.7018966,-80.0336692
MLS Listing,,Townhouse,7975 Rockford Rd,Boynton Beach,FL,33472,325000,2,2.0,Aberdeen 18,1720,7540,1998,3,189,583,Active,,,https://www.redfin.com/FL/Boynton-Beach/7975-Rockford-Rd-33472/home/42196766,Beaches MLS,RX-10939812,N,Y,26.5465096,-80.1706495
MLS Listing,,Condo/Co-op,284 Capri F #284,Delray Beach,FL,33484,190000,2,2.0,Kings Point,1023,,1979,3,186,510,Active,,,https://www.redfin.com/FL/Delray-Beach/284-Capri-F-33484/unit-284/home/188785209,Beaches MLS,F10411814,N,Y,26.4430932,-80.1347614
MLS Listing,,Single Family Residential,231 Argyle Rd,West Palm Beach,FL,33405,4345000,4,3.5,Prospect Park South,2882,8315,1947,3,1508,,Active,,,https://www.redfin.com/FL/West-Palm-Beach/231-Argyle-Rd-33405/home/42528977,Beaches MLS,RX-10939806,N,Y,26.6855272,-80.0519796
MLS Listing,,Townhouse,13 Bethesda Park Cir,Boynton Beach,FL,33435,300000,2,2.0,Bethesda Park,1074,,1985,3,279,468,Active,,,https://www.redfin.com/FL/Boynton-Beach/13-Bethesda-Park-Cir-33435/home/188784997,Beaches MLS,RX-10939804,N,Y,26.5088497,-80.0723242
MLS Listing,,Condo/Co-op,1208 Marine Way Unit A-801,North Palm Beach,FL,33408,489000,2,2.0,Old Port Cove Condo One,1118,,1971,3,437,825,Active,,,https://www.redfin.com/FL/North-Palm-Beach/1208-Marine-Way-33408/unit-A-801/home/188785714,Beaches MLS,RX-10939798,N,Y,26.8360407,-80.0585645
MLS Listing,,Condo/Co-op,3250 S Ocean Blvd Unit 508n,Palm Beach,FL,33480,1495000,2,2.0,Dorchester OF Palm Beach,1478,,1979,3,1012,1508,Pre On-Market,,,https://www.redfin.com/FL/Palm-Beach/3250-S-Ocean-Blvd-33480/unit-508N/home/42444736,Beaches MLS,RX-10939796,N,Y,26.6026592,-80.0378612
MLS Listing,,Condo/Co-op,237 Pine Hov Cir Unit A-2,Greenacres,FL,33463,163500,2,1.0,Pine Ridge South II Condo,810,,1982,3,202,292,Active,,,https://www.redfin.com/FL/Greenacres/237-Pine-Hov-Cir-33463/unit-A2/home/42390681,Beaches MLS,RX-10939795,N,Y,26.608704,-80.135313
MLS Listing,,Condo/Co-op,108 NE 20th Ave #205,Boynton Beach,FL,33435,225000,2,2.0,Village Royale Condo 5,872,,1970,3,258,501,Active,,,https://www.redfin.com/FL/Boynton-Beach/108-NE-20th-Ave-33435/unit-205/home/42337797,Beaches MLS,RX-10939794,N,Y,26.547061,-80.064508
MLS Listing,,Single Family Residential,2462 Flamingo Rd,Palm Beach Gardens,FL,33410,4700000,3,2.0,Intracoastal Park,2107,18853,1963,3,2231,,Active,,,https://www.redfin.com/FL/Palm-Beach-Gardens/2462-Flamingo-Rd-33410/home/42278742,Beaches MLS,RX-10939792,N,Y,26.8670957,-80.0707138
MLS Listing,,Single Family Residential,1400 Barlow Ct,Palm Beach Gardens,FL,33410,1450000,3,2.5,Evergrene,2669,12432,2005,3,543,542,Active,,,https://www.redfin.com/FL/Palm-Beach-Gardens/1400-Barlow-Ct-33410/home/42566694,Beaches MLS,RX-10939791,N,Y,26.8755583,-80.1004848
MLS Listing,,Single Family Residential,2006 Normandy Cir,West Palm Beach,FL,33409,469000,3,2.0,Normandy Village,1572,4864,1998,3,298,185,Active,December-9-2023 11:00 AM,December-9-2023 02:00 PM,https://www.redfin.com/FL/West-Palm-Beach/2006-Normandy-Cir-33409/home/42518239,Beaches MLS,F10411856,N,Y,26.7299816,-80.0925359
