SALE TYPE,SOLD DATE,PROPERTY TYPE,ADDRESS,CITY,STATE OR PROVINCE,ZIP OR POSTAL CODE,PRICE,BEDS,BATHS,LOCATION,SQUARE FEET,LOT SIZE,YEAR BUILT,DAYS ON MARKET,$/SQUARE FEET,HOA/MONTH,STATUS,NEXT OPEN HOUSE START TIME,NEXT OPEN HOUSE END TIME,URL (SEE https://www.redfin.com/buy-a-home/comparative-market-analysis FOR INFO ON PRICING),SOURCE,MLS#,FAVORITE,INTERESTED,LATITUDE,LONGITUDE
"In accordance with local MLS rules, some MLS listings are not included in the download"
MLS Listing,,Single Family Residential,509 SW Treasure Cv Cv,Port Saint Lucie,FL,34953,330000,2,2.0,Lake Charles Phase 3C,1439,5888,2002,3,229,279,Active,,,https://www.redfin.com/FL/Port-Saint-Lucie/509-SW-Treasure-Cv-34986/home/140055812,Beaches MLS,RX-10939811,N,Y,27.303158,-80.41103
MLS Listing,,Single Family Residential,2042 SW Capeador St,Port Saint Lucie,FL,34953,415000,3,2.0,Port ST Lucie Section 8,1867,10454,1991,4,222,,Active,,,https://www.redfin.com/FL/Port-Saint-Lucie/2042-SW-Capeador-St-34953/home/64087305,Beaches MLS,RX-10939608,N,Y,27.2806652,-80.389938
MLS Listing,,Single Family Residential,2211 SE Sidonia St,Port Saint Lucie,FL,34952,314000,2,2.0,South Port ST Lucie Unit 5,1388,10000,1982,18,226,,Active,,,https://www.redfin.com/FL/Port-Saint-Lucie/2211-SE-Sidonia-St-34952/home/104346731,Beaches MLS,RX-10936491,N,Y,27.274445,-80.3037696
MLS Listing,,Single Family Residential,10649 Pine Cone Ln,Fort Pierce,FL,34945,829000,3,2.0,Pine Hollow Unit One,2255,43996,1995,20,368,7,Active,,,https://www.redfin.com/FL/Fort-Pierce/10649-Pine-Cone-Ln-34945/home/69444412,Beaches MLS,RX-10935891,N,Y,27.416924,-80.438095
MLS Listing,,Single Family Residential,3408 Menendez Ave,Fort Pierce,FL,34947,409000,3,2.0,Dark Hammock Estates Unit 1,2559,20473,1969,69,160,,Active,,,https://www.redfin.com/FL/Fort-Pierce/3408-Menendez-Ave-34947/home/129516158,Beaches MLS,RX-10920630,N,Y,27.4430162,-80.3618195
MLS Listing,,Single Family Residential,117 NE Sagamore Ter,Port Saint Lucie,FL,34953,539900,3,2.0,Port ST Lucie Section 26,1778,10000,1990,70,304,,Active,,,https://www.redfin.com/FL/Port-Saint-Lucie/117-NE-Sagamore-Ter-34983/home/139829832,Beaches MLS,RX-10922212,N,Y,27.3314211,-80.3507044
MLS Listing,,Single Family Residential,12841 SW Barelli Ct,Port Saint Lucie,FL,34987,773500,3,3.0,Esplanade AT Tradition,3036,9583,2022,74,255,504,Active,,,https://www.redfin.com/FL/Port-Saint-Lucie/12841-SW-Barelli-Ct-34987/home/173781227,Beaches MLS,RX-10921396,N,Y,27.277547,-80.456907
MLS Listing,,Vacant Land,172 SE Rio Angelica,Port Saint Lucie,FL,34984,335000,,,Tesoro Plat NO 4,,9801,,94,,259,Active,,,https://www.redfin.com/FL/Port-Saint-Lucie/172-SE-Rio-Angelica-34984/home/139606273,Beaches MLS,RX-10916246,N,Y,27.233591,-80.339605
MLS Listing,,Townhouse,1755 SW Porta Nuova Ter,Port Saint Lucie,FL,34953,288000,4,3.0,Portofino Court,1597,1830,2007,129,180,189,Active,,,https://www.redfin.com/FL/Port-Saint-Lucie/1755-SW-Porta-Nuova-Ter-34953/home/139895880,Beaches MLS,RX-10907558,N,Y,27.2602627,-80.4036218
MLS Listing,,Single Family Residential,2389 SW Vale St,Port Saint Lucie,FL,34953,430000,3,2.0,Port ST Lucie Section 35,1994,10019,2017,143,216,,Active,,,https://www.redfin.com/FL/Port-Saint-Lucie/2389-SW-Vale-St-34953/home/109068480,Beaches MLS,RX-10904386,N,Y,27.2725525,-80.4207204
MLS Listing,,Condo/Co-op,36 Harbour Isles 104 Dr #104,Fort Pierce,FL,34949,430000,2,2.0,"Harbour Isle AT Hutchinson Island West, A Condominium",1989,1000,2006,179,216,866,Active,,,https://www.redfin.com/FL/Fort-Pierce/36-Harbour-Isle-Dr-W-34949/unit-104/home/104365306,Beaches MLS,RX-10895773,N,Y,27.4615842,-80.3097766
MLS Listing,,Condo/Co-op,10600 S Ocean Dr #307,Jensen Beach,FL,34957,559000,2,2.0,Oceana South Condo II,1023,,1982,1,546,727,Active,,,https://www.redfin.com/FL/Jensen-Beach/10600-S-Ocean-Dr-34957/unit-307/home/108391446,MCRTC,M20042078,N,Y,27.2729943,-80.2049265
MLS Listing,,Single Family Residential,2509 Lightlewood Ln,Fort Pierce,FL,34946,519000,3,2.0,Lightle Subdivision,1734,26572,1987,1,299,,Active,,,https://www.redfin.com/FL/Fort-Pierce/2509-Lightlewood-Ln-34946/home/140390308,Beaches MLS,RX-10940433,N,Y,27.481741,-80.3359761
MLS Listing,,Single Family Residential,107 Camelot Dr,Fort Pierce,FL,34946,199900,4,1.5,Sheraton Plaza Unit 1,1157,10019,1970,1,173,,Active,,,https://www.redfin.com/FL/Fort-Pierce/107-Camelot-Dr-34946/home/139711883,Beaches MLS,RX-10940425,N,Y,27.4708394,-80.3526186
MLS Listing,,Single Family Residential,4313 SW Gagnon Rd,Port Saint Lucie,FL,34953,550000,5,2.5,Port ST Lucie Section 33,2920,,2007,1,188,,Active,,,https://www.redfin.com/FL/Port-Saint-Lucie/4313-SW-Gagnon-Rd-34953/home/104395971,Beaches MLS,RX-10940423,N,Y,27.2161477,-80.3790223
MLS Listing,,Single Family Residential,5203 Melville Rd,Fort Pierce,FL,34982,299000,2,1.0,White City Subdivision,912,12197,1982,1,328,,Active,,,https://www.redfin.com/FL/Fort-Pierce/5203-Melville-Rd-34982/home/139351805,Beaches MLS,RX-10940406,N,Y,27.3710882,-80.3302103
MLS Listing,,Condo/Co-op,3100 Highway A1a Unit Phd6,Fort Pierce,FL,34949,650000,2,2.0,Sands on The Ocean,1623,,1983,1,400,1311,Active,,,https://www.redfin.com/FL/Fort-Pierce/3100-Florida-A1A-34949/unit-Phd6/home/188812228,Beaches MLS,RX-10940403,N,Y,27.4906154,-80.2983863
MLS Listing,,Single Family Residential,3100 Highway A1a Unit PHD 6,Fort Pierce,FL,34949,650000,2,2.0,Sands on the Ocean,1623,,1983,1,400,1311,Active,,,https://www.redfin.com/FL/Fort-Pierce/3100-N-Hwy-A1A-34949/unit-PHD6/home/146521178,RAIRCMLS,273459,N,Y,27.4903363,-80.2992178
MLS Listing,,Single Family Residential,3562 SW Vollmer St,Port Saint Lucie,FL,34953,399000,4,2.0,Port ST Lucie Section 19,1847,10000,2005,1,216,,Active,,,https://www.redfin.com/FL/Port-Saint-Lucie/3562-SW-Vollmer-St-34953/home/133129006,Beaches MLS,RX-10940395,N,Y,27.2377844,-80.3933298
MLS Listing,,Single Family Residential,2150 SW Biella Ave,Port Saint Lucie,FL,34953,375000,3,2.0,Port Saint Lucie,1412,10018,1992,1,266,,Active,,,https://www.redfin.com/FL/Port-Saint-Lucie/2150-SW-Biella-Ave-34953/home/108388176,Beaches MLS,RX-10940393,N,Y,27.2698122,-80.4139388
MLS Listing,,Single Family Residential,4570 SW Log Ct,Port Saint Lucie,FL,34953,455000,3,2.0,Port ST Lucie,1616,24037,1997,1,282,,Active,,,https://www.redfin.com/FL/Port-Saint-Lucie/4570-SW-Log-Ct-34953/home/139532678,Beaches MLS,RX-10940392,N,Y,27.2118455,-80.3384782
MLS Listing,,Single Family Residential,10783 Cremona Way,Port St. Lucie,FL,34987,425000,4,2.0,,1828,8276,2021,1,232,31,Active,,,https://www.redfin.com/FL/Port-Saint-Lucie/10783-SW-Cremona-Way-34987/home/172342736,RAIRCMLS,273467,N,Y,27.2972068,-80.4327173
MLS Listing,,Single Family Residential,2398 SW Lejune St,Port Saint Lucie,FL,34953,489000,3,2.0,Port ST Lucie Section 12,1714,12632,1992,1,285,,Pre On-Market,,,https://www.redfin.com/FL/Port-Saint-Lucie/2398-SW-Lejune-St-34953/home/66141624,Beaches MLS,RX-10940376,N,Y,27.2707134,-80.3841106
MLS Listing,,Condo/Co-op,3880 N Highway A1a #805,Hutchinson Island,FL,34949,750000,3,2.5,Hibiscus BY The Sea Condominium,2151,1000,1999,1,349,1057,Active,,,https://www.redfin.com/FL/Fort-Pierce/3880-Florida-A1A-34949/unit-805/home/171998255,Beaches MLS,RX-10940370,N,Y,27.5051895,-80.3045856
MLS Listing,,Single Family Residential,5122 Montecristo Ter,Fort Pierce,FL,34951,373752,3,2.0,Waterstone,1464,,2023,1,255,182,Active,,,https://www.redfin.com/FL/Fort-Pierce/5122-Montecristo-TER-34951/home/188811765,RAIRCMLS,273466,N,Y,27.5243797,-80.4326521
MLS Listing,,Townhouse,10783 SW West Park Ave,Port Saint Lucie,FL,34987,429000,3,2.5,Tradition 2,2028,4007,2006,1,212,466,Active,,,https://www.redfin.com/FL/Port-Saint-Lucie/10783-SW-West-Park-Ave-34987/home/139878770,MCRTC,M20042212,N,Y,27.2684294,-80.4349233
MLS Listing,,Single Family Residential,2016 NW Laurel Oak Ln,Palm City,FL,34990,639800,3,2.5,Harbour Ridge - Laurel Oak,2466,13429,1988,1,259,3700,Active,,,https://www.redfin.com/FL/Palm-City/2016-NW-Laurel-Oak-Ln-34990/home/91624183,MCRTC,M20042145,N,Y,27.2309752,-80.3089511
MLS Listing,,Single Family Residential,308 N 18th St,Fort Pierce,FL,34950,206900,3,2.0,Alamanda Vista Subdivisio,1304,7250,1947,1,159,,Active,,,https://www.redfin.com/FL/Fort-Pierce/308-N-18th-St-34950/home/139259304,Beaches MLS,RX-10940347,N,Y,27.4495854,-80.3422909
MLS Listing,,Single Family Residential,759 Worlington Ln,Fort Pierce,FL,34947,459900,6,3.0,Bent Creek Tract B-2,2586,6490,2022,1,178,168,Active,,,https://www.redfin.com/FL/Fort-Pierce/759-Worlington-Ln-34947/home/175019302,Beaches MLS,RX-10940345,N,Y,27.443373,-80.374171
MLS Listing,,Single Family Residential,4502 SW Attlee St,Port Saint Lucie,FL,34953,389900,3,2.0,Port St Lucie Sec 33,1460,10624,1996,1,267,,Active,,,https://www.redfin.com/FL/Port-Saint-Lucie/4502-SW-Attlee-St-34953/home/64088973,MCRTC,M20042214,N,Y,27.2132423,-80.3711934
MLS Listing,,Vacant Land,27 Sovereign Way,Hutchinson Island,FL,34949,515000,,,Queen's Cove Unit 2,,16553,,1,,70,Active,,,https://www.redfin.com/FL/Hutchinson-Island/27-Sovereign-Way-34949/home/140595362,Beaches MLS,RX-10940334,N,Y,27.514362,-80.316826
MLS Listing,,Single Family Residential,1433 SE Barker Ln,Port Saint Lucie,FL,34953,379900,4,2.0,Port St Lucie Section 03,2121,,2005,1,179,,Active,,,https://www.redfin.com/FL/Port-St-Lucie/1433-SE-Barker-Ln-34983/home/183055174,Beaches MLS,RX-10940313,N,Y,27.2982806,-80.3336916
MLS Listing,,Single Family Residential,198 SW Glenwood Dr,Port Saint Lucie,FL,34984,397000,3,2.0,Port ST Lucie Section 18,1641,10000,2003,2,242,,Pre On-Market,,,https://www.redfin.com/FL/Port-Saint-Lucie/198-SW-Glenwood-Dr-34984/home/139453183,Beaches MLS,RX-10940308,N,Y,27.2717817,-80.3502258
MLS Listing,,Single Family Residential,12378 Arabella Dr,Port Saint Lucie,FL,34987,429900,4,2.0,Preserve AT Tradition,1908,,2021,2,225,414,Active,,,https://www.redfin.com/FL/Port-Saint-Lucie/12378-SW-Arabella-Dr-34987/home/169759605,Beaches MLS,RX-10940297,N,Y,27.2734404,-80.452882
MLS Listing,,Single Family Residential,196 SW Nina Ct,Port Saint Lucie,FL,34953,549000,5,3.0,Port St Lucie Sec 34,2808,12013,2004,2,196,,Pre On-Market,,,https://www.redfin.com/FL/Port-Saint-Lucie/196-SW-Nina-Ct-34953/home/130981155,MCRTC,M20042210,N,Y,27.2195563,-80.3513134
MLS Listing,,Single Family Residential,3411 Trinity Cir,Fort Pierce,FL,34945,384900,4,2.0,Creekside Plat No. 4,1915,9235,2021,2,201,67,Active,,,https://www.redfin.com/FL/Fort-Pierce/3411-Trinity-Cir-34945/home/173775613,Beaches MLS,RX-10940284,N,Y,27.404827,-80.422517
MLS Listing,,Single Family Residential,1281 SE Sandia Dr,Port Saint Lucie,FL,34983,383000,4,2.0,Port ST Lucie Section 2,2012,10000,2004,2,190,,Pre On-Market,,,https://www.redfin.com/FL/Port-Saint-Lucie/1281-SE-Sandia-Dr-34983/home/133758053,Beaches MLS,RX-10940276,N,Y,27.3019364,-80.3434602
MLS Listing,,Single Family Residential,255 Bermuda Beach Dr,Hutchinson Island,FL,34949,995000,2,2.0,Coral Cove Beach,2102,8800,1974,2,473,,Pre On-Market,,,https://www.redfin.com/FL/Fort-Pierce/255-Bermuda-Beach-Dr-34949/home/132260369,Beaches MLS,RX-10940271,N,Y,27.4871618,-80.3033174
MLS Listing,,Condo/Co-op,13238 Harbour Ridge Blvd Unit 3A,Palm City,FL,34990,225000,2,2.0,Harbour Ridge - Mile Lake Village,1498,,1987,2,150,3953,Active,,,https://www.redfin.com/FL/Palm-City/13238-Harbour-Ridge-Blvd-34990/unit-3A/home/91646574,MCRTC,M20042199,N,Y,27.2226658,-80.3046776
MLS Listing,,Single Family Residential,1218 NW Sun Terrace Cir Unit B,Port Saint Lucie,FL,34986,284900,2,2.0,The Lakes at St. Lucie West,1152,2178,1992,2,247,340,Active,,,https://www.redfin.com/FL/Port-Saint-Lucie/1218-NW-Sun-Terrace-Cir-34986/unit-B/home/132905113,Beaches MLS,RX-10940262,N,Y,27.3210976,-80.3905182
MLS Listing,,Single Family Residential,3545 SE Hyde Cir,Port Saint Lucie,FL,34984,374900,3,2.0,Port Saint Lucie,1635,,1998,2,229,,Active,,,https://www.redfin.com/FL/Port-Saint-Lucie/3545-SE-Hyde-Cir-34984/home/140448760,Beaches MLS,RX-10940237,N,Y,27.240032,-80.3389568
MLS Listing,,Single Family Residential,5006 Sunset Blvd,Fort Pierce,FL,34982,439900,3,2.5,Indian River Estates Unit 7,2016,10000,1980,2,218,,Active,,,https://www.redfin.com/FL/Fort-Pierce/5006-Sunset-Blvd-34982/home/129796204,Beaches MLS,RX-10940223,N,Y,27.3743197,-80.3048361
MLS Listing,,Single Family Residential,4808 Regina Dr,Fort Pierce,FL,34982,369900,3,2.0,Regina Palms,1847,30056,1968,2,200,,Active,,,https://www.redfin.com/FL/Fort-Pierce/4808-Regina-Dr-34982/home/80175519,Beaches MLS,RX-10940209,N,Y,27.3753301,-80.3193304
MLS Listing,,Condo/Co-op,2400 S Ocean Dr #326,Fort Pierce,FL,34949,305000,1,1.5,Ocean Villas I Condominium,689,,1976,2,443,802,Active,,,https://www.redfin.com/FL/Fort-Pierce/2400-S-Ocean-Dr-34949/unit-326/home/188809531,Beaches MLS,RX-10940207,N,Y,27.4414613,-80.2849324
MLS Listing,,Vacant Land,461 NW Sandtrap Ln,Port Saint Lucie,FL,34986,339000,,,Outdoor Resorts At St Lucie West,,3354,,2,,368,Active,,,https://www.redfin.com/FL/Port-Saint-Lucie/461-NW-Sandtrap-Ln-34986/home/140574963,MCRTC,M20042205,N,Y,27.3323504,-80.4042437
MLS Listing,,Condo/Co-op,1904 Havana Ave #16,Fort Pierce,FL,34950,130000,2,1.5,Lawn Wood Add Blk 6 Beg AT NE Cor,1196,,1981,2,109,100,Active,,,https://www.redfin.com/FL/Fort-Pierce/1904-Havana-Ave-34950/unit-16/home/140164944,Beaches MLS,RX-10940192,N,Y,27.439409,-80.3436909
MLS Listing,,Mobile/Manufactured Home,207 Camino Del Rio,Port Saint Lucie,FL,34952,39900,2,2.0,Spanish Lakes Riverfront,1400,,1979,2,29,750,Active,,,https://www.redfin.com/FL/Port-St-Lucie/207-Camino-Del-Rio-34952/home/188808557,Beaches MLS,RX-10940182,N,Y,27.3165377,-80.3183729
MLS Listing,,Single Family Residential,2449 SE Sidonia St,Port Saint Lucie,FL,34952,425000,3,2.0,South Port ST Lucie Unit 5,1728,10890,1980,2,246,,Active,,,https://www.redfin.com/FL/Port-Saint-Lucie/2449-SE-Sidonia-St-34952/home/76795600,Beaches MLS,RX-10940180,N,Y,27.2696739,-80.3034867
MLS Listing,,Single Family Residential,1207 Soltman Ave,Fort Pierce,FL,34950,249900,2,1.0,Biltmore Park,884,7801,1972,2,283,,Active,,,https://www.redfin.com/FL/Fort-Pierce/1207-Soltman-Ave-34950/home/139362254,Beaches MLS,RX-10940175,N,Y,27.4360352,-80.3473138
MLS Listing,,Townhouse,2611 SE Tropical East Cir,Port Saint Lucie,FL,34952,291000,2,2.0,Tropical East,1181,,1988,2,246,205,Active,,,https://www.redfin.com/FL/Port-Saint-Lucie/2611-SE-Tropical-East-Cir-34952/home/131884069,Beaches MLS,RX-10940155,N,Y,27.2679167,-80.2714297
MLS Listing,,Single Family Residential,653 SW Lake Charles Cir,Port Saint Lucie,FL,34986,479000,4,2.0,Lake Charles Phase 2E,2248,7408,1999,2,213,,Active,,,https://www.redfin.com/FL/Port-Saint-Lucie/653-SW-Lake-Charles-Cir-34986/home/139722533,Beaches MLS,RX-10937945,N,Y,27.298132,-80.405816
MLS Listing,,Single Family Residential,3973 SW Wycoff St,Port St. Lucie,FL,34953,396500,4,2.0,Port St Lucie Sec 19,1472,10628,2002,3,269,,Active,,,https://www.redfin.com/FL/Port-Saint-Lucie/3973-SW-Wycoff-St-34953/home/104399270,Beaches MLS,F10411838,N,Y,27.2288974,-80.3811968
MLS Listing,,Single Family Residential,4042 Greenwood Dr,Fort Pierce,FL,34982,534990,3,4.0,Greenwood,3097,17424,1962,3,173,,Active,,,https://www.redfin.com/FL/Fort-Pierce/4042-Greenwood-Dr-34982/home/104353491,Beaches MLS,RX-10940139,N,Y,27.4115359,-80.3452659
MLS Listing,,Single Family Residential,5339 Vespera St,Fort Pierce,FL,34951,365000,3,2.0,Waterstone Phase Two,1457,5720,2021,3,251,,Active,,,https://www.redfin.com/FL/Fort-Pierce/5339-Vespera-St-34951/home/139665185,Beaches MLS,RX-10940113,N,Y,27.5316138,-80.407548
MLS Listing,,Single Family Residential,1630 Thumb Point Dr,Fort Pierce,FL,34949,695000,3,2.0,Thumb Point Subdivision,1606,11761,1967,3,433,,Active,,,https://www.redfin.com/FL/Fort-Pierce/1630-Thumb-Point-Dr-34949/home/102402984,Beaches MLS,RX-10940099,N,Y,27.4604948,-80.2966997
MLS Listing,,Vacant Land,4203 N Highway A1a,Hutchinson Island,FL,34949,745000,,,HUTCHINSON ISLAND,,166399,,3,,,Active,,,https://www.redfin.com/FL/Hutchinson-Island/4203-N-Highway-A1A-34949/home/139277877,RAIRCMLS,273443,N,Y,27.510697,-80.305755
MLS Listing,,Single Family Residential,701 SE Polynesian Ave,Port Saint Lucie,FL,34983,360000,3,2.0,Port ST Lucie Section 10,1362,14375,1978,3,264,,Active,,,https://www.redfin.com/FL/Port-Saint-Lucie/701-SE-Polynesian-Ave-34983/home/140365820,Beaches MLS,RX-10940094,N,Y,27.2842564,-80.3301233
MLS Listing,,Multi-Family (2-4 Unit),508 N 23rd St,Fort Pierce,FL,34950,369990,6,2.0,Alamanda Vista Sub,1550,,1970,3,239,,Active,,,https://www.redfin.com/FL/Fort-Pierce/508-N-23rd-St-34950/home/104450454,Beaches MLS,F10411989,N,Y,27.453556,-80.3476158
MLS Listing,,Single Family Residential,3804 Avenue I,Fort Pierce,FL,34947,259990,3,1.0,Sunland Gardens 2,740,7841,1954,3,351,,Active,,,https://www.redfin.com/FL/Fort-Pierce/3804-Avenue-I-34947/home/139355695,Beaches MLS,F10412012,N,Y,27.4586541,-80.3635813
MLS Listing,,Single Family Residential,7407 Deland Ave,Fort Pierce,FL,34951,265000,3,2.0,Lakewood Park Addition NO 1,1200,10454,1982,3,221,,Active,,,https://www.redfin.com/FL/Fort-Pierce/7407-Deland-Ave-34951/home/130778558,Beaches MLS,RX-10940071,N,Y,27.5463949,-80.3999826
MLS Listing,,Single Family Residential,5405 Jamboree Dr,Fort Pierce,FL,34947,385900,3,2.0,Celebration Pointe,1410,5227,2020,3,274,40,Active,,,https://www.redfin.com/FL/Fort-Pierce/5405-Jamboree-Dr-34947/home/139635809,Beaches MLS,RX-10940070,N,Y,27.437862,-80.380176
MLS Listing,,Single Family Residential,10534 Oakbridge Ct,Fort Pierce,FL,34951,1090000,3,3.0,Oakbridge Subdivision,2586,43560,2024,3,422,70,Active,,,https://www.redfin.com/FL/Fort-Pierce/10534-Oakbridge-Ct-34951/home/140617405,Beaches MLS,RX-10940062,N,Y,27.539298,-80.434899
MLS Listing,,Single Family Residential,1620 SE Ballantrae Blvd N,Port Saint Lucie,FL,34952,530000,3,2.0,Ballantrae-highland Glen,2126,5720,2000,3,249,398,Active,,,https://www.redfin.com/FL/Port-Saint-Lucie/1620-SE-Ballantrae-Blvd-34952/home/140611030,Beaches MLS,RX-10940045,N,Y,27.250048,-80.307216
MLS Listing,,Single Family Residential,4338 Gator Trace Cir,Fort Pierce,FL,34982,449000,3,2.0,Gator Trace Subdivision,1754,365,1988,3,256,175,Active,,,https://www.redfin.com/FL/Fort-Pierce/4338-Gator-Trace-Cir-34982/home/140169356,Beaches MLS,RX-10940038,N,Y,27.385509,-80.3101901
MLS Listing,,Condo/Co-op,140 SW Peacock Blvd SW #21203,Port Saint Lucie,FL,34986,274900,2,2.0,"The Belmont AT ST Lucie West, A Condominium",1199,1000,2004,3,229,293,Active,,,https://www.redfin.com/FL/Port-Saint-Lucie/140-SW-Peacock-Blvd-34986/unit-21-203/home/131798910,Beaches MLS,RX-10940037,N,Y,27.306834,-80.408959
MLS Listing,,Single Family Residential,524 SW Cyrilla Trl,Port Saint Lucie,FL,34953,435000,3,2.0,Sawgrass Lakes Phase 5,2068,7405,2004,3,210,229,Active,,,https://www.redfin.com/FL/Port-Saint-Lucie/524-SW-Cyrilla-Trl-34953/home/140336962,Beaches MLS,RX-10940036,N,Y,27.2305131,-80.3545328
MLS Listing,,Condo/Co-op,3200 Twin Lakes Ter #102,Fort Pierce,FL,34951,242500,2,2.0,Lakeshore Village in Meadowood,1417,,1989,3,171,541,Active,,,https://www.redfin.com/FL/Fort-Pierce/3200-Twin-Lakes-Ter-34951/unit-102/home/140467786,Beaches MLS,RX-10940025,N,Y,27.489036,-80.427564
MLS Listing,,Single Family Residential,58 Nettles Blvd,Jensen Beach,FL,34957,1200000,3,2.0,Outdoor Resorts At Nettles Island,1200,3118,2011,3,1000,288,Active,,,https://www.redfin.com/FL/Jensen-Beach/58-Nettles-Blvd-34957/home/91651117,MCRTC,M20042186,N,Y,27.2868497,-80.2278834
MLS Listing,,Single Family Residential,2634 SE Bikas Ln,Port Saint Lucie,FL,34952,497500,3,2.0,Port ST Lucie Section 40,2059,10000,2022,3,242,,Active,,,https://www.redfin.com/FL/Port-Saint-Lucie/2634-SE-Bikas-Ln-34952/home/140035856,Beaches MLS,RX-10940015,N,Y,27.296753,-80.268831
MLS Listing,,Single Family Residential,817 SE Streamlet Ave,Port Saint Lucie,FL,34983,490000,3,2.0,Port St Lucie Sec 10,2140,10001,1987,3,229,,Active,,,https://www.redfin.com/FL/Port-Saint-Lucie/817-SE-Streamlet-Ave-34983/home/108379793,MCRTC,M20041824,N,Y,27.286294,-80.3273817
MLS Listing,,Single Family Residential,1138 SW Gardena Ave,Port Saint Lucie,FL,34953,374900,2,2.0,Port St Lucie Sec 08,1835,10018,1989,3,204,,Active,,,https://www.redfin.com/FL/Port-Saint-Lucie/1138-SW-Gardena-Ave-34953/home/140786227,MCRTC,M20042092,N,Y,27.2828432,-80.3839367
MLS Listing,,Single Family Residential,734 SW Alton Cir,Port Saint Lucie,FL,34953,565000,5,3.0,NA,2338,,2022,3,242,,Active,,,https://www.redfin.com/FL/Port-Saint-Lucie/734-SW-Alton-Cir-34953/home/139164696,Beaches MLS,RX-10939999,N,Y,27.2664753,-80.3698232
MLS Listing,,Condo/Co-op,9490 S Ocean Dr Unit A-615,Jensen Beach,FL,34957,475000,2,2.0,Ocean Towers,1053,,1981,3,451,834,Active,,,https://www.redfin.com/FL/Jensen-Beach/9490-S-Ocean-Dr-34957/unit-615A/home/91650723,Beaches MLS,RX-10939997,N,Y,27.2919036,-80.2152146
MLS Listing,,Single Family Residential,5241 NW Ever Rd,Port St. Lucie,FL,34983,395000,3,2.0,PORT ST LUCIE SECTION 43,2132,14810,1991,3,185,,Active,,,https://www.redfin.com/FL/Port-Saint-Lucie/5241-NW-Ever-Rd-34983/home/140417729,MARMLS,A11494460,N,Y,27.3401664,-80.3624285
MLS Listing,,Multi-Family (2-4 Unit),128 Westglen Dr,Fort Pierce,FL,34981,325000,4,2.0,WESTGLEN SUBDIVISION,1560,,1971,3,208,591,Active,,,https://www.redfin.com/FL/Fort-Pierce/128-Westglen-Dr-34981/home/104448691,MARMLS,A11494227,N,Y,27.4055057,-80.3768911
MLS Listing,,Vacant Land,1510 SW Apache Ave,Port Saint Lucie,FL,34953,152900,,,Port ST Lucie Section 8,,10000,,3,,,Active,,,https://www.redfin.com/FL/Port-Saint-Lucie/1510-Sw-Apache-Ave-34953/home/139942020,Beaches MLS,RX-10939977,N,Y,27.289132,-80.393761
MLS Listing,,Single Family Residential,537 SE Cliff Rd,Port Saint Lucie,FL,34984,380000,4,2.0,Port ST Lucie Section 39,1852,9680,1995,3,205,,Active,,,https://www.redfin.com/FL/Port-Saint-Lucie/537-SE-Cliff-Rd-34984/home/130856933,Beaches MLS,RX-10939956,N,Y,27.2543491,-80.3368682
MLS Listing,,Mobile/Manufactured Home,1021 Nettles Blvd,Jensen Beach,FL,34957,298500,2,1.5,Nettles Island,830,2178,1980,3,360,288,Active,,,https://www.redfin.com/FL/Jensen-Beach/1021-Nettles-Blvd-34957/home/139753434,MCRTC,M20042089,N,Y,27.2849514,-80.2236679
MLS Listing,,Vacant Land,3078 SW Port St Lucie Blvd,Port Saint Lucie,FL,34953,109500,,,Port St Lucie Sec 16,,10049,,3,,,Active,,,https://www.redfin.com/FL/Port-Saint-Lucie/3078-Sw-Port-St-Lucie-Blvd-34953/home/140225761,MCRTC,M20042190,N,Y,27.251768,-80.377178
MLS Listing,,Vacant Land,Tba A1a,Hutchinson Island,FL,34949,37500,,,Surfside Harbor,,14985,,3,,,Active,,,https://www.redfin.com/FL/Hutchinson-Island-South/Tba-Highway-A1A-34949/home/188794860,Beaches MLS,RX-10939935,N,Y,27.43481,-80.28947
MLS Listing,,Single Family Residential,2431 SE Victory Ave,Port Saint Lucie,FL,34952,330000,3,2.0,Port ST Lucie Section 30,1344,10000,1988,3,246,,Active,,,https://www.redfin.com/FL/Port-Saint-Lucie/2431-SE-Victory-Ave-34952/home/131030234,Beaches MLS,RX-10939932,N,Y,27.281027,-80.276555
MLS Listing,,Single Family Residential,2655 Fair Isle Rd SW,Port St. Lucie,FL,34987,599000,4,2.0,Port St Lucie,2466,,2005,3,243,,Active,,,https://www.redfin.com/FL/Port-Saint-Lucie/2655-SW-Fair-Isle-Rd-34987/home/91640630,RAIRCMLS,273428,N,Y,27.289947,-80.429753
MLS Listing,,Single Family Residential,251 SW Christmas Ter,Port Saint Lucie,FL,34984,390990,4,2.0,Port ST Lucie Section 18,1806,10000,2024,3,216,,Active,,,https://www.redfin.com/FL/Port-Saint-Lucie/251-SW-Christmas-Ter-34984/home/139958681,Beaches MLS,RX-10939929,N,Y,27.278437,-80.34997
MLS Listing,,Single Family Residential,2319 SE Patio Cir,Port Saint Lucie,FL,34952,382990,4,2.0,Port ST Lucie Section 29,1806,10000,2024,3,212,,Active,,,https://www.redfin.com/FL/Port-Saint-Lucie/2319-SE-Patio-Cir-34952/home/104456572,Beaches MLS,RX-10939923,N,Y,27.287676,-80.280416
MLS Listing,,Single Family Residential,7656 Charleston Way,Port Saint Lucie,FL,34986,767000,3,2.0,Reserve Plantation,2557,31363,1989,3,300,288,Active,,,https://www.redfin.com/FL/Fort-Pierce/7656-Charleston-Way-34986/home/64087583,Beaches MLS,RX-10939916,N,Y,27.327619,-80.433805
MLS Listing,,Single Family Residential,1144 SW Estaugh Ave,Port Saint Lucie,FL,34953,385990,4,2.0,Port ST Lucie Section 8,1806,10019,2024,3,214,,Active,,,https://www.redfin.com/FL/Port-Saint-Lucie/1144-SW-Estaugh-Ave-34953/home/104453729,Beaches MLS,RX-10939913,N,Y,27.28112,-80.3839349
MLS Listing,,Vacant Land,123 SE Via Visconti,Port Saint Lucie,FL,34952,84900,,,Tesoro Preserve Plat NO 5,,5663,,3,,135,Active,,,https://www.redfin.com/FL/Port-Saint-Lucie/123-SE-Via-Visconti-34952/home/140385105,Beaches MLS,RX-10939912,N,Y,27.262265,-80.310269
MLS Listing,,Condo/Co-op,1300 Seaway Dr #12,Fort Pierce,FL,34949,369000,2,1.5,LA Entrada Del Mar Condominium,1079,,1973,3,342,900,Active,December-10-2023 12:00 PM,December-10-2023 03:00 PM,https://www.redfin.com/FL/Fort-Pierce/1300-Seaway-Dr-34949/unit-12/home/139288712,Beaches MLS,RX-10939900,N,Y,27.4673476,-80.3002871
MLS Listing,,Single Family Residential,3340 N Park Dr,Fort Pierce,FL,34982,299999,3,2.5,Magnolia Square,1692,4356,2006,3,177,95,Active,,,https://www.redfin.com/FL/Fort-Pierce/3340-N-Park-Dr-34982/home/65876687,Beaches MLS,F10411958,N,Y,27.4029508,-80.3420461
MLS Listing,,Single Family Residential,5008 Sanibel Ave,Fort Pierce,FL,34951,299990,2,2.0,Lakewood Park Unit 12a,1272,10454,2024,3,236,,Active,,,https://www.redfin.com/FL/Fort-Pierce/5008-Sanibel-Ave-34951/home/104450838,Beaches MLS,RX-10939875,N,Y,27.525567,-80.392971
MLS Listing,,Single Family Residential,1220 NW Winters Creek Rd,Palm City,FL,34990,995000,3,3.5,Harbour Ridge Plat NO 17 Sand Pine Village,3431,16553,1995,3,290,2667,Active,,,https://www.redfin.com/FL/Palm-City/1220-NW-Winters-Creek-Rd-34990/home/91630679,Beaches MLS,RX-10939867,N,Y,27.2323781,-80.3135199
MLS Listing,,Mobile/Manufactured Home,977 Nettles Blvd,Jensen Beach,FL,34957,247500,2,1.0,Outdoor Resorts At Nettles Island,785,2016,1990,3,315,288,Active,,,https://www.redfin.com/FL/Jensen-Beach/977-Nettles-Blvd-34957/home/140322770,MCRTC,M20042117,N,Y,27.2840137,-80.2234032
MLS Listing,,Townhouse,10726 SW Elsinore Dr,Port Saint Lucie,FL,34987,375000,2,2.0,Tradition Plat NO 5,1526,4966,2004,3,246,480,Pre On-Market,,,https://www.redfin.com/FL/Port-Saint-Lucie/10726-SW-Elsinore-Dr-34987/home/131993104,Beaches MLS,RX-10939863,N,Y,27.269502,-80.445444
MLS Listing,,Single Family Residential,309 NW Alana Ave,Port Saint Lucie,FL,34986,364900,2,2.0,Cascades AT ST Lucie West Phase 1 ST Lucie West Plat NO 110,1780,5009,2005,3,205,366,Active,,,https://www.redfin.com/FL/Port-Saint-Lucie/309-NW-Alana-Ave-34986/home/140567225,Beaches MLS,RX-10939853,N,Y,27.3243762,-80.3920545
MLS Listing,,Condo/Co-op,9950 S Ocean Dr Ph 5,Jensen Beach,FL,34957,899000,2,2.0,Miramar Royale,1552,,1990,3,579,704,Active,,,https://www.redfin.com/FL/Jensen-Beach/9950-S-Ocean-Dr-34957/unit-5/home/91642681,Beaches MLS,F10410439,N,Y,27.2834196,-80.2101858
MLS Listing,,Single Family Residential,6446 NW Flair St,Port Saint Lucie,FL,34986,489900,3,2.0,Port ST Lucie Section 44,2006,10000,2001,3,244,,Active,,,https://www.redfin.com/FL/Port-Saint-Lucie/6446-NW-Flair-St-34986/home/140036741,Beaches MLS,RX-10939823,N,Y,27.3476115,-80.403048
MLS Listing,,Mobile/Manufactured Home,3824 Hydrilla Ct,Port Saint Lucie,FL,34952,219000,2,2.0,Preserve at Savanna Club,1552,,2000,3,141,232,Active,,,https://www.redfin.com/FL/Port-Saint-Lucie/3824-Hydrilla-Ct-34952/home/92623938,Beaches MLS,RX-10939808,N,Y,27.320022,-80.285074
MLS Listing,,Townhouse,7039 Willow Pine Way,Port Saint Lucie,FL,34986,379000,2,2.0,Willow Pines,1751,2505,2004,3,216,353,Active,,,https://www.redfin.com/FL/Port-Saint-Lucie/7039-Willow-Pine-Way-34986/home/104378789,Beaches MLS,RX-10939805,N,Y,27.3369062,-80.4286674
MLS Listing,,Condo/Co-op,9940 S Ocean Dr #1202,Jensen Beach,FL,34957,529000,2,2.0,Oceana Oceanfront Condominium I,1023,,1975,3,517,800,Active,,,https://www.redfin.com/FL/Jensen-Beach/9940-S-Ocean-Dr-34957/unit-1202/home/140381110,Beaches MLS,RX-10939801,N,Y,27.2843991,-80.2105314
MLS Listing,,Single Family Residential,11012 SW Dunhill Ct,Port Saint Lucie,FL,34987,400000,3,2.0,Tradition Plat NO 18,1678,5227,2006,3,238,406,Active,,,https://www.redfin.com/FL/Port-Saint-Lucie/11012-SW-Dunhill-Ct-34987/home/139650943,Beaches MLS,RX-10939800,N,Y,27.286936,-80.437692
MLS Listing,,Single Family Residential,14477 Azucena Ct,Fort Pierce,FL,34951,249900,3,2.0,Spanish Lakes Fairways Leasehold Estates,1723,16117,2021,3,145,,Active,,,https://www.redfin.com/FL/Fort-Pierce/14477-Azucena-Ct-34951/home/171581595,Beaches MLS,RX-10939788,N,Y,27.5517317,-80.4713042
MLS Listing,,Vacant Land,8006 Citrus Park Blvd,Fort Pierce,FL,34951,65000,,,Lakewood Park Unit 7,,11326,,3,,,Active,,,https://www.redfin.com/FL/Fort-Pierce/8006-Citrus-Park-Blvd-34951/home/139275888,Beaches MLS,RX-10939783,N,Y,27.5515,-80.406058
MLS Listing,,Townhouse,11458 SW Lake Park Dr,Port Saint Lucie,FL,34987,449900,2,2.0,Town Park | Lake Park,1619,,2016,3,278,499,Active,,,https://www.redfin.com/FL/Port-Saint-Lucie/11458-SW-Lake-Park-Dr-34987/home/140787829,Beaches MLS,RX-10939767,N,Y,27.2569436,-80.4484204
MLS Listing,,Single Family Residential,1215 SW Cynthia St,Port Saint Lucie,FL,34983,375000,3,2.0,Port ST Lucie Section 4,1061,10000,1988,3,353,,Active,,,https://www.redfin.com/FL/Port-Saint-Lucie/1215-SW-Cynthia-St-34983/home/104427695,Beaches MLS,RX-10939766,N,Y,27.3029983,-80.3637118
MLS Listing,,Single Family Residential,6161 NW Gatun Dr,Port Saint Lucie,FL,34986,449999,4,2.0,Port ST Lucie Section 44,1880,10019,2021,3,239,,Active,,,https://www.redfin.com/FL/Port-Saint-Lucie/6161-NW-Gatun-Dr-34986/home/139967322,Beaches MLS,RX-10939764,N,Y,27.340129,-80.401246
MLS Listing,,Single Family Residential,3065 SE Morningside Blvd,Port Saint Lucie,FL,34952,335000,2,2.0,Sandpiper Bay Community,1022,8625,1960,3,328,,Pre On-Market,,,https://www.redfin.com/FL/Port-Saint-Lucie/3065-SE-Morningside-Blvd-34952/home/108402822,Beaches MLS,RX-10939760,N,Y,27.2529843,-80.3165449
MLS Listing,,Single Family Residential,5595 NW Wesley Rd,Port Saint Lucie,FL,34986,448000,4,3.0,Port ST Lucie Section 44,1916,9901,2003,3,234,,Active,,,https://www.redfin.com/FL/Port-Saint-Lucie/5595-NW-Wesley-Rd-34986/home/131156001,Beaches MLS,RX-10938846,N,Y,27.3466116,-80.3888943
MLS Listing,,Single Family Residential,2625 SW Monterrey Ln Ln,Port Saint Lucie,FL,34953,435000,3,2.0,Port ST Lucie Section 5,1606,,1981,3,271,,Active,,,https://www.redfin.com/FL/Port-Saint-Lucie/2625-SW-Monterrey-Ln-34953/home/133646314,Beaches MLS,RX-10937031,N,Y,27.2638954,-80.3581413
MLS Listing,,Vacant Land,00 Southwind Trl,Fort Pierce,FL,34951,359000,,,Tree Top Trail,,91476,,3,,,Active,,,https://www.redfin.com/FL/Fort-Pierce/Southwind-Trl-34951/home/140095906,Beaches MLS,RX-10939615,N,Y,27.531316,-80.373245
MLS Listing,,Townhouse,1325 Peppertree Trl Unit D,Fort Pierce,FL,34950,299999,2,2.0,Longwood Village Phase 1,1280,1381,1986,3,234,181,Active,,,https://www.redfin.com/FL/Fort-Pierce/1325-Peppertree-Trl-34950/unit-D/home/139359803,Beaches MLS,RX-10938352,N,Y,27.430628,-80.3378093
MLS Listing,,Single Family Residential,155 SW Eyerly Ave,Port Saint Lucie,FL,34983,530000,3,2.5,Port ST Lucie Section 4,1848,10000,1995,4,287,,Active,,,https://www.redfin.com/FL/Port-Saint-Lucie/155-SW-Eyerly-Ave-34983/home/131519633,Beaches MLS,RX-10939748,N,Y,27.3016638,-80.3516615
MLS Listing,,Single Family Residential,2449 SW Angus Ave,Port Saint Lucie,FL,34953,469900,3,2.0,Port ST Lucie Section 35,2283,10000,2005,4,206,,Active,,,https://www.redfin.com/FL/Port-Saint-Lucie/2449-SW-Angus-Ave-34953/home/104370976,Beaches MLS,RX-10939731,N,Y,27.275872,-80.4225128
MLS Listing,,Single Family Residential,1326 SW Granville Ave,Port Saint Lucie,FL,34953,497000,4,2.0,Port ST Lucie Section 12,2336,10375,2020,4,213,,Pre On-Market,,,https://www.redfin.com/FL/Port-Saint-Lucie/1326-SW-Granville-Ave-34953/home/104434354,Beaches MLS,RX-10939696,N,Y,27.274134,-80.38722
MLS Listing,,Single Family Residential,3291 SW Constellation Rd,Port Saint Lucie,FL,34953,395000,3,2.0,Port st Lucie Section 7,1270,,2003,4,311,,Active,,,https://www.redfin.com/FL/Port-Saint-Lucie/3291-SW-Constellation-Rd-34953/home/104014693,Beaches MLS,RX-10939691,N,Y,27.2460711,-80.4040263
MLS Listing,,Single Family Residential,5305 NW South Lanett Cir,Port Saint Lucie,FL,34986,455000,3,2.0,Port ST Lucie Section 47,1510,10000,2000,4,301,,Active,,,https://www.redfin.com/FL/Port-Saint-Lucie/5305-NW-South-Lanett-Cir-34986/home/139528048,Beaches MLS,RX-10939688,N,Y,27.3680006,-80.3945039
MLS Listing,,Single Family Residential,2516 SW Abelard St,Port Saint Lucie,FL,34953,545000,4,2.0,Port ST Lucie Section 23,2078,10000,2009,4,262,,Active,,,https://www.redfin.com/FL/Port-Saint-Lucie/2516-SW-Abelard-St-34953/home/104430059,Beaches MLS,RX-10939678,N,Y,27.2678689,-80.3850674
MLS Listing,,Single Family Residential,4504 Matanzas Ave,Fort Pierce,FL,34946,185000,2,2.0,Harmony Heights Addition,1292,9120,1955,4,143,,Active,,,https://www.redfin.com/FL/Fort-Pierce/4504-Matanzas-Ave-34946/home/129913968,Beaches MLS,RX-10939670,N,Y,27.4760526,-80.3707584
MLS Listing,,Single Family Residential,5312 NW Nail Ct,Port St. Lucie,FL,34986,485000,3,2.0,Port St Lucie,2329,,2006,4,208,,Active,,,https://www.redfin.com/FL/Port-Saint-Lucie/5312-NW-Nail-Ct-34986/home/92326018,RAIRCMLS,273411,N,Y,27.3690294,-80.386372
MLS Listing,,Single Family Residential,9797 SW Triton Way,Port Saint Lucie,FL,34953,449400,4,2.0,Verano South Pud 1 - Pod G - Plat No. 2,2034,6229,2023,4,221,43,Active,,,https://www.redfin.com/FL/Port-Saint-Lucie/9797-SW-Triton-WAY-34953/home/188775444,Beaches MLS,RX-10939644,N,Y,27.289552,-80.454378
MLS Listing,,Single Family Residential,4208 Longmour Ln,Fort Pierce,FL,34947,449865,5,2.5,Bent Creek Tract A-2,2389,10019,2023,4,188,168,Active,,,https://www.redfin.com/FL/Fort-Pierce/4208-Longmour-LN-34947/home/187862371,Beaches MLS,RX-10939642,N,Y,27.4411,-80.371
MLS Listing,,Single Family Residential,11467 SW Visconti Way,Port Saint Lucie,FL,34986,435000,2,2.0,Verano Pud NO 1 Plat NO 21,1515,6882,2021,4,287,534,Active,,,https://www.redfin.com/FL/Port-Saint-Lucie/11467-SW-Visconti-Way-34986/home/173777802,Beaches MLS,RX-10939641,N,Y,27.318837,-80.446475
MLS Listing,,Single Family Residential,9790 SW Triton Way,Port Saint Lucie,FL,34987,451400,4,2.0,Verano South Pud 1 - Pod G - Plat No. 2,2034,6229,2023,4,222,43,Active,,,https://www.redfin.com/FL/Port-Saint-Lucie/9790-SW-Triton-WAY-34987/home/188775352,Beaches MLS,RX-10939639,N,Y,27.290733,-80.45364
MLS Listing,,Condo/Co-op,13 Lake Vista Trl #205,Port Saint Lucie,FL,34952,129900,1,1.5,Vista St Lucie,800,,1987,4,162,376,Active,,,https://www.redfin.com/FL/Port-Saint-Lucie/13-Lake-Vista-Trl-34952/unit-205/home/129983139,Beaches MLS,RX-10939590,N,Y,27.336244,-80.320518
MLS Listing,,Single Family Residential,6544 Alemendra St,Fort Pierce,FL,34951,215000,3,2.0,Spanish Lakes Fairways NE Phase,1714,6270,2003,4,125,835,Active,,,https://www.redfin.com/FL/Fort-Pierce/6544-Alemendra-34951/home/139771183,Beaches MLS,RX-10939572,N,Y,27.5542939,-80.4652892
MLS Listing,,Mobile/Manufactured Home,5 Espanola Ln,Port Saint Lucie,FL,34952,30000,2,1.5,Spanish Lakes,950,,1973,4,32,,Active,,,https://www.redfin.com/FL/Port-St-Lucie/5-Espanola-Ln-34952/home/188773432,Beaches MLS,RX-10939554,N,Y,27.3165402,-80.3110839
MLS Listing,,Single Family Residential,834 SE Roulette Ln,Port Saint Lucie,FL,34983,325000,2,2.0,Port ST Lucie Section 10,1489,10000,1979,4,218,,Active,,,https://www.redfin.com/FL/Port-Saint-Lucie/834-SE-Roulette-Ln-34983/home/108391566,Beaches MLS,RX-10926798,N,Y,27.2790828,-80.32699
MLS Listing,,Vacant Land,8003 Lockwood Dr,Fort Pierce,FL,34950,59900,,,Lakewood Park Unit 3,,11326,,4,,6,Active,,,https://www.redfin.com/FL/Fort-Pierce/8003-Lockwood-Dr-34950/home/139967563,Beaches MLS,RX-10939519,N,Y,27.5308045,-80.4058632
MLS Listing,,Single Family Residential,20015 SW Caserta Way,Port Saint Lucie,FL,34986,475000,2,2.0,Pga Verano,1646,5837,2019,4,289,535,Active,,,https://www.redfin.com/FL/Port-Saint-Lucie/20015-SW-Caserta-Way-34986/home/141320290,Beaches MLS,RX-10938097,N,Y,27.3114512,-80.4421379
MLS Listing,,Single Family Residential,309 SW Tomoka Springs Dr,Port Saint Lucie,FL,34986,374900,3,2.0,Lakeforest Pointe,1684,4792,2004,4,223,188,Active,,,https://www.redfin.com/FL/Port-Saint-Lucie/309-SW-Tomoka-Springs-Dr-34986/home/140575326,Beaches MLS,RX-10939505,N,Y,27.3112652,-80.3839802
MLS Listing,,Single Family Residential,217 NW Liseron Way,Port Saint Lucie,FL,34986,489000,3,2.0,Cascades AT ST Lucie West Phase 1 ST Lucie West Plat NO 110,2194,7100,2000,4,223,366,Active,,,https://www.redfin.com/FL/Port-Saint-Lucie/217-NW-Liseron-Way-34986/home/139703271,Beaches MLS,RX-10939487,N,Y,27.3283797,-80.3903534
MLS Listing,,Single Family Residential,7508 Santa Barbara Dr,Fort Pierce,FL,34951,320000,3,2.0,Lakewood Park Unit 1,1488,9375,1975,4,215,,Active,,,https://www.redfin.com/FL/Fort-Pierce/7508-Santa-Barbara-Dr-34951/home/139125193,Beaches MLS,RX-10939476,N,Y,27.5239219,-80.4014175
MLS Listing,,Single Family Residential,502 NE Canoe Park Cir,Port Saint Lucie,FL,34983,445000,3,2.0,River Place ON The ST Lucie NO 6,2146,6970,2004,4,207,111,Active,,,https://www.redfin.com/FL/Port-Saint-Lucie/502-NE-Canoe-Park-Cir-34983/home/139704269,Beaches MLS,RX-10939218,N,Y,27.3403905,-80.3433732
MLS Listing,,Single Family Residential,1709 Rio Vista Dr,Fort Pierce,FL,34949,950000,3,3.5,Surfside Unit 2,3193,13939,1977,4,298,,Active,,,https://www.redfin.com/FL/Fort-Pierce/1709-Rio-Vista-Dr-34949/home/139431510,Beaches MLS,RX-10939470,N,Y,27.4480646,-80.2895774
MLS Listing,,Single Family Residential,156 SE Prima Vista Blvd,Port Saint Lucie,FL,34983,410000,3,1.0,River Park Unit 5,1674,10454,1962,4,245,,Active,,,https://www.redfin.com/FL/Port-Saint-Lucie/156-SE-Prima-Vista-Blvd-34983/home/66614352,Beaches MLS,RX-10939463,N,Y,27.3174449,-80.3458315
MLS Listing,,Townhouse,6113 NW Castlebay Ln,Port Saint Lucie,FL,34983,379900,2,2.0,ST Andrews Townhomes Replat NO 1,1727,3877,2015,4,220,464,Active,,,https://www.redfin.com/FL/Port-Saint-Lucie/6113-NW-Castlebay-Ln-34983/home/81817431,Beaches MLS,RX-10939454,N,Y,27.358303,-80.364033
MLS Listing,,Single Family Residential,1557 NW Amherst Dr,Port St. Lucie,FL,34986,449000,3,2.0,LAKES AT ST LUCIE WEST PL,2351,6344,1990,4,191,234,Active,,,https://www.redfin.com/FL/Port-Saint-Lucie/1557-NW-Amherst-Dr-34986/home/139800623,MARMLS,A11491721,N,Y,27.3177599,-80.3947355
MLS Listing,,Single Family Residential,110 SW Christmas Ter,Port Saint Lucie,FL,34984,330000,3,2.0,Port ST Lucie Section 18,1056,10000,1994,4,313,,Active,,,https://www.redfin.com/FL/Port-Saint-Lucie/110-SW-Christmas-Ter-34984/home/92894515,Beaches MLS,RX-10938728,N,Y,27.2807786,-80.343569
MLS Listing,,Single Family Residential,2196 SE Dolphin Rd,Port Saint Lucie,FL,34952,359900,3,2.0,South Port ST Lucie Unit 5,1806,,1989,4,199,,Active,,,https://www.redfin.com/FL/Port-Saint-Lucie/2196-SE-Dolphin-Rd-34952/home/140560324,Beaches MLS,RX-10938670,N,Y,27.2751996,-80.3070996
MLS Listing,,Single Family Residential,12103 SW Bennington Cir,Port Saint Lucie,FL,34987,584999,3,2.5,Tradition Plat NO 19 Replat-replat NO 5 Townpark Phase One,2225,,2013,4,263,380,Active,,,https://www.redfin.com/FL/Port-Saint-Lucie/12103-SW-Bennington-Cir-34987/home/140355473,Beaches MLS,RX-10939116,N,Y,27.2605612,-80.4467984
MLS Listing,,Single Family Residential,11517 SW Lyra Dr,Port Saint Lucie,FL,34987,565000,3,2.5,Manderlie,2100,8712,2021,5,269,401,Active,,,https://www.redfin.com/FL/Port-Saint-Lucie/11517-SW-Lyra-Dr-34987/home/175021907,MCRTC,M20041956,N,Y,27.2553904,-80.4373895
MLS Listing,,Single Family Residential,1798 SW Del Rio Blvd,Port St. Lucie,FL,34953,440000,3,2.0,Port St Lucie Sec 11,1512,14166,1986,5,291,,Active,,,https://www.redfin.com/FL/Port-Saint-Lucie/1798-SW-Del-Rio-Blvd-34953/home/140032175,Beaches MLS,F10410961,N,Y,27.2882222,-80.4025914
MLS Listing,,Single Family Residential,192 SW Dalton Cir,Port St. Lucie,FL,34953,445000,3,2.0,Dalton Circle,,,1996,5,,,Active,,,https://www.redfin.com/FL/Port-Saint-Lucie/192-SW-Dalton-Cir-34953/home/139848439,Beaches MLS,F10411745,N,Y,27.2630904,-80.3672352
MLS Listing,,Single Family Residential,550 SE Anchor Ln,Port Saint Lucie,FL,34983,387500,3,2.0,Port ST Lucie Section 24,1777,10000,1977,5,218,,Active,,,https://www.redfin.com/FL/Port-Saint-Lucie/550-SE-Anchor-Ln-34983/home/139503323,Beaches MLS,RX-10939445,N,Y,27.3151046,-80.336346
MLS Listing,,Condo/Co-op,2302 Sunrise Blvd #201,Fort Pierce,FL,34982,140000,1,1.0,Inlet House Condominium,966,,1972,5,145,449,Active,,,https://www.redfin.com/FL/Fort-Pierce/2302-Sunrise-Blvd-34982/unit-201/home/104343211,Beaches MLS,RX-10939441,N,Y,27.4249154,-80.3339825
MLS Listing,,Vacant Land,41 NW Boundary Dr,Port Saint Lucie,FL,34986,199000,,,Outdoor Resorts At St Lucie West Ph 1,,2944,,5,,368,Active,,,https://www.redfin.com/FL/Port-Saint-Lucie/41-NW-Boundary-Dr-34986/home/139611896,MCRTC,M20042159,N,Y,27.3333736,-80.4049754
MLS Listing,,Single Family Residential,528 NW Placid Ave,Port Saint Lucie,FL,34983,395000,3,2.0,Port ST Lucie Section 25,1788,10000,2005,5,221,,Active,,,https://www.redfin.com/FL/Port-Saint-Lucie/528-NW-Placid-Ave-34983/home/108406124,Beaches MLS,RX-10939430,N,Y,27.3308467,-80.3634073
MLS Listing,,Condo/Co-op,3100 N Highway A1a #901,Hutchinson Island,FL,34949,649900,3,2.0,Sands ON The Ocean Section 1 Condominium,1623,,1983,5,400,1312,Active,,,https://www.redfin.com/FL/Fort-Pierce/3100-N-Hwy-A1A-34949/unit-901/home/172899522,Beaches MLS,RX-10939425,N,Y,27.4903363,-80.2992178
MLS Listing,,Single Family Residential,659 NW San Remo Cir,Port St. Lucie,FL,34986,285000,2,2.0,KINGS ISLE PHASE III,1513,3006,1995,5,188,393,Active,,,https://www.redfin.com/FL/Port-Saint-Lucie/659-NW-San-Remo-Cir-34986/home/131525869,MARMLS,A11492795,N,Y,27.3234493,-80.3852848
MLS Listing,,Mobile/Manufactured Home,183 W Caribbean,Port Saint Lucie,FL,34952,81900,2,2.0,Spanish Lakes Golf Village,1380,,1980,5,59,750,Active,,,https://www.redfin.com/FL/Port-St-Lucie/183-W-Caribbean-34952/home/188755996,Beaches MLS,RX-10939408,N,Y,27.3078398,-80.2997103
MLS Listing,,Condo/Co-op,2400 S Ocean Dr #2114,Fort Pierce,FL,34949,396000,2,2.0,Ocean Village,1184,,1978,5,334,687,Active,,,https://www.redfin.com/FL/Fort-Pierce/2400-S-Ocean-Dr-34949/unit-2114/home/139786500,Beaches MLS,RX-10939406,N,Y,27.4414613,-80.2849324
MLS Listing,,Single Family Residential,2202 SW Haycraft Cir,Port Saint Lucie,FL,34953,480000,4,3.0,Port ST Lucie Section 35,2520,13939,2006,5,190,,Pre On-Market,December-9-2023 12:00 PM,December-9-2023 03:00 PM,https://www.redfin.com/FL/Port-Saint-Lucie/2202-SW-Haycraft-Cir-34953/home/129097869,Beaches MLS,RX-10939400,N,Y,27.2679132,-80.4180687
MLS Listing,,Single Family Residential,211 SE Calmo Cir,Port Saint Lucie,FL,34984,899995,4,3.5,Tesoro Plat NO 15,3625,7710,2023,5,248,715,Active,,,https://www.redfin.com/FL/Port-Saint-Lucie/211-SE-Calmo-Cir-34984/home/140318933,Beaches MLS,RX-10939398,N,Y,27.224501,-80.318892
MLS Listing,,Mobile/Manufactured Home,8029 Meadowlark Ln,Port Saint Lucie,FL,34952,299500,3,2.5,The Preserve At Savanna Club,2073,5702,2001,5,144,252,Active,,,https://www.redfin.com/FL/Port-Saint-Lucie/8029-Meadowlark-Ln-34952/home/139702720,MCRTC,M20042114,N,Y,27.3178,-80.288471
MLS Listing,,Townhouse,301 Salisbury Cir,Fort Pierce,FL,34982,369230,3,2.5,Tidewater,1808,2613,2024,5,204,155,Active,,,https://www.redfin.com/FL/White-City/301-Salisbury-Cir-34982/home/188471595,MCRTC,M20041975,N,Y,27.35649,-80.32681
MLS Listing,,Townhouse,305 Salisbury Cir,Fort Pierce,FL,34982,325830,3,2.5,Tidewater,1485,2613,2024,5,219,155,Active,,,https://www.redfin.com/FL/White-City/305-Salisbury-Cir-34982/home/188471580,MCRTC,M20042062,N,Y,27.35649,-80.32681
MLS Listing,,Townhouse,309 Salisbury Cir,Fort Pierce,FL,34982,317105,3,2.5,Tidewater,1485,2613,2024,5,214,155,Active,,,https://www.redfin.com/FL/White-City/309-Salisbury-Cir-34982/home/188471632,MCRTC,M20042063,N,Y,27.35649,-80.32681
MLS Listing,,Townhouse,313 Salisbury Cir,Fort Pierce,FL,34982,319105,3,2.5,Tidewater,1485,2613,2024,5,215,155,Active,,,https://www.redfin.com/FL/White-City/313-Salisbury-Cir-34982/home/188471587,MCRTC,M20042064,N,Y,27.35649,-80.32681
MLS Listing,,Townhouse,317 Salisbury Cir,Fort Pierce,FL,34982,330280,3,2.5,Tidewater,1485,2613,2024,5,222,155,Active,,,https://www.redfin.com/FL/White-City/317-Salisbury-Cir-34982/home/188471633,MCRTC,M20041979,N,Y,27.35649,-80.32681
MLS Listing,,Townhouse,321 Salisbury Cir,Fort Pierce,FL,34982,372905,3,2.5,Tidewater,1808,2613,2024,5,206,155,Active,,,https://www.redfin.com/FL/White-City/321-Salisbury-Cir-34982/home/188471589,MCRTC,M20041980,N,Y,27.35649,-80.32681
MLS Listing,,Vacant Land,413 NW Chipshot Ln,Port Saint Lucie,FL,34986,489000,,,Outdoor Resorts At St Lucie West Ph 1,,3519,,5,,368,Active,,,https://www.redfin.com/FL/Port-Saint-Lucie/413-NW-Chipshot-Ln-34986/home/139608440,MCRTC,M20042139,N,Y,27.335408,-80.4037763
MLS Listing,,Vacant Land,88 NW Boundary Dr,Port Saint Lucie,FL,34986,195000,,,Outdoor Resorts At St Lucie West Ph 1,,2517,,5,,368,Active,,,https://www.redfin.com/FL/Port-Saint-Lucie/88-NW-Boundary-Dr-34986/home/104317655,MCRTC,M20042140,N,Y,27.3369932,-80.4049828
MLS Listing,,Single Family Residential,1626 SE Shelburnie Way,Port Saint Lucie,FL,34952,489900,3,2.0,Highland Glen,1776,5478,1999,5,276,398,Active,,,https://www.redfin.com/FL/Port-Saint-Lucie/1626-SE-Shelburnie-Way-34952/home/104389136,Beaches MLS,RX-10939373,N,Y,27.2483534,-80.3074914
MLS Listing,,Condo/Co-op,9650 S Ocean Dr #709,Jensen Beach,FL,34957,475000,2,2.0,Princess OF Hutchinson Island,1209,,1984,5,393,861,Active,,,https://www.redfin.com/FL/Jensen-Beach/9650-S-Ocean-Dr-34957/unit-709/home/108399365,Beaches MLS,RX-10939359,N,Y,27.2887488,-80.2124701
MLS Listing,,Condo/Co-op,1565 SE Royal Green Cir #202,Port Saint Lucie,FL,34952,219900,2,2.0,"Midport Place Ii, A Condominium",886,,1985,5,248,317,Active,,,https://www.redfin.com/FL/Port-Saint-Lucie/1565-SE-Royal-Green-Cir-34952/unit-202/home/104379022,Beaches MLS,RX-10939354,N,Y,27.2916371,-80.2973268
MLS Listing,,Single Family Residential,12628 SW Forli Way,Port St. Lucie,FL,34987,449990,5,3.0,Central Park,2352,6534,2024,5,191,35,Active,,,https://www.redfin.com/FL/Port-St-Lucie/12628-Forli-Way-34987/home/188754599,Beaches MLS,F10411688,N,Y,27.2980443,-80.4516321
MLS Listing,,Single Family Residential,8908 One Putt Pl,Port Saint Lucie,FL,34986,529000,3,2.5,Kingsmill,2391,8756,2002,5,221,433,Active,,,https://www.redfin.com/FL/Port-Saint-Lucie/8908-One-Putt-Pl-34986/home/139626413,Beaches MLS,RX-10939344,N,Y,27.3035633,-80.4227427
MLS Listing,,Single Family Residential,7951 Plantation Lakes Dr,Port Saint Lucie,FL,34986,949000,3,3.0,Reserve Plantation (pga Village),2722,32670,1999,5,349,287,Active,,,https://www.redfin.com/FL/Port-Saint-Lucie/7951-Plantation-Lakes-Dr-34986/home/108222864,Beaches MLS,RX-10939333,N,Y,27.322939,-80.436747
MLS Listing,,Single Family Residential,5611 Sunberry Cir,Fort Pierce,FL,34951,299900,3,2.0,Portofino Shores,7362,,2004,5,41,,Pre On-Market,,,https://www.redfin.com/FL/Fort-Pierce/5611-Sunberry-Cir-34951/home/130812122,RAIRCMLS,273379,N,Y,27.540494,-80.382738
MLS Listing,,Single Family Residential,18024 SW Cosenza Way,Port St. Lucie,FL,34986,620000,3,3.0,Verano,2167,7187,2016,5,286,506,Active,,,https://www.redfin.com/FL/Port-Saint-Lucie/18024-SW-Cosenza-Way-34986/home/140785924,Beaches MLS,F10411517,N,Y,27.3079908,-80.436751
MLS Listing,,Single Family Residential,0 Huron Way,Fort Pierce,FL,34946,68250,,,San Lucie Plaza Sub,45816,45816,,5,1,,Active,,,https://www.redfin.com/FL/Fort-Pierce/Huron-Way-34946/home/140142804,Beaches MLS,F10411675,N,Y,27.479945,-80.353902
MLS Listing,,Vacant Land,4906 Pinetree Dr,Fort Pierce,FL,34982,209000,,,Indian River Estates Unit 1,,59400,,5,,,Active,,,https://www.redfin.com/FL/Fort-Pierce/4906-Pinetree-Dr-34982/home/113658557,Beaches MLS,RX-10939318,N,Y,27.375333,-80.314021
MLS Listing,,Condo/Co-op,8650 S Ocean Dr #1003,Jensen Beach,FL,34957,1550000,3,3.0,Regency Island Dunes,2234,,1996,5,694,1782,Active,,,https://www.redfin.com/FL/Jensen-Beach/8650-S-Ocean-Dr-34957/unit-1003/home/108391848,Beaches MLS,RX-10939304,N,Y,27.3048263,-80.2194522
MLS Listing,,Single Family Residential,317 NW Clearview Ct,Port Saint Lucie,FL,34986,439000,3,2.0,Casades AT ST Lucie West Phase 3,2030,5837,2003,5,216,366,Active,,,https://www.redfin.com/FL/Port-Saint-Lucie/317-NW-Clearview-Ct-34986/home/139613130,Beaches MLS,RX-10939295,N,Y,27.3340177,-80.3920302
MLS Listing,,Single Family Residential,2892 SE Italy St SE,Port Saint Lucie,FL,34952,639900,4,3.0,South Port,2781,,1987,5,230,,Active,,,https://www.redfin.com/FL/Port-Saint-Lucie/2892-SE-Italy-St-34952/home/104394576,Beaches MLS,RX-10939290,N,Y,27.2560785,-80.2956507
MLS Listing,,Single Family Residential,5302 Lugo St,Fort Pierce,FL,34951,390900,4,2.0,Waterstone Phase Three,1820,10890,2023,5,215,6,Active,,,https://www.redfin.com/FL/Fort-Pierce/5302-Lugo-St-34951/home/175018673,Beaches MLS,RX-10939288,N,Y,27.532418,-80.4125169
MLS Listing,,Vacant Land,10725 S Ocean Dr #160,Jensen Beach,FL,34957,219000,,,Holiday Out At St Lucie Inc,,1920,,5,,257,Active,,,https://www.redfin.com/FL/Jensen-Beach/10725-S-Ocean-Dr-34957/unit-160/home/140378522,MCRTC,M20042112,N,Y,27.2687498,-80.2043198
MLS Listing,,Single Family Residential,2573 SE Hemsing St,Port Saint Lucie,FL,34984,399900,4,2.0,Port ST Lucie Section 18,1741,10000,2005,5,230,,Active,,,https://www.redfin.com/FL/Port-Saint-Lucie/2573-SE-Hemsing-St-34984/home/104447887,Beaches MLS,RX-10939267,N,Y,27.2656056,-80.3365636
MLS Listing,,Single Family Residential,6718 Tulipan,Fort Pierce,FL,34951,215000,3,2.0,Spanish Lakes Fairway,2022,,1997,5,106,577,Active,,,https://www.redfin.com/FL/Fort-Pierce/6718-Tulipan-34951/home/104441975,RAIRCMLS,273289,N,Y,27.5570524,-80.4707352
MLS Listing,,Single Family Residential,1041 SW Longfellow Rd,Port St. Lucie,FL,34953,349000,3,2.0,Port St Lucie Sec 12,1072,10000,1988,5,326,,Active,,,https://www.redfin.com/FL/Port-Saint-Lucie/1041-SW-Longfellow-Rd-34953/home/104346773,Beaches MLS,F10411304,N,Y,27.2732615,-80.3775435
MLS Listing,,Condo/Co-op,201 Manatee Ln Unit A,Fort Pierce,FL,34982,180000,2,2.0,High Point OF Fort Pierce Condominium Section 1,1104,,1975,5,163,563,Active,,,https://www.redfin.com/FL/Fort-Pierce/201-Manatee-Ln-34982/unit-A/home/104401359,Beaches MLS,RX-10939223,N,Y,27.401711,-80.318109
MLS Listing,,Vacant Land,6595 Turnpike Feeder Rd,Fort Pierce,FL,34951,649900,,,Metes And Bounds,1552,114563,,5,419,,Active,,,https://www.redfin.com/FL/Fort-Pierce/6595-Turnpike-Feeder-Rd-34951/home/140472457,Beaches MLS,RX-10939215,N,Y,27.5535775,-80.3732811
MLS Listing,,Single Family Residential,5420 NW Nassau Ct,Port Saint Lucie,FL,34983,685000,4,3.0,St. James Area,2715,13716,2017,5,252,,Active,,,https://www.redfin.com/FL/Port-Saint-Lucie/5420-NW-Nassau-Ct-34983/home/118014618,Beaches MLS,RX-10939207,N,Y,27.3672674,-80.3637034
MLS Listing,,Single Family Residential,10708 SW Gloriana St,Port Saint Lucie,FL,34987,524900,3,2.5,Emery II,1998,5619,2022,5,263,350,Active,,,https://www.redfin.com/FL/Port-Saint-Lucie/10708-SW-Gloriana-St-34987/home/179573007,Beaches MLS,RX-10939203,N,Y,27.2702558,-80.4535338
MLS Listing,,Single Family Residential,1005 SW Jennifer Ter,Port Saint Lucie,FL,34953,390000,3,2.0,Port ST Lucie Section 8,1507,10000,1988,5,259,,Pre On-Market,,,https://www.redfin.com/FL/Port-Saint-Lucie/1005-SW-Jennifer-Ter-34953/home/104410751,Beaches MLS,RX-10939198,N,Y,27.2813833,-80.3772826
MLS Listing,,Single Family Residential,145 NW Willow Grove Ave,Port Saint Lucie,FL,34986,449999,3,2.0,Magnolia Lakes Phase 1 ST Lucie West NO 151,2210,6055,2003,5,204,245,Active,,,https://www.redfin.com/FL/Port-Saint-Lucie/145-NW-Willow-Grove-Ave-34986/home/91640480,Beaches MLS,RX-10939189,N,Y,27.3280416,-80.3812855
MLS Listing,,Single Family Residential,3526 Carriage Pointe Cir,Fort Pierce,FL,34981,414000,3,2.0,Carriage Pointe Estates Replat,1534,5812,2020,5,270,165,Active,,,https://www.redfin.com/FL/Fort-Pierce/3526-Carriage-Pointe-Cir-34981/home/169749914,Beaches MLS,RX-10939187,N,Y,27.403307,-80.369472
MLS Listing,,Single Family Residential,12545 SW Gray Fox Ln,Port Saint Lucie,FL,34987,499900,3,2.0,Pulte AT Tradition Phase 1,2050,,2021,5,244,409,Active,,,https://www.redfin.com/FL/Port-Saint-Lucie/12545-SW-Gray-Fox-Ln-34987/home/169760835,Beaches MLS,RX-10939177,N,Y,27.2363337,-80.4251543
MLS Listing,,Single Family Residential,691 SW Estate Ave,Port Saint Lucie,FL,34953,529000,4,3.0,Port ST Lucie Section 33,2521,10000,2006,5,210,,Active,,,https://www.redfin.com/FL/Port-Saint-Lucie/691-SW-Estate-Ave-34953/home/108411629,Beaches MLS,RX-10939174,N,Y,27.2131318,-80.3689316
MLS Listing,,Condo/Co-op,171 SE Village Dr #171,Port Saint Lucie,FL,34952,210000,3,2.0,The Fountains OF ST Lucie,1116,,1988,5,188,430,Active,,,https://www.redfin.com/FL/Port-Saint-Lucie/171-SE-Village-Dr-34952/unit-171/home/79033469,Beaches MLS,RX-10939170,N,Y,27.2809224,-80.291992
MLS Listing,,Single Family Residential,164 NW Swann Mill Cir,Port Saint Lucie,FL,34986,409500,3,2.0,Magnolia Lakes AT ST Lucie West Phase 2,1818,6534,2005,5,225,265,Active,,,https://www.redfin.com/FL/Port-Saint-Lucie/164-NW-Swann-Mill-Cir-34986/home/129502726,Beaches MLS,RX-10939169,N,Y,27.33093,-80.378407
MLS Listing,,Mobile/Manufactured Home,3309 Red Tailed Hawk Dr,Port Saint Lucie,FL,34952,295000,2,2.0,Fairways AT Savanna Club Replat NO 1,1753,7412,2006,5,168,230,Active,,,https://www.redfin.com/FL/Port-Saint-Lucie/3309-Red-Tailed-Hawk-Dr-34952/home/140007327,Beaches MLS,RX-10939165,N,Y,27.3252277,-80.2897733
MLS Listing,,Single Family Residential,706 Nettles Blvd,Jensen Beach,FL,34957,569000,2,3.0,Outdoor Resorts At Nettles Island,1499,1999,2003,6,380,288,Active,,,https://www.redfin.com/FL/Jensen-Beach/706-Nettles-Blvd-34957/home/108394549,MCRTC,M20041991,N,Y,27.2861361,-80.2209555
MLS Listing,,Single Family Residential,256 SW Ridgecrest Dr,Port Saint Lucie,FL,34953,860000,4,3.5,Port ST Lucie Section 36,2444,24394,2004,6,352,,Active,,,https://www.redfin.com/FL/Port-Saint-Lucie/256-SW-Ridgecrest-Dr-34953/home/139521519,Beaches MLS,RX-10939149,N,Y,27.2243599,-80.3444827
MLS Listing,,Single Family Residential,11977 SW Seahorse Springs Ter,Port Saint Lucie,FL,34987,610000,3,2.5,Riverland Parcel C - Plat Three,2157,9191,2022,6,283,422,Active,,,https://www.redfin.com/FL/Port-Saint-Lucie/11977-SW-Seahorse-Springs-Ter-34987/home/173782375,Beaches MLS,RX-10939144,N,Y,27.246188,-80.4495299
MLS Listing,,Mobile/Manufactured Home,3308 Crabapple Dr,Port Saint Lucie,FL,34952,269000,2,2.0,Fairways AT Savanna Club Replat NO 1,1557,9064,2007,6,173,233,Active,,,https://www.redfin.com/FL/Port-Saint-Lucie/3308-Crabapple-Dr-34952/home/104380115,Beaches MLS,RX-10939134,N,Y,27.319582,-80.2896427
MLS Listing,,Condo/Co-op,9940 S Ocean Dr #309,Jensen Beach,FL,34957,549900,2,2.0,Oceana Oceanfront Condominium I,1023,,1975,6,538,903,Active,,,https://www.redfin.com/FL/Jensen-Beach/9940-S-Ocean-Dr-34957/unit-309/home/91647903,Beaches MLS,RX-10939122,N,Y,27.2843991,-80.2105314
MLS Listing,,Single Family Residential,4542 SW Wabash St,Port Saint Lucie,FL,34953,640000,4,3.0,Port ST Lucie Section 33,2518,10000,2023,6,254,,Active,,,https://www.redfin.com/FL/Port-Saint-Lucie/4542-SW-Wabash-St-34953/home/139543684,Beaches MLS,RX-10939093,N,Y,27.211567,-80.37552
MLS Listing,,Condo/Co-op,9400 S Ocean Dr Unit 106B,Jensen Beach,FL,34957,390000,2,2.0,OCEAN TOWERS CONDOMINIUM,1053,,1981,6,370,834,Active,,,https://www.redfin.com/FL/Jensen-Beach/9400-S-Ocean-Dr-34957/unit-106B/home/106348003,MARMLS,A11492394,N,Y,27.29432,-80.2148333
MLS Listing,,Condo/Co-op,10680 S Ocean Dr #705,Jensen Beach,FL,34957,549000,2,2.0,Island Crest Condominium,1023,,1981,6,537,923,Active,,,https://www.redfin.com/FL/Jensen-Beach/10680-S-Ocean-Dr-34957/unit-705/home/91646420,Beaches MLS,RX-10939088,N,Y,27.2714864,-80.2042871
MLS Listing,,Townhouse,696 NE Waters Edge Ln,Port Saint Lucie,FL,34983,319900,2,2.5,River Place ON The ST Lucie No. 8,1354,1742,2020,6,236,184,Active,,,https://www.redfin.com/FL/Port-Saint-Lucie/696-NE-Waters-Edge-Ln-34983/home/105507806,Beaches MLS,RX-10939072,N,Y,27.3445042,-80.3448183
MLS Listing,,Single Family Residential,1714 N 17th St,Fort Pierce,FL,34950,249000,3,1.0,Highland Park Subdivision,960,4840,1982,6,259,,Active,,,https://www.redfin.com/FL/Fort-Pierce/1714-N-17th-St-34950/home/106380599,Beaches MLS,RX-10939071,N,Y,27.4653335,-80.3413935
MLS Listing,,Single Family Residential,1554 SE Sunshine Ave,Port Saint Lucie,FL,34952,549000,3,2.0,South Port ST Lucie Unit 10 1st Replat,2058,13504,1973,6,267,,Active,,,https://www.redfin.com/FL/Port-Saint-Lucie/1554-SE-Sunshine-Ave-34952/home/129051581,Beaches MLS,RX-10939068,N,Y,27.251725,-80.3030078
MLS Listing,,Mobile/Manufactured Home,10725 S Ocean Dr #477,Jensen Beach,FL,34957,285000,1,1.0,Holiday Out AT ST Lucie Section B,429,1795,1989,6,664,257,Active,,,https://www.redfin.com/FL/Jensen-Beach/10725-S-Ocean-Dr-34957/unit-477/home/108406685,Beaches MLS,RX-10939050,N,Y,27.2687498,-80.2043198
MLS Listing,,Single Family Residential,221 SE Longview Dr,Port Saint Lucie,FL,34984,539000,2,2.0,Veranda Plat NO 3 Veranda Gardens West Phase 1,1986,6795,2016,6,271,277,Active,December-14-2023 10:00 AM,December-14-2023 01:00 PM,https://www.redfin.com/FL/Port-Saint-Lucie/221-SE-Longview-Dr-34984/home/140789833,Beaches MLS,RX-10939046,N,Y,27.2111362,-80.3175946
MLS Listing,,Single Family Residential,618 Beach Ave,Port Saint Lucie,FL,34952,249900,2,1.0,River Park Unit 2,1138,8250,1968,6,220,,Active,,,https://www.redfin.com/FL/Port-Saint-Lucie/618-Beach-Ave-34952/home/140212738,Beaches MLS,RX-10939024,N,Y,27.3334411,-80.3300363
MLS Listing,,Single Family Residential,12 Harbour Isle Dr W #205,Fort Pierce,FL,34949,449000,2,2.0,Harbour Isle at Hutchinson Island,1989,,2005,6,226,866,Pre On-Market,,,https://www.redfin.com/FL/Fort-Pierce/12-Harbour-Isle-Dr-W-34949/unit-205/home/113653082,RAIRCMLS,273353,N,Y,27.459716,-80.3089987
MLS Listing,,Single Family Residential,5047 N Hwy Highway A1a #401,Fort Pierce,FL,34950,790000,2,2.0,Atlantic View,1436,,1989,6,550,1038,Active,,,https://www.redfin.com/FL/Fort-Pierce/5047-North-Highway-A1A-34949/unit-401/home/176187720,RAIRCMLS,273145,N,Y,27.5252696,-80.3133702
MLS Listing,,Single Family Residential,690 SW Tulip Blvd,Port St. Lucie,FL,34953,132000,,,Port St Lucie Sec 22,10454,10454,,6,13,,Active,,,https://www.redfin.com/FL/Port-Saint-Lucie/690-Sw-Tulip-Blvd-34953/home/104455987,Beaches MLS,F10411498,N,Y,27.242241,-80.365447
MLS Listing,,Single Family Residential,5848 Travelers Way,Fort Pierce,FL,34982,264000,2,2.0,Palm Grove,1305,5227,1996,6,202,340,Active,,,https://www.redfin.com/FL/Fort-Pierce/5848-Travelers-Way-34982/home/104392558,MCRTC,M20042099,N,Y,27.3583507,-80.3181643
MLS Listing,,Single Family Residential,6309 NW Leafmore Ln,Port Saint Lucie,FL,34987,366235,3,2.0,Ltc Ranch West Phase 1,1442,5184,2023,6,254,280,Active,,,https://www.redfin.com/FL/Port-Saint-Lucie/6309-NW-Leafmore-LN-34987/home/188331292,Beaches MLS,RX-10939004,N,Y,27.3652,-80.4301
MLS Listing,,Condo/Co-op,5167 N Highway A1a Hwy #306,Hutchinson Island,FL,34949,587500,2,2.0,Ocean Harbour Tower Condominium E,1230,999,1995,6,478,694,Active,,,https://www.redfin.com/FL/Hutchinson-Island/5167-N-Highway-A1A-34949/unit-306/home/140059066,Beaches MLS,RX-10939002,N,Y,27.5333738,-80.3169321
MLS Listing,,Single Family Residential,5761 Spanish River Rd,Fort Pierce,FL,34951,380000,3,2.5,Portofino Shores Phase Three,1950,10454,2005,6,195,145,Active,,,https://www.redfin.com/FL/Fort-Pierce/5761-Spanish-River-Rd-34951/home/131207601,Beaches MLS,RX-10938999,N,Y,27.5416289,-80.3895466
MLS Listing,,Single Family Residential,9216 SW Bethpage Way,Port Saint Lucie,FL,34986,1205875,3,3.5,Verano South - Pod G - Plat No. 4,3223,16988,2023,6,374,240,Active,,,https://www.redfin.com/FL/Port-Saint-Lucie/9216-SW-Bethpage-WAY-34986/home/188729058,Beaches MLS,RX-10938993,N,Y,27.211342,-80.36122
MLS Listing,,Single Family Residential,350 SE Husted,Port Saint Lucie,FL,34983,399900,3,2.0,PORT ST LUCIE SECTION 24,1634,10000,1981,6,245,,Active,,,https://www.redfin.com/FL/Port-Saint-Lucie/350-SE-Husted-Ter-34983/home/108406874,Stellar MLS as Distributed by MLS Grid,S5095395,N,Y,27.30595,-80.34135
MLS Listing,,Single Family Residential,1818 SE Vesthaven Ct,Port Saint Lucie,FL,34952,260000,2,2.0,Port Saint Lucie,896,,1975,6,290,,Pre On-Market,,,https://www.redfin.com/FL/Port-Saint-Lucie/1818-SE-Vesthaven-Ct-34952/home/139570471,Beaches MLS,RX-10938976,N,Y,27.2849023,-80.3060549
MLS Listing,,Single Family Residential,228 NW Liseron Way,Port Saint Lucie,FL,34986,499000,3,2.0,Cascades AT ST Lucie West Phase 1 ST Lucie West Plat NO 110,2184,7057,2001,6,228,366,Active,,,https://www.redfin.com/FL/Port-Saint-Lucie/228-NW-Liseron-Way-34986/home/108391659,Beaches MLS,RX-10938961,N,Y,27.3294412,-80.3899227
MLS Listing,,Single Family Residential,750 SW Airoso Blvd,Port Saint Lucie,FL,34983,315000,2,2.0,River Park Unit 6,1112,9000,1965,6,283,,Active,,,https://www.redfin.com/FL/Port-Saint-Lucie/750-SW-Airoso-Blvd-34983/home/104349088,Beaches MLS,RX-10938954,N,Y,27.3126366,-80.3499212
MLS Listing,,Single Family Residential,11 Nogales Way,Port Saint Lucie,FL,34952,234900,2,2.0,Spanish Lakes One Leasehold Estates,1451,4792,2017,6,162,300,Active,,,https://www.redfin.com/FL/Port-Saint-Lucie/11-Nogales-Way-34952/home/144707996,Beaches MLS,RX-10938948,N,Y,27.3202503,-80.307694
MLS Listing,,Single Family Residential,9406 SW Libertas Way,Port St. Lucie,FL,34987,367560,3,2.0,Central Park Villas,1503,,2023,6,245,117,Active,,,https://www.redfin.com/FL/Port-Saint-Lucie/9406-SW-Libertas-Way-34987/home/175020671,Beaches MLS,F10411449,N,Y,27.296775,-80.449853
MLS Listing,,Single Family Residential,1771 SW Lofgren Ave,Port Saint Lucie,FL,34953,457000,4,2.0,Port ST Lucie Section 19,1916,10000,2023,6,239,,Active,,,https://www.redfin.com/FL/Port-Saint-Lucie/1771-SW-Lofgren-Ave-34953/home/140508375,Beaches MLS,RX-10937888,N,Y,27.237313,-80.4016784
MLS Listing,,Single Family Residential,7180 Silver Oak Dr,Port Saint Lucie,FL,34952,1200000,3,1.0,St Lucie Gardens Sub,1736,402494,1980,6,691,,Active,,,https://www.redfin.com/FL/Port-Saint-Lucie/7180-Silver-Oak-Dr-34952/home/143566093,MCRTC,M20042126,N,Y,27.334963,-80.30856
MLS Listing,,Single Family Residential,1718 Rio Vista Dr,Fort Pierce,FL,34949,1350000,4,3.5,Surfside Unit 2,2868,13068,1974,6,471,,Active,,,https://www.redfin.com/FL/Fort-Pierce/1718-Rio-Vista-Dr-34949/home/104352327,Beaches MLS,RX-10938929,N,Y,27.4479671,-80.2881842
MLS Listing,,Condo/Co-op,8350 Mulligan Cir #8350,Port Saint Lucie,FL,34986,309000,2,2.5,Castle Pines Condominium,1312,,2001,6,236,981,Active,,,https://www.redfin.com/FL/Port-St-Lucie/8350-Mulligan-Cir-34986/unit-8350/home/188726222,Beaches MLS,RX-10938927,N,Y,27.316725,-80.4194536
MLS Listing,,Single Family Residential,9208 SW Bethpage Way,Port Saint Lucie,FL,34986,1117720,3,3.5,Verano South - Pod G - Plat No. 4,2876,16988,2023,6,389,240,Active,,,https://www.redfin.com/FL/Port-Saint-Lucie/9208-SW-Bethpage-WAY-34986/home/188726066,Beaches MLS,RX-10938916,N,Y,27.211342,-80.361221
MLS Listing,,Single Family Residential,2302 SE Calcutta Cir,Port Saint Lucie,FL,34952,509900,3,2.5,Port ST Lucie Section 29,2322,10890,1983,6,220,,Active,,,https://www.redfin.com/FL/Port-Saint-Lucie/2302-SE-Calcutta-Cir-34952/home/130715516,Beaches MLS,RX-10938911,N,Y,27.2920831,-80.2776472
MLS Listing,,Vacant Land,520 N 17th St,Fort Pierce,FL,34946,15000,,,Metes And Bounds,,4620,,6,,,Pre On-Market,,,https://www.redfin.com/FL/Fort-Pierce/520-N-17th-St-34950/home/188725819,Beaches MLS,RX-10938908,N,Y,27.4543905,-80.3415059
MLS Listing,,Single Family Residential,9217 SW Bethpage Way,Port Saint Lucie,FL,34986,838135,4,3.5,Verano South - Pod G - Plat No. 4,2586,11761,2023,6,324,240,Active,,,https://www.redfin.com/FL/Port-Saint-Lucie/9217-SW-Bethpage-WAY-34986/home/188725644,Beaches MLS,RX-10938893,N,Y,27.211342,-80.361221
MLS Listing,,Single Family Residential,9850 SW Eastbrook Cir,Port Saint Lucie,FL,34987,380000,3,2.0,Heritage Oaks Tradition Plat NO 18,1702,6098,2007,6,223,406,Active,,,https://www.redfin.com/FL/Port-Saint-Lucie/9850-SW-Eastbrook-Cir-34987/home/89512552,Beaches MLS,RX-10938877,N,Y,27.286524,-80.433054
MLS Listing,,Single Family Residential,370 SW North Shore Blvd,Port Saint Lucie,FL,34986,385000,3,2.0,Lakeforest AT ST Lucie West Phase 1,1533,5706,2001,7,251,235,Active,,,https://www.redfin.com/FL/Port-Saint-Lucie/370-SW-North-Shore-Blvd-34986/home/108954033,Beaches MLS,RX-10938864,N,Y,27.3138342,-80.3760865
MLS Listing,,Single Family Residential,1407 Hale Ct,Fort Pierce,FL,34982,245000,2,1.5,Maravilla West,1135,8100,1964,7,216,,Active,,,https://www.redfin.com/FL/Fort-Pierce/1407-Hale-Ct-34982/home/104349720,Beaches MLS,RX-10938821,N,Y,27.4197942,-80.3392179
MLS Listing,,Single Family Residential,252 SW Lakehurst Dr,Port Saint Lucie,FL,34983,230000,2,1.0,,1132,10000,1971,7,203,,Active,,,https://www.redfin.com/FL/Port-Saint-Lucie/252-SW-Lakehurst-Dr-34983/home/140529063,Beaches MLS,RX-10938815,N,Y,27.3079129,-80.3539238
MLS Listing,,Single Family Residential,2069 SE Mosaic Blvd,Port Saint Lucie,FL,34984,716705,3,3.5,Veranda Estates Phase 1,2586,8827,2023,7,277,246,Active,,,https://www.redfin.com/FL/Port-St-Lucie/2069-SE-Mosaic-BLVD-34984/home/187027937,Beaches MLS,RX-10938801,N,Y,27.209698,-80.299994
MLS Listing,,Single Family Residential,633 NE Larkspur Ln,Port Saint Lucie,FL,34953,389900,4,2.0,Port ST Lucie Section 26,1797,10000,1984,7,217,,Active,,,https://www.redfin.com/FL/Port-Saint-Lucie/633-NE-Larkspur-Ln-34983/home/140443580,Beaches MLS,RX-10938797,N,Y,27.3319683,-80.3448308
MLS Listing,,Single Family Residential,2776 SE Ashfield Dr,Port Saint Lucie,FL,34984,622615,3,3.0,Veranda Estates Phase 1,2129,7132,2023,7,292,245,Active,,,https://www.redfin.com/FL/Port-Saint-Lucie/2776-SE-Ashfield-Dr-34984/home/183010607,Beaches MLS,RX-10938793,N,Y,27.273049,-80.358226
MLS Listing,,Single Family Residential,977 SW Sarto Ln,Port St. Lucie,FL,34953,319900,2,2.0,PORT ST LUCIE SECTION 12,1140,10756,1978,7,281,,Active,,,https://www.redfin.com/FL/Port-Saint-Lucie/977-SW-Sarto-Ln-34953/home/129143301,MARMLS,A11491139,N,Y,27.2710652,-80.3792692
MLS Listing,,Single Family Residential,1010 Mayflower Rd,Fort Pierce,FL,34950,319000,2,1.0,Pinewood Subdivision,1158,,1948,7,275,,Active,,,https://www.redfin.com/FL/Fort-Pierce/1010-Mayflower-Rd-34950/home/128635517,Beaches MLS,RX-10938781,N,Y,27.434643,-80.327269
MLS Listing,,Single Family Residential,411 SW Dauphin Ave,Port Saint Lucie,FL,34953,370000,3,2.0,Port St Lucie Section 41,1128,10818,1989,7,328,,Active,,,https://www.redfin.com/FL/Port-Saint-Lucie/411-SW-Dauphin-Ave-34953/home/129627833,Beaches MLS,RX-10938760,N,Y,27.2599806,-80.3604057
MLS Listing,,Single Family Residential,107 N 11th St,Fort Pierce,FL,34947,160000,2,1.0,M E Goldsmith's Subdivision,696,2625,1922,7,230,,Active,,,https://www.redfin.com/FL/Fort-Pierce/107-N-11th-St-34950/home/131009462,Beaches MLS,RX-10938758,N,Y,27.447458,-80.3345619
MLS Listing,,Single Family Residential,1281 SE Navajo Ln,Port Saint Lucie,FL,34983,375000,3,2.0,Port ST Lucie,1412,10000,1979,7,266,,Active,,,https://www.redfin.com/FL/Port-Saint-Lucie/1281-SE-Navajo-Ln-34983/home/104443804,Beaches MLS,RX-10938753,N,Y,27.3020668,-80.3430469
MLS Listing,,Single Family Residential,634 SW Bolin Ct,Port Saint Lucie,FL,34983,231000,2,2.0,Port ST Lucie Section 45,1389,11326,1973,7,166,,Active,,,https://www.redfin.com/FL/Port-Saint-Lucie/634-SW-Bolin-Ct-34983/home/129005280,Beaches MLS,RX-10938748,N,Y,27.3117473,-80.3534887
MLS Listing,,Single Family Residential,1100 Orange Ave,Fort Pierce,FL,34950,160000,2,1.0,M E Goldsmith's Subdivision,740,5227,1922,7,216,,Active,,,https://www.redfin.com/FL/Fort-Pierce/1100-Orange-Ave-34950/home/140130969,Beaches MLS,RX-10938744,N,Y,27.447241,-80.334523
MLS Listing,,Single Family Residential,271 NE Faring Ave,Port Saint Lucie,FL,34983,339000,4,2.0,Port ST Lucie Floresta Pines Unit 2,1384,9838,1973,7,245,,Active,,,https://www.redfin.com/FL/Port-Saint-Lucie/271-NE-Faring-Ave-34983/home/140420795,Beaches MLS,RX-10938722,N,Y,27.3271047,-80.3428728
MLS Listing,,Vacant Land,857 SW Haas Ave,Port Saint Lucie,FL,34953,125000,,,Port ST Lucie Section 21,,11761,,7,,,Active,,,https://www.redfin.com/FL/Port-Saint-Lucie/857-SW-Haas-Ave-34953/home/139909787,Beaches MLS,RX-10938721,N,Y,27.221774,-80.374056
MLS Listing,,Single Family Residential,2473 SE Burton St,Port Saint Lucie,FL,34952,350000,3,2.0,Port ST Lucie Section 30,1208,10454,1986,7,290,,Active,,,https://www.redfin.com/FL/Port-Saint-Lucie/2473-SE-Burton-St-34952/home/104351327,Beaches MLS,RX-10938695,N,Y,27.268001,-80.273122
MLS Listing,,Single Family Residential,1949 SE Cheltenham St,Port Saint Lucie,FL,34983,320000,3,2.0,Port St Lucie Section 10,1708,10000,1980,7,187,,Active,,,https://www.redfin.com/FL/Port-Saint-Lucie/1949-SE-Cheltenham-St-34983/home/132199707,Beaches MLS,RX-10938691,N,Y,27.2822619,-80.329884
MLS Listing,,Single Family Residential,520 SW Dailey Ave,Port Saint Lucie,FL,34953,575000,4,3.0,Port ST Lucie Section 22,2356,10000,2014,7,244,,Active,,,https://www.redfin.com/FL/Port-Saint-Lucie/520-SW-Dailey-Ave-34953/home/140345947,Beaches MLS,RX-10938687,N,Y,27.2265044,-80.3639201
MLS Listing,,Single Family Residential,10943 SW Visconti Way,Port Saint Lucie,FL,34986,625000,3,2.0,Verano Pud 1 Plat NO 15,1932,7144,2018,7,323,540,Active,,,https://www.redfin.com/FL/Port-Saint-Lucie/10943-SW-Visconti-Way-34986/home/141320027,Beaches MLS,RX-10938684,N,Y,27.31103,-80.438036
MLS Listing,,Single Family Residential,4180 N Highway A1a Unit 1205-B,Fort Pierce,FL,34949,1399000,3,3.5,Oceanique Condo,2833,,2007,7,494,1042,Active,,,https://www.redfin.com/FL/Fort-Pierce/4180-Florida-A1A-34949/unit-1205-B/home/188536624,RAIRCMLS,272975,N,Y,27.5102285,-80.3057515
MLS Listing,,Condo/Co-op,3120 N Highway A1a #305,Hutchinson Island,FL,34949,699000,3,2.0,Tiara Towers Condominium,1892,,1989,7,369,1050,Active,,,https://www.redfin.com/FL/Hutchinson-Island/3120-North-Highway-A1A-34949/unit-305/home/188702023,Beaches MLS,RX-10938653,N,Y,27.4914867,-80.2986328
MLS Listing,,Single Family Residential,5834 NW Windy Pines Ln,Port Saint Lucie,FL,34986,405000,3,2.0,Estates at Windy Pines,1842,11326,2004,7,220,67,Active,,,https://www.redfin.com/FL/Port-Saint-Lucie/5834-NW-Windy-Pines-Ln-34986/home/64087477,Beaches MLS,RX-10938635,N,Y,27.3508231,-80.3955692
MLS Listing,,Single Family Residential,2001 SW Monterrey Ln,Port St. Lucie,FL,34953,435000,4,2.0,PORT ST LUCIE SECTION 9,1874,10000,2020,7,232,,Active,,,https://www.redfin.com/FL/Port-Saint-Lucie/2001-SW-Monterrey-Ln-34953/home/139400147,MARMLS,A11489863,N,Y,27.282004,-80.3684966
MLS Listing,,Condo/Co-op,10410 S Ocean Dr #607,Jensen Beach,FL,34957,639000,2,2.0,Hutchinson Island Club,1452,,1977,7,440,1544,Active,,,https://www.redfin.com/FL/Jensen-Beach/10410-S-Ocean-Dr-34957/unit-607/home/108394276,MCRTC,M20042093,N,Y,27.2741837,-80.2056994
MLS Listing,,Single Family Residential,10102 SW Chadwick Dr,Port Saint Lucie,FL,34987,349900,3,2.0,Heritage Oaks,1532,5227,2007,7,228,415,Active,,,https://www.redfin.com/FL/Port-Saint-Lucie/10102-SW-Chadwick-Dr-34987/home/104380470,Beaches MLS,RX-10938606,N,Y,27.2809427,-80.4355447
MLS Listing,,Condo/Co-op,12394 Harbour Ridge Blvd Unit 5-5,Palm City,FL,34990,699900,3,3.0,Harbour Ridge - South Shore Village Condominium,1969,,1994,7,355,3762,Active,,,https://www.redfin.com/FL/Palm-City/12394-Harbour-Ridge-Blvd-34990/unit-5-5/home/102509751,Beaches MLS,RX-10937347,N,Y,27.2336198,-80.310592
MLS Listing,,Single Family Residential,7009 Arthurs Rd,Fort Pierce,FL,34951,359000,3,2.5,Lakewood Park Unit 12,2121,10454,1992,7,169,6,Active,,,https://www.redfin.com/FL/Fort-Pierce/7009-Arthurs-Rd-34951/home/104431160,Beaches MLS,RX-10937731,N,Y,27.532571,-80.396487
MLS Listing,,Single Family Residential,487 SW Feldman Ave,Port Saint Lucie,FL,34953,550000,4,3.0,Port ST Lucie Section 22,2438,10019,2017,7,226,,Active,,,https://www.redfin.com/FL/Port-Saint-Lucie/487-SW-Feldman-Ave-34953/home/139173874,Beaches MLS,RX-10937009,N,Y,27.2323216,-80.3626025
MLS Listing,,Single Family Residential,9991 SW Glenbrook Dr,Port Saint Lucie,FL,34987,375000,4,2.0,Heritage Oaks at Tradition,1731,,2007,7,217,369,Active,,,https://www.redfin.com/FL/Port-Saint-Lucie/9991-SW-Glenbrook-Dr-34987/home/108565884,Beaches MLS,RX-10937388,N,Y,27.283105,-80.436111
MLS Listing,,Single Family Residential,8020 S Ocean Dr,Jensen Beach,FL,34957,7288000,5,6.0,Diamond Sands 2,4682,23086,2019,8,1557,551,Active,,,https://www.redfin.com/FL/Jensen-Beach/8020-S-Ocean-Dr-34957/home/112980735,MCRTC,M20041916,N,Y,27.3177961,-80.2253261
MLS Listing,,Single Family Residential,6802 Ocala Ave,Fort Pierce,FL,34951,250000,4,1.5,Lakewood Park,1298,14736,1978,8,193,,Active,,,https://www.redfin.com/FL/Fort-Pierce/6802-Ocala-Ave-34951/home/104378759,MCRTC,M20042047,N,Y,27.5450191,-80.3932428
MLS Listing,,Single Family Residential,2013 SE Oxton Dr,Port Saint Lucie,FL,34952,690000,3,3.0,Ballantrae-Oxton,2088,12283,2001,8,330,323,Active,,,https://www.redfin.com/FL/Port-Saint-Lucie/2013-SE-Oxton-Dr-34952/home/140293160,MCRTC,M20042090,N,Y,27.2462262,-80.2906441
MLS Listing,,Single Family Residential,512 NW Galatone Ct,Port Saint Lucie,FL,34986,309500,2,2.0,Kings Isle Phase 6A,1590,4950,1997,8,195,384,Active,,,https://www.redfin.com/FL/Port-Saint-Lucie/512-NW-Galatone-Ct-34986/home/65140790,Beaches MLS,RX-10938548,N,Y,27.327661,-80.379185
MLS Listing,,Single Family Residential,596 SW Lake Charles Cir,Port Saint Lucie,FL,34986,596000,3,3.0,Lake Charles Phase 1A,2516,7112,1997,8,237,311,Active,December-9-2023 10:00 AM,December-9-2023 01:00 PM,https://www.redfin.com/FL/Port-Saint-Lucie/596-SW-Lake-Charles-Cir-34986/home/104441009,Beaches MLS,RX-10937644,N,Y,27.3019026,-80.4030802
MLS Listing,,Single Family Residential,834 SW Nichols Ter,Port Saint Lucie,FL,34953,349000,3,2.0,Port ST Lucie Section 12,1256,10000,2009,8,278,,Active,,,https://www.redfin.com/FL/Port-Saint-Lucie/834-SW-Nichols-Ter-34953/home/139956348,Beaches MLS,RX-10936412,N,Y,27.2701661,-80.3728897
MLS Listing,,Vacant Land,0 Gullotti Pl,Port Saint Lucie,FL,34952,249000,,,St Lucie Gardens Sub,,54450,,8,,,Active,,,https://www.redfin.com/FL/Port-Saint-Lucie/Gullotti-Pl-34952/home/144709070,MCRTC,M20041994,N,Y,27.328234,-80.298874
MLS Listing,,Condo/Co-op,7380 S Ocean Dr #221,Jensen Beach,FL,34957,480000,2,2.0,Dune Walk,1060,,1983,8,453,566,Active,,,https://www.redfin.com/FL/Jensen-Beach/7380-S-Ocean-Dr-34957/unit-221/home/140054823,MCRTC,M20042045,N,Y,27.3316305,-80.2315235
MLS Listing,,Single Family Residential,8516 Waterstone Blvd,Fort Pierce,FL,34951,417700,3,2.0,Waterstone Ph One,2010,8640,2020,8,208,5,Active,,,https://www.redfin.com/FL/Fort-Pierce/8516-Waterstone-Blvd-34951/home/140567117,Beaches MLS,F10411132,N,Y,27.5327851,-80.4090479
MLS Listing,,Vacant Land,2002 SW Justison Ave,Port Saint Lucie,FL,34953,180000,,,Port St Lucie Section 31,,22215,,8,,,Active,,,https://www.redfin.com/FL/Port-Saint-Lucie/2002-Sw-Justison-Ave-34953/home/140446264,Beaches MLS,RX-10937033,N,Y,27.272098,-80.4094
MLS Listing,,Single Family Residential,2419 SE Wishbone Rd,Port Saint Lucie,FL,34952,585000,4,3.0,South Port ST Lucie Unit 5,2371,10454,1997,8,247,,Active,,,https://www.redfin.com/FL/Port-Saint-Lucie/2419-SE-Wishbone-Rd-34952/home/140246102,Beaches MLS,RX-10937352,N,Y,27.2693641,-80.3104731
MLS Listing,,Condo/Co-op,924 Savannas Point Dr Unit D,Fort Pierce,FL,34950,189000,2,2.0,High Point OF Fort Pierce Condominium Section 1,1104,,1975,9,171,563,Active,,,https://www.redfin.com/FL/Fort-Pierce/924-Savannas-Point-Dr-34982/unit-D/home/132894332,Beaches MLS,RX-10938473,N,Y,27.4014524,-80.315543
MLS Listing,,Single Family Residential,1335 SW Cottonwood Cv,Port St. Lucie,FL,34986,548900,4,2.5,St Lucie West 2 Country C,2177,17542,1996,9,252,173,Active,,,https://www.redfin.com/FL/Port-Saint-Lucie/1335-SW-Cottonwood-Cv-34986/home/64087678,Beaches MLS,F10410930,N,Y,27.3057929,-80.3900032
MLS Listing,,Single Family Residential,10544 SW Captiva Dr,Port Saint Lucie,FL,34987,460000,3,2.0,Heron Perserve @ Tradition,1687,6360,2021,9,273,425,Active,,,https://www.redfin.com/FL/Port-Saint-Lucie/10544-SW-Captiva-Dr-34987/home/169760805,Beaches MLS,RX-10938464,N,Y,27.237415,-80.4289793
MLS Listing,,Single Family Residential,6160 NW Hacienda Ln,Port Saint Lucie,FL,34986,625000,4,3.0,Port ST Lucie Section 44,2400,10890,2005,9,260,,Active,,,https://www.redfin.com/FL/Port-Saint-Lucie/6160-NW-Hacienda-Ln-34986/home/133295727,Beaches MLS,RX-10938456,N,Y,27.3456231,-80.4075045
MLS Listing,,Single Family Residential,8002 Deland Ave,Fort Pierce,FL,34951,230000,2,2.0,Lakewood Park Unit 6,1008,11761,1988,9,228,,Active,,,https://www.redfin.com/FL/Fort-Pierce/8002-Deland-Ave-34951/home/140470568,Beaches MLS,RX-10938414,N,Y,27.5468626,-80.4054176
MLS Listing,,Mobile/Manufactured Home,270 Kingfisher Ave,Fort Pierce,FL,34982,40000,2,2.0,Sand Hill Shores,1200,,1974,9,33,700,Active,,,https://www.redfin.com/FL/Fort-Pierce/270-Kingfisher-Ave-34982/home/188697975,Beaches MLS,RX-10938409,N,Y,27.4097213,-80.3198527
MLS Listing,,Single Family Residential,7704 Pensacola Rd,Fort Pierce,FL,34951,279900,2,2.0,Lakewood Park,890,11790,1986,9,314,50,Active,,,https://www.redfin.com/FL/Fort-Pierce/7704-Pensacola-Rd-34951/home/140139866,Beaches MLS,RX-10935410,N,Y,27.5487345,-80.4029393
MLS Listing,,Single Family Residential,479 SE Fallon Dr,Port Saint Lucie,FL,34983,449900,3,2.0,Port ST Lucie Section 2,2062,10000,1981,9,218,,Active,,,https://www.redfin.com/FL/Port-Saint-Lucie/479-SE-Fallon-Dr-34983/home/139390087,Beaches MLS,RX-10938397,N,Y,27.3060845,-80.3373903
MLS Listing,,Single Family Residential,2543 SE Petit Ln,Port Saint Lucie,FL,34952,379900,3,2.0,South Port ST Lucie Unit 5,1458,9804,1976,9,261,,Active,,,https://www.redfin.com/FL/Port-Saint-Lucie/2543-SE-Petit-Ln-34952/home/91636272,Beaches MLS,RX-10938386,N,Y,27.265339,-80.3045749
MLS Listing,,Townhouse,2390 Marshfield Ct #206,Port Saint Lucie,FL,34953,319900,3,2.5,Third Replat OF Portofino Isles,1820,2919,2006,9,176,300,Active,,,https://www.redfin.com/FL/Port-St-Lucie/2390-Marshfield-Ct-34953/unit-206/home/146648307,Beaches MLS,RX-10938385,N,Y,27.2580454,-80.4147768
MLS Listing,,Single Family Residential,1231 SW Byron St,Port Saint Lucie,FL,34983,450000,3,2.0,Port ST Lucie Section 4,1352,10000,2001,10,333,,Active,,,https://www.redfin.com/FL/Port-Saint-Lucie/1231-SW-Byron-St-34983/home/104339878,Beaches MLS,RX-10938383,N,Y,27.3041335,-80.3570889
MLS Listing,,Single Family Residential,12805 SW Ambra St,Port Saint Lucie,FL,34987,464900,2,2.0,Esplanade AT Tradition,1778,7231,2022,10,261,493,Active,,,https://www.redfin.com/FL/Port-Saint-Lucie/12805-SW-Ambra-St-34987/home/173781307,Beaches MLS,RX-10938377,N,Y,27.2797888,-80.4559237
MLS Listing,,Single Family Residential,128 NW Doreen St,Port Saint Lucie,FL,34983,335500,2,2.0,Port ST Lucie Section 27,1191,10000,1973,10,282,,Active,,,https://www.redfin.com/FL/Port-Saint-Lucie/128-NW-Doreen-St-34983/home/91630189,Beaches MLS,RX-10938365,N,Y,27.3196095,-80.3678876
MLS Listing,,Mobile/Manufactured Home,3835 Sandlace Ct,Port Saint Lucie,FL,34952,214900,2,2.0,The Preserve AT Savanna Club,1588,5200,2001,10,135,250,Active,,,https://www.redfin.com/FL/Port-Saint-Lucie/3835-Sandlace-Ct-34952/home/140454650,Beaches MLS,RX-10938360,N,Y,27.3230329,-80.2856807
MLS Listing,,Single Family Residential,2044 SE Morningside Blvd,Port Saint Lucie,FL,34952,650000,4,2.0,South Port ST Lucie,2786,20909,2000,10,233,,Pre On-Market,,,https://www.redfin.com/FL/Port-Saint-Lucie/2044-SE-Morningside-Blvd-34952/home/104373855,Beaches MLS,RX-10938357,N,Y,27.2798769,-80.2995035
MLS Listing,,Condo/Co-op,3150 N Highway A1a #504,Hutchinson Island,FL,34949,629000,3,2.0,Tiara Towers Condominium,1867,,1989,10,337,1001,Active,,,https://www.redfin.com/FL/Hutchinson-Island/3150-N-Highway-A1A-34949/unit-504/home/139771561,Beaches MLS,RX-10938353,N,Y,27.4923225,-80.298894
MLS Listing,,Single Family Residential,2070 SE West Dunbrooke Cir,Port Saint Lucie,FL,34952,359900,2,2.0,Port ST Lucie Section 51,1376,,1984,10,262,,Active,,,https://www.redfin.com/FL/Port-Saint-Lucie/2070-SE-West-Dunbrooke-Cir-34952/home/104437743,Beaches MLS,RX-10938338,N,Y,27.3040137,-80.2867256
MLS Listing,,Single Family Residential,5734 Travelers Way,Fort Pierce,FL,34982,255000,2,2.0,PALM GROVE SUBDIVISION,1135,6098,1999,10,225,340,Active,,,https://www.redfin.com/FL/Fort-Pierce/5734-Travelers-Way-34982/home/64089760,MARMLS,A11490181,N,Y,27.3612108,-80.319548
MLS Listing,,Mobile/Manufactured Home,365 Seahorse Ter Unit J-13,Fort Pierce,FL,34982,199900,2,2.0,Tropical Isles,1800,,1995,10,111,251,Active,,,https://www.redfin.com/FL/Fort-Pierce/365-Seahorse-Ter-34982/unit-J-13/home/146567140,Beaches MLS,RX-10938334,N,Y,27.3656315,-80.3197221
MLS Listing,,Single Family Residential,5213 Deer Run Dr,Fort Pierce,FL,34951,650000,4,3.0,Holiday Pines Subdivision Phase Iii,2394,26572,2004,10,272,,Active,,,https://www.redfin.com/FL/Fort-Pierce/5213-Deer-Run-Dr-34951/home/139768072,Beaches MLS,RX-10938326,N,Y,27.529657,-80.37958
MLS Listing,,Single Family Residential,107 NE Royce Ave,Port Saint Lucie,FL,34983,550000,3,2.0,Northport Village,1762,,1989,10,312,,Active,,,https://www.redfin.com/FL/Port-Saint-Lucie/107-NE-Royce-Ave-34983/home/129339525,Beaches MLS,RX-10933445,N,Y,27.3372855,-80.3500518
MLS Listing,,Mobile/Manufactured Home,45 Golf Dr,Port Saint Lucie,FL,34952,62000,2,2.0,Spanish Lakes One 55+ Community,1122,,1973,10,55,,Active,,,https://www.redfin.com/FL/Port-St-Lucie/45-Golf-Dr-34952/home/180994261,Beaches MLS,RX-10938321,N,Y,27.3208121,-80.3112323
MLS Listing,,Single Family Residential,1415 SE Bernardo Ter,Port Saint Lucie,FL,34952,490000,4,2.5,South Port ST Lucie Unit 5,2232,9985,2023,10,220,,Active,,,https://www.redfin.com/FL/Port-Saint-Lucie/1415-SE-Bernardo-Ter-34952/home/139999918,Beaches MLS,RX-10938315,N,Y,27.266015,-80.307218
MLS Listing,,Single Family Residential,2630 SW Ace Rd,Port Saint Lucie,FL,34953,360000,2,2.0,Port ST Lucie-section 23-,1820,9525,1988,10,198,,Active,,,https://www.redfin.com/FL/Port-Saint-Lucie/2630-SW-Ace-Rd-34953/home/128667721,Beaches MLS,RX-10938312,N,Y,27.2637847,-80.3812403
MLS Listing,,Single Family Residential,5721 NW Wesley Rd,Port Saint Lucie,FL,34986,490000,4,2.5,Port ST Lucie Section 44,2232,10000,2023,10,220,,Active,,,https://www.redfin.com/FL/Port-Saint-Lucie/5721-Nw-Wesley-Rd-34986/home/139565535,Beaches MLS,RX-10938310,N,Y,27.348483,-80.393073
MLS Listing,,Single Family Residential,174 SW Voltair Ter,Port Saint Lucie,FL,34984,440000,4,2.0,Port ST Lucie Section 13,1844,10000,2023,10,239,,Active,,,https://www.redfin.com/FL/Port-Saint-Lucie/174-SW-Voltair-Ter-34984/home/140215937,Beaches MLS,RX-10938305,N,Y,27.2881965,-80.3508784
MLS Listing,,Single Family Residential,262 NW Biltmore St,Port Saint Lucie,FL,34984,495000,4,2.5,Port ST Lucie Section 27,2148,10000,2024,10,230,,Active,,,https://www.redfin.com/FL/Port-St-Lucie/262-NW-Biltmore-St-34983/home/185764048,Beaches MLS,RX-10938301,N,Y,27.321574,-80.3729803
MLS Listing,,Single Family Residential,419 Sunview Way Way,Port Saint Lucie,FL,34986,545000,2,2.0,Cascades,2030,5924,2003,10,268,382,Active,,,https://www.redfin.com/FL/Port-Saint-Lucie/419-NW-Sunview-Way-34986/home/140425321,Beaches MLS,RX-10938295,N,Y,27.3351666,-80.3903728
MLS Listing,,Mobile/Manufactured Home,3359 Columbrina Cir,Port Saint Lucie,FL,34952,299000,2,2.0,Savanna Club Plat Iii,1635,5764,1992,10,183,252,Active,,,https://www.redfin.com/FL/Port-Saint-Lucie/3359-Columbrina-Cir-34952/home/64086502,Beaches MLS,RX-10938290,N,Y,27.3096329,-80.2897298
MLS Listing,,Single Family Residential,1450 SW Gadsan Ave,Port Saint Lucie,FL,34953,325000,3,2.0,Port ST Lucie Section 33,1132,14375,1993,10,287,,Active,,,https://www.redfin.com/FL/Port-Saint-Lucie/1450-SW-Gadsan-Ave-34953/home/140413161,Beaches MLS,RX-10913453,N,Y,27.2159225,-80.394243
MLS Listing,,Vacant Land,8201 Deland Ave,Fort Pierce,FL,34951,75000,,,Lakewood Park,,,,10,,80,Active,,,https://www.redfin.com/FL/Fort-Pierce/8201-Deland-Ave-34951/home/140026361,Beaches MLS,RX-10938286,N,Y,27.546414,-80.407453
MLS Listing,,Single Family Residential,17000 SW Sapri Way,Port Saint Lucie,FL,34986,925000,3,4.5,Verano Pud NO 1 Plat NO 12,3182,10454,2015,10,291,511,Pre On-Market,December-9-2023 12:00 PM,December-9-2023 03:00 PM,https://www.redfin.com/FL/Port-Saint-Lucie/17000-SW-Sapri-Way-34986/home/140091379,Beaches MLS,RX-10938282,N,Y,27.3049632,-80.4364046
MLS Listing,,Mobile/Manufactured Home,541 Natalie Drive Dr,Port Saint Lucie,FL,34952,1,2,2.0,La Buona Vita,1100,,1980,10,0,197,Active,,,https://www.redfin.com/FL/Port-Saint-Lucie/541-Natalie-Dr-34952/home/130053863,Beaches MLS,RX-10938260,N,Y,27.3116675,-80.3169801
MLS Listing,,Single Family Residential,364 SW Saginaw Ave,Port Saint Lucie,FL,34953,550000,3,3.0,Port ST Lucie Section 34,2067,14810,2019,10,266,,Active,,,https://www.redfin.com/FL/Port-Saint-Lucie/364-SW-Saginaw-Ave-34953/home/139531373,Beaches MLS,RX-10938254,N,Y,27.2185507,-80.3433515
MLS Listing,,Mobile/Manufactured Home,8590 Mary Anne Ln,Port Saint Lucie,FL,34952,1,2,2.0,La Buona Vita,1100,,1980,10,0,197,Active,,,https://www.redfin.com/FL/Port-Saint-Lucie/8590-Mary-Ann-Ln-34952/home/140570789,Beaches MLS,RX-10938239,N,Y,27.309731,-80.3146298
MLS Listing,,Condo/Co-op,7380 S Ocean Dr #621,Jensen Beach,FL,34957,515000,2,2.0,Dune Walk,1060,441153,1983,10,486,566,Active,,,https://www.redfin.com/FL/Jensen-Beach/7380-S-Ocean-Dr-34957/unit-621/home/139228245,MCRTC,M20041943,N,Y,27.3316305,-80.2315235
MLS Listing,,Single Family Residential,,Fort Pierce,FL,34981,1900900,5,3.5,Lazy Hammock,3544,38333,1977,10,536,,Active,,,https://www.redfin.com/FL/Fort-Pierce/Undisclosed-address-34981/home/139308378,Beaches MLS,RX-10938190,N,Y,27.4207366,-80.3680129
MLS Listing,,Townhouse,4245 N Highway A1a Hwy #4,Hutchinson Island,FL,34949,280000,2,1.5,Ocean Harbour Villas Condominium,1234,1000,1982,10,227,470,Active,,,https://www.redfin.com/FL/Hutchinson-Island/4245-N-Highway-A1A-34949/unit-4/home/139133620,Beaches MLS,RX-10937771,N,Y,27.5122359,-80.3077363
MLS Listing,,Condo/Co-op,34 Harbour Isle Dr #203,Fort Pierce,FL,34949,515000,2,2.0,Harbour Isle W,1989,,2006,11,259,867,Active,,,https://www.redfin.com/FL/Fort-Pierce/34-Harbour-Isle-Dr-W-34949/unit-203/home/139666322,Beaches MLS,F10410948,N,Y,27.4587325,-80.3109083
MLS Listing,,Single Family Residential,1552 SW Hextel Ave,Port Saint Lucie,FL,34953,344900,3,2.0,Port Saint Lucie Sec 19,1080,9865,1989,11,319,,Active,,,https://www.redfin.com/FL/Port-Saint-Lucie/1552-SW-Hextel-Ave-34953/home/104397653,Beaches MLS,RX-10938204,N,Y,27.2311831,-80.3965476
MLS Listing,,Single Family Residential,2026 SE Triumph Rd,Port Saint Lucie,FL,34952,439900,4,3.0,South Port Saint Lucie Unit 15,2116,,1978,11,208,,Active,,,https://www.redfin.com/FL/Port-Saint-Lucie/2026-SE-Triumph-Rd-34952/home/140376325,Beaches MLS,RX-10938202,N,Y,27.281044,-80.3106999
MLS Listing,,Single Family Residential,1913 Royal Palm Dr,Fort Pierce,FL,34982,329900,4,3.0,Orange Blossom Estates 1st Addition,2109,,1963,11,156,,Active,,,https://www.redfin.com/FL/Fort-Pierce/1913-Royal-Palm-Dr-34982/home/110163522,Beaches MLS,RX-10938198,N,Y,27.423956,-80.3454834
MLS Listing,,Condo/Co-op,12481 Harbour Ridge Blvd Unit 1-4,Palm City,FL,34990,198500,2,2.0,Harbour Ridge - Pond Apple Village,1499,,1988,11,132,3977,Active,,,https://www.redfin.com/FL/Palm-City/12481-Harbour-Ridge-Blvd-34990/unit-1-4/home/140314761,MCRTC,M20042055,N,Y,27.2327691,-80.3087626
MLS Listing,,Mobile/Manufactured Home,38 Sierra Del Norte,Fort Pierce,FL,34951,42000,2,2.0,Spanish Lakes Country Club Village,1380,,1986,11,30,833,Active,,,https://www.redfin.com/FL/Fort-Pierce/38-Sierra-Del-Norte-34951/home/188693371,Beaches MLS,RX-10938172,N,Y,27.5551078,-80.3882746
MLS Listing,,Single Family Residential,10826 SW Candlewood Rd,Port Saint Lucie,FL,34987,445000,3,2.0,Tradition Plat NO 5,2000,7579,2003,11,223,510,Active,,,https://www.redfin.com/FL/Port-Saint-Lucie/10826-SW-Candlewood-Rd-34987/home/100779155,Beaches MLS,RX-10938155,N,Y,27.267714,-80.441974
MLS Listing,,Mobile/Manufactured Home,3114 Columbrina Cir,Port Saint Lucie,FL,34952,315000,2,2.0,Savanna Club Plat II,1553,5177,1989,11,203,227,Active,,,https://www.redfin.com/FL/Port-Saint-Lucie/3114-Columbrina-Cir-34952/home/131478635,Beaches MLS,RX-10938154,N,Y,27.311258,-80.293385
MLS Listing,,Single Family Residential,430 Emerald Ave,Fort Pierce,FL,34945,599900,4,2.0,West Fort Pierce Estates,2401,60113,1976,12,250,,Pre On-Market,,,https://www.redfin.com/FL/Fort-Pierce/430-Emerald-Ave-34945/home/139712088,Beaches MLS,F10410925,N,Y,27.4447768,-80.4322392
MLS Listing,,Single Family Residential,1800 Wildcat Cove Dr,Fort Pierce,FL,34949,874900,3,3.0,RIVERPOINTE AT THE SANDS,2468,10062,2006,12,354,390,Active,,,https://www.redfin.com/FL/Hutchinson-Island/1800-Wildcat-Cv-34949/home/104402366,Stellar MLS as Distributed by MLS Grid,FC296283,N,Y,27.4918396,-80.3052269
MLS Listing,,Single Family Residential,1749 SW Desert Ave,Port Saint Lucie,FL,34953,465000,5,3.0,Port ST Lucie Section 11,2855,10000,2007,12,163,,Active,,,https://www.redfin.com/FL/Port-Saint-Lucie/1749-SW-Desert-Ave-34953/home/104404561,Beaches MLS,RX-10938144,N,Y,27.2878323,-80.4012218
MLS Listing,,Townhouse,2530 Creekside Dr,Fort Pierce,FL,34982,310000,4,2.5,River Oak,1708,4282,2006,12,181,271,Active,,,https://www.redfin.com/FL/Fort-Pierce/2530-Creekside-Dr-34981/home/104415266,Beaches MLS,RX-10938137,N,Y,27.3946393,-80.3511234
MLS Listing,,Single Family Residential,14418 Aguila Ave,Fort Pierce,FL,34951,197500,2,2.0,Spanish Lakes Fairways NE Phase,1530,5320,1997,12,129,,Active,,,https://www.redfin.com/FL/Fort-Pierce/14418-Aguila-34951/home/140464750,Beaches MLS,RX-10938128,N,Y,27.557982,-80.470405
MLS Listing,,Single Family Residential,865 Sandia Ave,Port Saint Lucie,FL,34983,309000,2,1.0,River Park,928,11160,1975,12,333,,Active,,,https://www.redfin.com/FL/Port-Saint-Lucie/865-Sandia-Ave-34983/home/140219968,Beaches MLS,RX-10938126,N,Y,27.3095092,-80.3449012
MLS Listing,,Condo/Co-op,36 Harbour Isle Dr #102,Fort Pierce,FL,34949,339000,2,2.0,"Harbour Isle AT Hutchinson Island West, A Condominium",1989,1000,2006,12,170,866,Active,,,https://www.redfin.com/FL/Fort-Pierce/36-Harbour-Isle-Dr-W-34949/unit-102/home/140615941,Beaches MLS,RX-10935155,N,Y,27.4615842,-80.3097766
MLS Listing,,Single Family Residential,5331 NW Wisk Fern Cir,Port Saint Lucie,FL,34986,380000,3,2.0,Winterlakes Tract H 1st Replat,1616,6098,2016,12,235,112,Active,,,https://www.redfin.com/FL/Port-Saint-Lucie/5331-NW-Wisk-Fern-Cir-34986/home/108261422,Beaches MLS,RX-10938086,N,Y,27.3623006,-80.3790206
MLS Listing,,Condo/Co-op,1820 Pelican Dr Unit A1,Fort Pierce,FL,34982,307500,2,2.0,The Lakes AT The Savannahs Condominium,1335,999,2006,12,230,383,Active,,,https://www.redfin.com/FL/Fort-Pierce/1820-Pelican-Dr-34982/unit-A1/home/104387259,Beaches MLS,RX-10938076,N,Y,27.4045788,-80.3201587
MLS Listing,,Single Family Residential,1361 SW Granville Ave,Port Saint Lucie,FL,34953,415000,3,2.0,Port ST Lucie Section 12,1540,10000,2021,12,269,,Active,,,https://www.redfin.com/FL/Port-Saint-Lucie/1361-SW-Granville-Ave-34953/home/140073479,Beaches MLS,RX-10938070,N,Y,27.274854,-80.388561
MLS Listing,,Single Family Residential,765 E Prima Vista Blvd,Port St. Lucie,FL,34952,340000,3,2.0,RIVER PARK UNIT 3,1622,10454,1966,12,210,,Active,,,https://www.redfin.com/FL/Port-Saint-Lucie/765-E-Prima-Vista-Blvd-34952/home/87955614,MARMLS,A11490261,N,Y,27.3265134,-80.3257468
MLS Listing,,Single Family Residential,432 SW Holden Ter,Port Saint Lucie,FL,34984,369900,3,2.0,Port St. Lucie,1566,10000,2005,12,236,,Active,,,https://www.redfin.com/FL/Port-Saint-Lucie/432-SW-Holden-Ter-34984/home/104384298,Beaches MLS,RX-10937975,N,Y,27.2863285,-80.3593617
MLS Listing,,Single Family Residential,4485 SW Tabor St,Port Saint Lucie,FL,34953,450000,3,2.0,Port ST Lucie Section 33,1888,14375,1995,12,238,,Active,,,https://www.redfin.com/FL/Port-Saint-Lucie/4485-SW-Tabor-St-34953/home/140311313,Beaches MLS,RX-10937973,N,Y,27.2137226,-80.3778262
MLS Listing,,Mobile/Manufactured Home,10725 South Ocean Dr #409,Jensen Beach,FL,34957,219900,1,1.0,Holiday Out,300,,2022,12,733,237,Active,,,https://www.redfin.com/FL/Jensen-Beach/10725-S-Ocean-Dr-34957/unit-409/home/139973522,Beaches MLS,RX-10937963,N,Y,27.2687498,-80.2043198
MLS Listing,,Single Family Residential,7305 Marsh Ter,Port Saint Lucie,FL,34986,539876,3,3.0,Marsh Landing AT The Reserve Phase 1,2460,9239,1991,12,219,437,Pre On-Market,,,https://www.redfin.com/FL/Port-Saint-Lucie/7305-Marsh-Ter-34986/home/139920584,Beaches MLS,RX-10937960,N,Y,27.3327286,-80.4328477
MLS Listing,,Single Family Residential,2967 SW Boxwood Cir,Port Saint Lucie,FL,34953,490000,4,2.0,Port ST Lucie Section 41,2236,11761,2005,12,219,,Active,,,https://www.redfin.com/FL/Port-Saint-Lucie/2967-SW-Boxwood-Cir-34953/home/104352333,Beaches MLS,RX-10937955,N,Y,27.2541666,-80.3526186
MLS Listing,,Single Family Residential,1622 SW Mcallister Ln,Port St. Lucie,FL,34953,480000,4,2.5,PORT ST LUCIE SECTION 9,2380,10000,2004,12,202,,Active,,,https://www.redfin.com/FL/Port-Saint-Lucie/1622-SW-McAllister-Ln-34953/home/104348021,MARMLS,A11489563,N,Y,27.2923576,-80.3715848
MLS Listing,,Townhouse,593 NW San Remo Cir,Port Saint Lucie,FL,34986,259900,2,1.5,Kings Isle Phase Iii,1066,1753,1997,12,244,393,Active,,,https://www.redfin.com/FL/Port-Saint-Lucie/593-NW-San-Remo-Cir-34986/home/108396236,Beaches MLS,RX-10937924,N,Y,27.3250539,-80.3866762
MLS Listing,,Single Family Residential,738 SW Munjack Cir,Port Saint Lucie,FL,34986,345000,2,2.0,Lake Charles Phase 3F,1327,5881,2002,12,260,278,Active,,,https://www.redfin.com/FL/Port-Saint-Lucie/738-SW-Munjack-Cir-34986/home/140039556,Beaches MLS,RX-10937915,N,Y,27.295852,-80.411098
MLS Listing,,Condo/Co-op,5047 N Highway A1a #1401,Hutchinson Island,FL,34949,499900,2,2.0,Atlantic View Beach Club Condo 1,1436,,1989,12,348,1038,Active,,,https://www.redfin.com/FL/Hutchinson-Island/5047-N-Highway-A1A-34949/unit-1401/home/140118204,MCRTC,M20041914,N,Y,27.5252635,-80.3133893
MLS Listing,,Single Family Residential,1841 SW Mackenzie St,Port Saint Lucie,FL,34953,575000,4,3.0,Port ST Lucie Section 11,2300,10000,2023,12,250,,Active,,,https://www.redfin.com/FL/Port-Saint-Lucie/1841-SW-Mackenzie-St-34953/home/139161275,Beaches MLS,RX-10937908,N,Y,27.287087,-80.414287
MLS Listing,,Single Family Residential,324 SW North Shore Blvd N,Port Saint Lucie,FL,34986,420000,2,2.0,Lakeforest AT ST Lucie West Phase 1,1310,5750,2002,12,321,235,Active,,,https://www.redfin.com/FL/Port-Saint-Lucie/324-SW-North-Shore-Blvd-34986/home/132110011,Beaches MLS,RX-10937045,N,Y,27.3153738,-80.3763257
MLS Listing,,Condo/Co-op,1775 Lakefront Blvd #2,Fort Pierce,FL,34982,267000,2,2.0,The Lakes AT The Savannahs Condominium,1330,999,2007,12,201,417,Active,,,https://www.redfin.com/FL/Fort-Pierce/1775-Lakefront-Blvd-34982/unit-2/home/188634342,Beaches MLS,RX-10937461,N,Y,27.4061736,-80.3199965
MLS Listing,,Single Family Residential,981 SW Paar Dr,Port St. Lucie,FL,34953,419999,3,2.0,PORT ST LUCIE SECTION 21,1851,10000,2021,13,227,,Active,,,https://www.redfin.com/FL/Port-Saint-Lucie/981-SW-Paar-Dr-34953/home/139832551,MARMLS,A11487899,N,Y,27.2252611,-80.377935
MLS Listing,,Single Family Residential,10683 SW Prato Way,Port St. Lucie,FL,34987,495000,3,3.0,Crosstown Commons,2034,6273,2021,13,243,25,Active,,,https://www.redfin.com/FL/Port-Saint-Lucie/10683-SW-Prato-Way-34987/home/173318588,Beaches MLS,F10410783,N,Y,27.2982916,-80.4332823
MLS Listing,,Single Family Residential,284 SW North Quick Cir,Port Saint Lucie,FL,34953,495000,5,2.0,Port ST Lucie Section 34,1946,,1993,13,254,,Active,,,https://www.redfin.com/FL/Port-Saint-Lucie/284-SW-North-Quick-Cir-34953/home/139843364,Beaches MLS,RX-10937882,N,Y,27.2170419,-80.3577086
MLS Listing,,Single Family Residential,1826 SE Killean Ct,Port Saint Lucie,FL,34952,725000,3,3.0,Ballantrae Killean,2200,8658,1997,13,330,281,Active,,,https://www.redfin.com/FL/Port-Saint-Lucie/1826-SE-Killean-Ct-34952/home/108409747,Beaches MLS,RX-10937872,N,Y,27.2431189,-80.2900999
MLS Listing,,Single Family Residential,444 SW Dalton Cir Cir,Port Saint Lucie,FL,34953,450000,3,2.0,Port St Lucie Sec 41,1726,10158,1991,13,261,,Active,,,https://www.redfin.com/FL/Port-Saint-Lucie/444-SW-Dalton-Cir-34953/home/130468386,MCRTC,M20042060,N,Y,27.2585768,-80.3604927
MLS Listing,,Single Family Residential,442 SW Dalton Cir,Port St. Lucie,FL,34953,449999,3,2.0,PORT ST LUCIE SECTION 41,1726,10019,1991,13,261,,Active,,,https://www.redfin.com/FL/Port-St-Lucie/442-SW-Dalton-Cir-34953/home/188658919,MARMLS,A11490084,N,Y,27.2586009,-80.3603883
MLS Listing,,Single Family Residential,1511 NW Buttonbush Cir,Palm City,FL,34990,899000,3,4.0,Harbour Ridge 13 Buttonbush Village,2800,14745,1991,13,321,574,Active,,,https://www.redfin.com/FL/Palm-City/1511-NW-Buttonbush-Cir-34990/home/139566149,MCRTC,M20041827,N,Y,27.2261199,-80.3150868
MLS Listing,,Single Family Residential,11675 SW Hawkins Ter,Port Saint Lucie,FL,34987,489900,3,2.0,Riverland,1599,5184,2020,13,306,422,Active,,,https://www.redfin.com/FL/Port-Saint-Lucie/11675-SW-Hawkins-Ter-34987/home/169759768,Beaches MLS,RX-10937822,N,Y,27.248585,-80.44225
MLS Listing,,Single Family Residential,1949 SW Swift Ave,Port St. Lucie,FL,34953,475000,4,2.0,PORT ST LUCIE SECTION 11,1856,20038,1993,13,256,,Active,,,https://www.redfin.com/FL/Port-Saint-Lucie/1949-SW-Swift-Ave-34953/home/104435211,MARMLS,A11489966,N,Y,27.287893,-80.407544
MLS Listing,,Single Family Residential,9606 SW Flowermound Cir,Port Saint Lucie,FL,34987,334990,3,2.0,Tradition Plat NO 18,1761,5663,2006,13,190,408,Active,,,https://www.redfin.com/FL/Port-Saint-Lucie/9606-SW-Flowermound-Cir-34987/home/104339681,Beaches MLS,RX-10936569,N,Y,27.2909118,-80.4377109
MLS Listing,,Single Family Residential,1018 SW Abingdon Ave,Port Saint Lucie,FL,34953,473900,4,3.0,Port ST Lucie Section 23,1776,10000,1988,13,267,,Active,,,https://www.redfin.com/FL/Port-Saint-Lucie/1018-SW-Abingdon-Ave-34953/home/139432723,Beaches MLS,RX-10937627,N,Y,27.2663088,-80.3789353
MLS Listing,,Single Family Residential,361 NW Friar St,Port Saint Lucie,FL,34983,379900,3,2.0,Port ST Lucie Section 25,1288,10000,2021,13,295,,Active,,,https://www.redfin.com/FL/Port-Saint-Lucie/361-NW-Friar-St-34983/home/140444198,Beaches MLS,RX-10937812,N,Y,27.3256022,-80.3664522
MLS Listing,,Single Family Residential,4560 Oleander Ave,Fort Pierce,FL,34982,69000,4,1.0,White City Subdivision,1471,23958,1955,13,47,,Active,,,https://www.redfin.com/FL/Fort-Pierce/4560-Oleander-Ave-34982/home/140166356,Beaches MLS,RX-10937810,N,Y,27.380626,-80.3337134
